# LAS format log file from PETREL
# Project units are specified as depth units
#==================================================================
~Version information
VERS.   2.0:
WRAP.   NO:
#==================================================================
~Well
STRT .m      4450.0000000 :
STOP .m      7050.0000000 :
STEP .m     1.00000000 :
NULL .        -999.250000 :
COMP.           : COMPANY
WELL.  WELL_4   : WELL
FLD.            : FIELD
LOC.            : LOCATION
SRVC.           : SERVICE COMPANY
DATE.  2023-03-20 17:52:46   : Log Export Date {yyyy-MM-dd HH:mm:ss}
PROV.           : PROVINCE
UWI.   WELL_4   : UNIQUE WELL ID
API.            : API NUMBER
#==================================================================
~Curve
DEPT .m                   : DEPTH
Depth .m                  : Depth
SP .mV                    : SP
SN .ohm.m                 : SN
LN .ohm.m                 : LN
LAT .ohm.m                : LAT
~Parameter
#==================================================================
~Ascii
# ...
 5980.0000000 5980.0000000 -8.079999924 1.7500000000 1.7599999905 2.1900000572
 5981.0000000 5981.0000000 -7.360000134 1.6000000238 1.8400000334 1.7699999809
 5982.0000000 5982.0000000 -7.460000038 1.5199999809 1.7599999905 1.5199999809
 5983.0000000 5983.0000000 -7.650000095 1.5199999809 1.7300000191 1.4900000095
 5984.0000000 5984.0000000 -7.699999809 1.5099999905 1.7500000000 1.6000000238
 5985.0000000 5985.0000000 -7.730000019 1.4500000477 1.7699999809 1.7200000286
 5986.0000000 5986.0000000 -8.039999962 1.6299999952 1.8099999428 1.6499999762
 5987.0000000 5987.0000000 -9.069999695 1.7699999809 1.8500000238 1.5399999619
 5988.0000000 5988.0000000 -10.61999989 2.0599999428 1.7699999809 1.6599999666
 5989.0000000 5989.0000000 -12.32999992 2.6500000954 1.6100000143 2.0299999714
 5990.0000000 5990.0000000 -13.42000008 2.9100000858 1.5399999619 2.4800000191
 5991.0000000 5991.0000000 -13.14000034 2.6900000572 1.5900000334 2.6600000858
 5992.0000000 5992.0000000 -11.97999954 2.2899999619 1.7699999809 2.4900000095
 5993.0000000 5993.0000000 -10.82999992 1.9900000095 1.8400000334 2.1400001049
 5994.0000000 5994.0000000 -10.46000004 1.8899999857 1.8300000429 1.7799999714
 5995.0000000 5995.0000000 -10.35000038 1.8799999952 1.7699999809 1.5000000000
 5996.0000000 5996.0000000 -10.64000034 1.8600000143 1.7000000477 1.3799999952
 5997.0000000 5997.0000000 -10.61999989 1.8400000334 1.6900000572 1.4199999571
 5998.0000000 5998.0000000 -9.489999771 1.7500000000 1.7799999714 1.4500000477
 5999.0000000 5999.0000000 -8.310000420 1.6299999952 1.8799999952 1.3400000334
 6000.0000000 6000.0000000 -7.670000076 1.6100000143 1.9500000477 1.1699999571
 6001.0000000 6001.0000000 -7.860000134 1.6499999762 1.9700000286 1.0399999619
 6002.0000000 6002.0000000 -8.880000114 1.7799999714 1.8899999857 1.0499999523
 6003.0000000 6003.0000000 -10.55000019 2.0199999809 1.7699999809 1.2400000095
 6004.0000000 6004.0000000 -12.02000046 2.2799999714 1.7000000477 1.3899999857
 6005.0000000 6005.0000000 -12.71000004 2.3499999046 1.7500000000 1.5099999905
 6006.0000000 6006.0000000 -12.22999954 2.2200000286 1.9099999666 1.4800000191
 6007.0000000 6007.0000000 -11.18999958 2.0899999142 2.0699999332 1.3799999952
 6008.0000000 6008.0000000 -10.86999989 2.0299999714 2.1600000858 1.3300000429
 6009.0000000 6009.0000000 -11.13000011 2.1199998856 2.1800000668 1.4099999666
 6010.0000000 6010.0000000 -12.31000042 2.3599998951 2.2000000477 1.5800000429
 6011.0000000 6011.0000000 -13.60999966 2.6400001049 2.2300000191 1.7300000191
 6012.0000000 6012.0000000 -14.21000004 2.9900000095 2.2999999523 1.8799999952
 6013.0000000 6013.0000000 -14.46000004 3.1700000763 2.4200000763 2.0299999714
 6014.0000000 6014.0000000 -14.68000031 3.2300000191 2.5199999809 2.1700000763
 6015.0000000 6015.0000000 -14.72999954 3.2500000000 2.4200000763 2.2899999619
 6016.0000000 6016.0000000 -14.30000019 3.2300000191 2.2200000286 2.3800001144
 6017.0000000 6017.0000000 -13.47999954 3.0000000000 2.0499999523 2.4600000381
 6018.0000000 6018.0000000 -12.15999985 2.4500000477 2.0499999523 2.5000000000
 6019.0000000 6019.0000000 -10.68000031 2.0000000000 2.2100000381 2.3599998951
 6020.0000000 6020.0000000 -8.760000229 1.8600000143 2.2200000286 1.9400000572
 6021.0000000 6021.0000000 -8.189999580 1.8200000525 2.0999999046 1.5299999714
 6022.0000000 6022.0000000 -8.869999886 1.8099999428 1.8799999952 1.4500000477
 6023.0000000 6023.0000000 -9.729999542 1.8799999952 1.6900000572 1.7200000286
 6024.0000000 6024.0000000 -9.689999580 1.9500000477 1.5599999428 2.0299999714
 6025.0000000 6025.0000000 -8.819999695 1.8899999857 1.5099999905 2.1900000572
 6026.0000000 6026.0000000 -7.760000229 1.7699999809 1.5599999428 2.0699999332
 6027.0000000 6027.0000000 -7.320000172 1.6299999952 1.6499999762 1.8700000048
 6028.0000000 6028.0000000 -7.280000210 1.5499999523 1.7300000191 1.7000000477
 6029.0000000 6029.0000000 -6.840000153 1.5700000525 1.7400000095 1.4900000095
 6030.0000000 6030.0000000 -6.809999943 1.5199999809 1.7999999523 1.2999999523
 6031.0000000 6031.0000000 -7.090000153 1.4800000191 1.8799999952 1.2599999905
 6032.0000000 6032.0000000 -6.929999828 1.5099999905 1.8799999952 1.2799999714
 6033.0000000 6033.0000000 -6.909999847 1.5499999523 1.9099999666 1.2699999809
 6034.0000000 6034.0000000 -7.469999790 1.6100000143 1.9600000381 1.3200000525
 6035.0000000 6035.0000000 -9.020000458 1.7799999714 1.9199999571 1.4500000477
 6036.0000000 6036.0000000 -10.72999954 2.0299999714 1.8799999952 1.6000000238
 6037.0000000 6037.0000000 -12.14999962 2.3699998856 1.8700000048 1.7999999523
 6038.0000000 6038.0000000 -12.85999966 2.5299999714 1.9299999475 1.9900000095
 6039.0000000 6039.0000000 -12.84000015 2.6300001144 1.9700000286 2.0999999046
 6040.0000000 6040.0000000 -12.76000023 2.6600000858 1.9400000572 2.1199998856
 6041.0000000 6041.0000000 -12.86999989 2.7000000477 1.8300000429 2.0999999046
 6042.0000000 6042.0000000 -12.97999954 2.5799999237 1.8099999428 2.2000000477
 6043.0000000 6043.0000000 -12.47999954 2.2799999714 1.8999999762 2.2000000477
 6044.0000000 6044.0000000 -10.89000034 1.9400000572 2.0099999905 2.0399999619
 6045.0000000 6045.0000000 -10.02000046 1.7200000286 2.1099998951 1.6499999762
 6046.0000000 6046.0000000 -9.800000191 1.6299999952 2.1400001049 1.2400000095
 6047.0000000 6047.0000000 -9.920000076 1.6499999762 2.1600000858 1.0800000429
 6048.0000000 6048.0000000 -10.97999954 1.8099999428 2.2000000477 1.0199999809
 6049.0000000 6049.0000000 -12.05000019 2.0499999523 2.2899999619 1.0499999523
 6050.0000000 6050.0000000 -13.07999992 2.4500000477 2.4300000668 1.1900000572
 6051.0000000 6051.0000000 -14.77999973 3.0000000000 2.6300001144 1.3600000143
 6052.0000000 6052.0000000 -17.18000031 3.7500000000 2.8399999142 1.5700000525
 6053.0000000 6053.0000000 -19.15999985 4.5799999237 3.0499999523 1.8999999762
 6054.0000000 6054.0000000 -19.90999985 5.0500001907 3.2500000000 2.2999999523
 6055.0000000 6055.0000000 -19.88999939 5.0599999428 3.3800001144 2.5799999237
 6056.0000000 6056.0000000 -18.54000092 4.7399997711 3.3800001144 2.7599999905
 6057.0000000 6057.0000000 -16.34000015 4.2600002289 3.2100000381 2.8800001144
 6058.0000000 6058.0000000 -14.47999954 3.7000000477 2.7799999714 2.9600000381
 6059.0000000 6059.0000000 -12.86999989 3.1900000572 2.2799999714 2.9600000381
 6060.0000000 6060.0000000 -11.93000031 2.7200000286 2.0199999809 2.9800000191
 6061.0000000 6061.0000000 -10.60999966 2.1199998856 1.9700000286 2.8900001049
 6062.0000000 6062.0000000 -8.199999809 1.6699999571 1.9500000477 2.5499999523
 6063.0000000 6063.0000000 -7.300000191 1.4500000477 1.9500000477 1.7699999809
 6064.0000000 6064.0000000 -7.050000191 1.3500000238 1.9299999475 1.3400000334
 6065.0000000 6065.0000000 -7.110000134 1.3500000238 1.8799999952 1.1499999762
 6066.0000000 6066.0000000 -7.329999924 1.3799999952 1.8200000525 1.0800000429
 6067.0000000 6067.0000000 -7.710000038 1.4199999571 1.8200000525 1.0499999523
 6068.0000000 6068.0000000 -8.260000229 1.4600000381 1.8500000238 1.0499999523
 6069.0000000 6069.0000000 -8.789999962 1.5099999905 1.8600000143 1.1000000238
 6070.0000000 6070.0000000 -8.989999771 1.5700000525 1.8600000143 1.1799999475
 6071.0000000 6071.0000000 -8.760000229 1.5800000429 1.8999999762 1.3099999428
 6072.0000000 6072.0000000 -8.359999657 1.5399999619 1.9600000381 1.4700000286
 6073.0000000 6073.0000000 -8.140000343 1.5599999428 1.9700000286 1.6299999952
 6074.0000000 6074.0000000 -8.630000114 1.6499999762 1.9500000477 1.7400000095
 6075.0000000 6075.0000000 -9.710000038 1.7899999619 1.9400000572 1.8500000238
 6076.0000000 6076.0000000 -10.90999985 1.9800000191 1.9400000572 2.1400001049
 6077.0000000 6077.0000000 -11.22999954 2.1500000954 1.9400000572 2.4100000858
 6078.0000000 6078.0000000 -11.48999977 2.2400000095 1.9700000286 2.5899999142
 6079.0000000 6079.0000000 -11.63000011 2.2799999714 2.0499999523 2.7999999523
 6080.0000000 6080.0000000 -11.78999996 2.2300000191 2.1400001049 2.8800001144
 6081.0000000 6081.0000000 -11.92000008 2.2400000095 2.3499999046 2.6400001049
