# LAS format log file from PETREL
# Project units are specified as depth units
#==================================================================
~Version information
VERS.   2.0:
WRAP.   NO:
#==================================================================
~Well
STRT .m      3000.0000000 :
STOP .m      6457.0000000 :
STEP .m     1.00000000 :
NULL .        -999.250000 :
COMP.           : COMPANY
WELL.  WELL_1   : WELL
FLD.            : FIELD
LOC.            : LOCATION
SRVC.           : SERVICE COMPANY
DATE.  2023-03-20 17:52:46   : Log Export Date {yyyy-MM-dd HH:mm:ss}
PROV.           : PROVINCE
UWI.   WELL_1   : UNIQUE WELL ID
API.            : API NUMBER
#==================================================================
~Curve
DEPT .m                   : DEPTH
Depth .m                  : Depth
SP .mV                    : SP
SN .ohm.m                 : SN
LN .ohm.m                 : LN
~Parameter
#==================================================================
~Ascii
# ...
 6050.0000000 6050.0000000 11.060000420 1.9199999571 2.0499999523
 6051.0000000 6051.0000000 10.779999733 2.0099999905 2.1800000668
 6052.0000000 6052.0000000 10.510000229 1.9800000191 2.0799999237
 6053.0000000 6053.0000000 10.310000420 1.8999999762 2.0000000000
 6054.0000000 6054.0000000 10.779999733 1.7899999619 2.0000000000
 6055.0000000 6055.0000000 11.090000153 1.6799999475 2.0000000000
 6056.0000000 6056.0000000 11.300000191 1.5900000334 2.1199998856
 6057.0000000 6057.0000000 11.069999695 1.6299999952 2.2599999905
 6058.0000000 6058.0000000 10.840000153 2.0199999809 2.4000000954
 6059.0000000 6059.0000000 10.600000381 2.4400000572 2.6500000954
 6060.0000000 6060.0000000 10.289999962 2.9200000763 2.9300000668
 6061.0000000 6061.0000000 9.9700002670 3.1300001144 3.1800000668
 6062.0000000 6062.0000000 9.6599998474 3.0599999428 3.3399999142
 6063.0000000 6063.0000000 9.4300003052 2.8800001144 3.2699999809
 6064.0000000 6064.0000000 9.5299997330 2.7000000477 2.9700000286
 6065.0000000 6065.0000000 9.6400003433 2.2999999523 2.6500000954
 6066.0000000 6066.0000000 9.8400001526 1.8999999762 2.2500000000
 6067.0000000 6067.0000000 10.340000153 1.6599999666 1.8999999762
 6068.0000000 6068.0000000 10.829999924 1.4400000572 1.6200000048
 6069.0000000 6069.0000000 11.100000381 1.3899999857 1.3999999762
 6070.0000000 6070.0000000 11.239999771 1.3300000429 1.2100000381
 6071.0000000 6071.0000000 11.380000114 1.3400000334 1.1799999475
 6072.0000000 6072.0000000 11.359999657 1.3899999857 1.2100000381
 6073.0000000 6073.0000000 11.079999924 1.4500000477 1.2999999523
 6074.0000000 6074.0000000 10.800000191 1.5299999714 1.3899999857
 6075.0000000 6075.0000000 10.520000458 1.6200000048 1.4800000191
 6076.0000000 6076.0000000 10.380000114 1.6000000238 1.5700000525
 6077.0000000 6077.0000000 10.550000191 1.5599999428 1.5900000334
 6078.0000000 6078.0000000 11.319999695 1.5199999809 1.5099999905
 6079.0000000 6079.0000000 11.850000381 1.3999999762 1.3999999762
 6080.0000000 6080.0000000 11.529999733 1.4700000286 1.4600000381
 6081.0000000 6081.0000000 11.149999619 1.8500000238 1.8300000429
 6082.0000000 6082.0000000 10.770000458 2.0699999332 2.0000000000
 6083.0000000 6083.0000000 10.710000038 2.0199999809 1.8700000048
 6084.0000000 6084.0000000 10.810000420 1.9800000191 1.7500000000
 6085.0000000 6085.0000000 11.050000191 1.9199999571 1.6299999952
 6086.0000000 6086.0000000 11.569999695 1.8600000143 1.5499999523
 6087.0000000 6087.0000000 11.949999809 1.8500000238 1.6299999952
 6088.0000000 6088.0000000 11.670000076 1.9500000477 1.7999999523
 6089.0000000 6089.0000000 11.510000229 2.1700000763 1.9700000286
 6090.0000000 6090.0000000 11.310000420 2.7899999619 2.0099999905
 6091.0000000 6091.0000000 10.989999771 3.1400001049 1.9299999475
 6092.0000000 6092.0000000 10.670000076 2.9100000858 1.8600000143
 6093.0000000 6093.0000000 10.659999847 2.6800000668 1.7899999619
 6094.0000000 6094.0000000 10.840000153 2.5199999809 1.8099999428
 6095.0000000 6095.0000000 11.029999733 2.5699999332 1.8700000048
 6096.0000000 6096.0000000 11.050000191 2.5799999237 1.9299999475
 6097.0000000 6097.0000000 10.630000114 2.4000000954 2.0000000000
 6098.0000000 6098.0000000 10.159999847 2.2100000381 2.0599999428
 6099.0000000 6099.0000000 9.6199998856 2.0000000000 1.9800000191
 6100.0000000 6100.0000000 9.0799999237 1.7799999714 1.9099999666
 6101.0000000 6101.0000000 8.4899997711 1.5900000334 1.8300000429
 6102.0000000 6102.0000000 9.5500001907 1.4900000095 1.7200000286
 6103.0000000 6103.0000000 10.600000381 1.4600000381 1.6200000048
 6104.0000000 6104.0000000 11.130000114 1.5199999809 1.5199999809
 6105.0000000 6105.0000000 11.420000076 1.6100000143 1.5199999809
 6106.0000000 6106.0000000 10.970000267 1.6900000572 1.5599999428
 6107.0000000 6107.0000000 10.520000458 1.6100000143 1.5900000334
 6108.0000000 6108.0000000 10.069999695 1.5199999809 1.5399999619
 6109.0000000 6109.0000000 9.6800003052 1.4299999475 1.4900000095
 6110.0000000 6110.0000000 9.4099998474 1.3899999857 1.4400000572
 6111.0000000 6111.0000000 9.6800003052 1.3500000238 1.4099999666
 6112.0000000 6112.0000000 9.9499998093 1.3400000334 1.3899999857
 6113.0000000 6113.0000000 10.180000305 1.3200000525 1.3700000048
 6114.0000000 6114.0000000 10.420000076 1.3200000525 1.3400000334
 6115.0000000 6115.0000000 10.659999847 1.3799999952 1.3700000048
 6116.0000000 6116.0000000 10.960000038 1.4400000572 1.3999999762
 6117.0000000 6117.0000000 11.279999733 1.5000000000 1.4299999475
 6118.0000000 6118.0000000 11.590000153 1.6399999857 1.4700000286
 6119.0000000 6119.0000000 11.909999847 1.7699999809 1.5199999809
 6120.0000000 6120.0000000 11.850000381 1.7599999905 1.5700000525
 6121.0000000 6121.0000000 11.789999962 1.7400000095 1.6200000048
 6122.0000000 6122.0000000 11.409999847 1.7000000477 1.6299999952
 6123.0000000 6123.0000000 10.850000381 1.6200000048 1.6100000143
 6124.0000000 6124.0000000 10.340000153 1.5299999714 1.5800000429
 6125.0000000 6125.0000000 9.9700002670 1.4500000477 1.5499999523
 6126.0000000 6126.0000000 9.6300001144 1.3500000238 1.4400000572
 6127.0000000 6127.0000000 10.600000381 1.2500000000 1.2999999523
 6128.0000000 6128.0000000 11.229999542 1.1599999666 1.1599999666
 6129.0000000 6129.0000000 11.850000381 1.1299999952 1.1200000048
 6130.0000000 6130.0000000 11.640000343 1.1299999952 1.0700000525
 6131.0000000 6131.0000000 11.479999542 1.1299999952 1.0800000429
 6132.0000000 6132.0000000 11.630000114 1.2000000477 1.1200000048
 6133.0000000 6133.0000000 11.779999733 1.2999999523 1.1699999571
 6134.0000000 6134.0000000 12.060000420 1.4099999666 1.2699999809
 6135.0000000 6135.0000000 11.699999809 1.6000000238 1.3700000048
 6136.0000000 6136.0000000 10.970000267 1.8099999428 1.4600000381
 6137.0000000 6137.0000000 10.329999924 2.0199999809 1.5700000525
 6138.0000000 6138.0000000 10.659999847 2.2699999809 1.6699999571
 6139.0000000 6139.0000000 10.630000114 2.1900000572 1.5800000429
 6140.0000000 6140.0000000 9.8400001526 1.9600000381 1.4700000286
 6141.0000000 6141.0000000 9.6999998093 1.7400000095 1.3500000238
 6142.0000000 6142.0000000 10.279999733 1.5499999523 1.3400000334
 6143.0000000 6143.0000000 10.760000229 1.5199999809 1.4299999475
 6144.0000000 6144.0000000 10.739999771 1.7899999619 1.6200000048
 6145.0000000 6145.0000000 10.609999657 2.2000000477 1.8200000525
 6146.0000000 6146.0000000 10.090000153 2.6700000763 2.1600000858
 6147.0000000 6147.0000000 9.5799999237 3.0599999428 2.4100000858
 6148.0000000 6148.0000000 9.1400003433 3.3900001049 2.5099999905
 6149.0000000 6149.0000000 8.7500000000 3.4600000381 2.3399999142
 6150.0000000 6150.0000000 8.7200002670 3.4000000954 2.1700000763
 6151.0000000 6151.0000000 9.2500000000 2.9600000381 1.9600000381
 6152.0000000 6152.0000000 9.9300003052 2.5699999332 1.7400000095
 6153.0000000 6153.0000000 10.729999542 2.2500000000 1.5900000334
 6154.0000000 6154.0000000 11.500000000 2.0000000000 1.4800000191
 6155.0000000 6155.0000000 11.789999962 1.9099999666 1.3799999952
 6156.0000000 6156.0000000 11.970000267 1.8099999428 1.3400000334
 6157.0000000 6157.0000000 11.649999619 1.8200000525 1.3099999428
 6158.0000000 6158.0000000 11.329999924 1.8300000429 1.3500000238
 6159.0000000 6159.0000000 11.420000076 1.8400000334 1.3999999762
 6160.0000000 6160.0000000 11.710000038 1.9600000381 1.4400000572
 6161.0000000 6161.0000000 11.689999580 2.0699999332 1.5199999809
 6162.0000000 6162.0000000 10.619999886 2.3199999332 1.6000000238
 6163.0000000 6163.0000000 9.7899999619 2.4800000191 1.7300000191
 6164.0000000 6164.0000000 9.4200000763 2.1099998951 1.9199999571
 6165.0000000 6165.0000000 9.6899995804 1.7400000095 2.0999999046
 6166.0000000 6166.0000000 9.9700002670 1.4500000477 2.2699999809
 6167.0000000 6167.0000000 10.109999657 1.2999999523 2.1099998951
 6168.0000000 6168.0000000 10.170000076 1.1399999857 1.9299999475
 6169.0000000 6169.0000000 10.199999809 1.1499999762 1.7400000095
 6170.0000000 6170.0000000 10.210000038 1.1699999571 1.6100000143
 6171.0000000 6171.0000000 10.310000420 1.1900000572 1.4900000095
