# LAS format log file from PETREL
# Project units are specified as depth units
#==================================================================
~Version information
VERS.   2.0:
WRAP.   NO:
#==================================================================
~Well
STRT .m      4650.0000000 :
STOP .m      7050.0000000 :
STEP .m     1.00000000 :
NULL .        -999.250000 :
COMP.           : COMPANY
WELL.  WELL_3   : WELL
FLD.            : FIELD
LOC.            : LOCATION
SRVC.           : SERVICE COMPANY
DATE.  2023-03-20 17:52:46   : Log Export Date {yyyy-MM-dd HH:mm:ss}
PROV.           : PROVINCE
UWI.   WELL_3   : UNIQUE WELL ID
API.            : API NUMBER
#==================================================================
~Curve
DEPT .m                   : DEPTH
Depth .m                  : Depth
SP .mV                    : SP
SN .ohm.m                 : SN
LN .ohm.m                 : LN
LAT .ohm.m                : LAT
~Parameter
#==================================================================
~Ascii
# ...
 5160.0000000 5160.0000000 -9.770000458 1.6000000238 1.6000000238 1.6900000572
 5161.0000000 5161.0000000 -9.649999619 1.6699999571 1.6299999952 1.7599999905
 5162.0000000 5162.0000000 -9.479999542 1.7000000477 1.6599999666 1.8500000238
 5163.0000000 5163.0000000 -9.239999771 1.7100000381 1.6799999475 1.8799999952
 5164.0000000 5164.0000000 -9.140000343 1.7000000477 1.6699999571 1.8700000048
 5165.0000000 5165.0000000 -9.060000420 1.6599999666 1.6499999762 1.8799999952
 5166.0000000 5166.0000000 -8.260000229 1.6000000238 1.6299999952 1.8899999857
 5167.0000000 5167.0000000 -6.989999771 1.4800000191 1.6100000143 1.8700000048
 5168.0000000 5168.0000000 -6.019999981 1.3899999857 1.5900000334 1.8300000429
 5169.0000000 5169.0000000 -5.469999790 1.3400000334 1.6000000238 1.7599999905
 5170.0000000 5170.0000000 -5.699999809 1.2899999619 1.5900000334 1.6599999666
 5171.0000000 5171.0000000 -7.079999924 1.2799999714 1.5800000429 1.6000000238
 5172.0000000 5172.0000000 -9.359999657 1.2799999714 1.5599999428 1.5800000429
 5173.0000000 5173.0000000 -10.53999996 1.2999999523 1.5599999428 1.5900000334
 5174.0000000 5174.0000000 -10.88000011 1.3400000334 1.5599999428 1.5599999428
 5175.0000000 5175.0000000 -10.86999989 1.3899999857 1.5599999428 1.5299999714
 5176.0000000 5176.0000000 -10.52999973 1.4500000477 1.5900000334 1.5599999428
 5177.0000000 5177.0000000 -10.01000023 1.5000000000 1.6100000143 1.5900000334
 5178.0000000 5178.0000000 -9.409999847 1.5599999428 1.6200000048 1.6599999666
 5179.0000000 5179.0000000 -8.899999619 1.5900000334 1.6299999952 1.7400000095
 5180.0000000 5180.0000000 -8.380000114 1.6000000238 1.6399999857 1.8400000334
 5181.0000000 5181.0000000 -8.319999695 1.5900000334 1.6299999952 1.9299999475
 5182.0000000 5182.0000000 -8.390000343 1.5700000525 1.6200000048 1.9700000286
 5183.0000000 5183.0000000 -8.649999619 1.5499999523 1.6100000143 1.9600000381
 5184.0000000 5184.0000000 -8.710000038 1.5399999619 1.6200000048 1.9900000095
 5185.0000000 5185.0000000 -8.420000076 1.5399999619 1.6499999762 1.9400000572
 5186.0000000 5186.0000000 -8.260000229 1.5299999714 1.6799999475 1.8300000429
 5187.0000000 5187.0000000 -8.340000153 1.5199999809 1.7100000381 1.7500000000
 5188.0000000 5188.0000000 -8.550000191 1.5299999714 1.7599999905 1.7300000191
 5189.0000000 5189.0000000 -8.510000229 1.5800000429 1.7799999714 1.6900000572
 5190.0000000 5190.0000000 -8.539999962 1.6299999952 1.7799999714 1.7100000381
 5191.0000000 5191.0000000 -8.800000191 1.6900000572 1.7899999619 1.7200000286
 5192.0000000 5192.0000000 -8.960000038 1.7400000095 1.8099999428 1.7699999809
 5193.0000000 5193.0000000 -8.989999771 1.7699999809 1.8200000525 1.8400000334
 5194.0000000 5194.0000000 -9.000000000 1.8099999428 1.8099999428 1.9099999666
 5195.0000000 5195.0000000 -8.949999809 1.8500000238 1.7899999619 1.9700000286
 5196.0000000 5196.0000000 -8.779999733 1.8400000334 1.7699999809 2.0000000000
 5197.0000000 5197.0000000 -8.630000114 1.7799999714 1.8200000525 2.0099999905
 5198.0000000 5198.0000000 -8.510000229 1.7200000286 1.9099999666 1.9099999666
 5199.0000000 5199.0000000 -8.520000458 1.6900000572 1.9800000191 1.8099999428
 5200.0000000 5200.0000000 -8.720000267 1.7200000286 2.0000000000 1.7599999905
 5201.0000000 5201.0000000 -9.119999886 1.8300000429 1.9800000191 1.7699999809
 5202.0000000 5202.0000000 -9.539999962 1.9700000286 1.9199999571 1.9199999571
 5203.0000000 5203.0000000 -9.810000420 2.0599999428 1.8600000143 2.1099998951
 5204.0000000 5204.0000000 -9.689999580 2.0399999619 1.9099999666 2.2000000477
 5205.0000000 5205.0000000 -9.239999771 1.9500000477 1.9800000191 2.1600000858
 5206.0000000 5206.0000000 -9.029999733 1.8600000143 2.0799999237 1.9400000572
 5207.0000000 5207.0000000 -9.590000153 1.8300000429 2.1600000858 1.7999999523
 5208.0000000 5208.0000000 -10.09000015 1.9099999666 2.2000000477 1.7799999714
 5209.0000000 5209.0000000 -10.28999996 1.9900000095 2.2000000477 1.7899999619
 5210.0000000 5210.0000000 -10.36999989 2.0399999619 2.2500000000 1.8200000525
 5211.0000000 5211.0000000 -10.56000042 2.1099998951 2.3499999046 1.8500000238
 5212.0000000 5212.0000000 -10.90999985 2.2599999905 2.4400000572 1.9199999571
 5213.0000000 5213.0000000 -11.48999977 2.4500000477 2.4900000095 2.0099999905
 5214.0000000 5214.0000000 -12.26000023 2.6700000763 2.5499999523 2.1400001049
 5215.0000000 5215.0000000 -13.47999954 2.8499999046 2.6099998951 2.2999999523
 5216.0000000 5216.0000000 -14.57999992 2.9500000477 2.6900000572 2.4300000668
 5217.0000000 5217.0000000 -15.18999958 2.9900000095 2.7699999809 2.4900000095
 5218.0000000 5218.0000000 -15.43999958 2.9900000095 2.7799999714 2.5399999619
 5219.0000000 5219.0000000 -15.28999996 2.9400000572 2.6300001144 2.6099998951
 5220.0000000 5220.0000000 -15.15999985 2.8299999237 2.4300000668 2.7300000191
 5221.0000000 5221.0000000 -14.35000038 2.5899999142 2.1300001144 2.9100000858
 5222.0000000 5222.0000000 -11.55000019 2.2100000381 2.0000000000 3.1099998951
 5223.0000000 5223.0000000 -8.880000114 1.7200000286 1.9600000381 3.1600000858
 5224.0000000 5224.0000000 -6.989999771 1.5299999714 1.9600000381 2.8599998951
 5225.0000000 5225.0000000 -6.250000000 1.4199999571 1.9700000286 2.3199999332
 5226.0000000 5226.0000000 -6.280000210 1.3700000048 1.9700000286 1.9800000191
 5227.0000000 5227.0000000 -6.739999771 1.3500000238 1.9700000286 1.8400000334
 5228.0000000 5228.0000000 -7.170000076 1.4199999571 1.9600000381 1.7799999714
 5229.0000000 5229.0000000 -7.500000000 1.5399999619 1.9400000572 1.7699999809
 5230.0000000 5230.0000000 -8.180000305 1.6699999571 1.9099999666 1.8700000048
 5231.0000000 5231.0000000 -8.600000381 1.7999999523 1.8799999952 2.0499999523
 5232.0000000 5232.0000000 -8.670000076 1.9199999571 1.8799999952 2.2300000191
 5233.0000000 5233.0000000 -8.560000420 1.9900000095 1.9099999666 2.3599998951
 5234.0000000 5234.0000000 -8.520000458 2.0299999714 1.9600000381 2.4300000668
 5235.0000000 5235.0000000 -8.590000153 2.0399999619 2.0199999809 2.4700000286
 5236.0000000 5236.0000000 -8.750000000 2.0499999523 2.0599999428 2.5099999905
 5237.0000000 5237.0000000 -8.869999886 2.0399999619 2.0899999142 2.5599999428
 5238.0000000 5238.0000000 -8.850000381 2.0299999714 2.0699999332 2.5899999142
 5239.0000000 5239.0000000 -8.789999962 2.0000000000 2.0099999905 2.6800000668
 5240.0000000 5240.0000000 -8.329999924 1.9600000381 1.9299999475 2.8099999428
 5241.0000000 5241.0000000 -7.440000057 1.7799999714 1.8500000238 2.8499999046
 5242.0000000 5242.0000000 -6.260000229 1.6399999857 1.8099999428 2.7300000191
 5243.0000000 5243.0000000 -5.380000114 1.5000000000 1.7999999523 2.5399999619
 5244.0000000 5244.0000000 -4.829999924 1.4199999571 1.7899999619 2.3800001144
 5245.0000000 5245.0000000 -4.809999943 1.4199999571 1.7999999523 2.2300000191
 5246.0000000 5246.0000000 -5.650000095 1.4800000191 1.7999999523 1.9700000286
 5247.0000000 5247.0000000 -6.869999886 1.5700000525 1.7899999619 1.8400000334
 5248.0000000 5248.0000000 -7.150000095 1.6499999762 1.7599999905 1.8500000238
 5249.0000000 5249.0000000 -7.250000000 1.7300000191 1.7000000477 2.0099999905
 5250.0000000 5250.0000000 -7.349999905 1.7500000000 1.6499999762 2.1800000668
 5251.0000000 5251.0000000 -7.349999905 1.6799999475 1.6399999857 2.2100000381
 5252.0000000 5252.0000000 -7.320000172 1.5800000429 1.6699999571 2.1400001049
 5253.0000000 5253.0000000 -7.090000153 1.4900000095 1.7200000286 2.0000000000
 5254.0000000 5254.0000000 -6.239999771 1.4199999571 1.7799999714 1.8600000143
 5255.0000000 5255.0000000 -5.889999866 1.4199999571 1.8200000525 1.7699999809
 5256.0000000 5256.0000000 -6.260000229 1.4700000286 1.8600000143 1.6699999571
 5257.0000000 5257.0000000 -7.179999828 1.5299999714 1.8899999857 1.6100000143
 5258.0000000 5258.0000000 -7.909999847 1.5900000334 1.9400000572 1.5900000334
 5259.0000000 5259.0000000 -8.560000420 1.7100000381 1.9800000191 1.6399999857
 5260.0000000 5260.0000000 -8.880000114 1.8700000048 2.0099999905 1.7500000000
 5261.0000000 5261.0000000 -9.069999695 2.0299999714 2.0299999714 1.8500000238
