# LAS format log file from PETREL
# Project units are specified as depth units
#==================================================================
~Version information
VERS.   2.0:
WRAP.   NO:
#==================================================================
~Well
STRT .m      3000.0000000 :
STOP .m      7750.0000000 :
STEP .m     1.00000000 :
NULL .        -999.250000 :
COMP.           : COMPANY
WELL.  WELL_2   : WELL
FLD.            : FIELD
LOC.            : LOCATION
SRVC.           : SERVICE COMPANY
DATE.  2023-03-20 17:52:46   : Log Export Date {yyyy-MM-dd HH:mm:ss}
PROV.           : PROVINCE
UWI.   WELL_2   : UNIQUE WELL ID
API.            : API NUMBER
#==================================================================
~Curve
DEPT .m                   : DEPTH
Depth .m                  : Depth
SP .mV                    : SP
SN .ohm.m                 : SN
LN .ohm.m                 : LN
LAT .ohm.m                : LAT
~Parameter
#==================================================================
~Ascii
# ...
 4836.0000000 4836.0000000 -0.600000024 1.6200000048 1.7699999809 1.7699999809
 4837.0000000 4837.0000000 -1.250000000 1.6499999762 1.7899999619 1.7899999619
 4838.0000000 4838.0000000 -1.559999943 1.7200000286 1.7500000000 1.7500000000
 4839.0000000 4839.0000000 -2.069999933 1.8300000429 1.6900000572 1.6900000572
 4840.0000000 4840.0000000 -3.000000000 2.2100000381 1.6100000143 1.6100000143
 4841.0000000 4841.0000000 -3.990000010 2.2999999523 1.5099999905 1.5099999905
 4842.0000000 4842.0000000 -5.019999981 2.3199999332 1.4299999475 1.4299999475
 4843.0000000 4843.0000000 -5.670000076 2.1700000763 1.4299999475 1.4299999475
 4844.0000000 4844.0000000 -5.340000153 1.8799999952 1.4700000286 1.4700000286
 4845.0000000 4845.0000000 -4.670000076 1.6499999762 1.5199999809 1.5199999809
 4846.0000000 4846.0000000 -4.550000191 1.5099999905 1.5099999905 1.5099999905
 4847.0000000 4847.0000000 -4.679999828 1.4099999666 1.4800000191 1.4800000191
 4848.0000000 4848.0000000 -5.329999924 1.3400000334 1.4199999571 1.4199999571
 4849.0000000 4849.0000000 -5.820000172 1.2799999714 1.3700000048 1.3700000048
 4850.0000000 4850.0000000 -5.960000038 1.2599999905 1.3300000429 1.3300000429
 4851.0000000 4851.0000000 -6.260000229 1.2699999809 1.3099999428 1.3099999428
 4852.0000000 4852.0000000 -6.510000229 1.2799999714 1.2999999523 1.2999999523
 4853.0000000 4853.0000000 -6.469999790 1.3200000525 1.3099999428 1.3099999428
 4854.0000000 4854.0000000 -6.230000019 1.3500000238 1.3400000334 1.3400000334
 4855.0000000 4855.0000000 -5.670000076 1.3500000238 1.3700000048 1.3700000048
 4856.0000000 4856.0000000 -4.809999943 1.3500000238 1.4199999571 1.4199999571
 4857.0000000 4857.0000000 -2.779999971 1.3600000143 1.4400000572 1.4400000572
 4858.0000000 4858.0000000 -1.679999948 1.3799999952 1.4600000381 1.4600000381
 4859.0000000 4859.0000000 -1.179999948 1.3799999952 1.4400000572 1.4400000572
 4860.0000000 4860.0000000 -1.470000029 1.3700000048 1.4299999475 1.4299999475
 4861.0000000 4861.0000000 -2.130000114 1.3500000238 1.4099999666 1.4099999666
 4862.0000000 4862.0000000 -2.430000067 1.3300000429 1.3899999857 1.3899999857
 4863.0000000 4863.0000000 -2.369999886 1.3099999428 1.3799999952 1.3799999952
 4864.0000000 4864.0000000 -2.160000086 1.3899999857 1.3799999952 1.3799999952
 4865.0000000 4865.0000000 -1.840000033 1.4800000191 1.4199999571 1.4199999571
 4866.0000000 4866.0000000 -2.309999943 1.5199999809 1.4600000381 1.4600000381
 4867.0000000 4867.0000000 -3.160000086 1.5599999428 1.5099999905 1.5099999905
 4868.0000000 4868.0000000 -3.809999943 1.6000000238 1.5599999428 1.5599999428
 4869.0000000 4869.0000000 -3.440000057 1.6499999762 1.6100000143 1.6100000143
 4870.0000000 4870.0000000 -2.059999943 1.7300000191 1.6599999666 1.6599999666
 4871.0000000 4871.0000000 -1.399999976 1.7999999523 1.7400000095 1.7400000095
 4872.0000000 4872.0000000 -1.529999971 2.1300001144 1.8300000429 1.8300000429
 4873.0000000 4873.0000000 -1.730000019 2.2599999905 1.9700000286 1.9700000286
 4874.0000000 4874.0000000 -2.069999933 2.2999999523 2.0099999905 2.0099999905
 4875.0000000 4875.0000000 -2.400000095 2.3299999237 2.0299999714 2.0299999714
 4876.0000000 4876.0000000 -2.259999990 2.3399999142 2.1700000763 2.1700000763
 4877.0000000 4877.0000000 -2.109999895 2.3299999237 2.3099999428 2.3099999428
 4878.0000000 4878.0000000 -2.140000105 2.3199999332 2.4400000572 2.4400000572
 4879.0000000 4879.0000000 -2.519999981 2.3299999237 2.5199999809 2.5199999809
 4880.0000000 4880.0000000 -3.119999886 2.4100000858 2.5599999428 2.5599999428
 4881.0000000 4881.0000000 -3.599999905 2.4700000286 2.5799999237 2.5799999237
 4882.0000000 4882.0000000 -3.960000038 2.6199998856 2.6099998951 2.6099998951
 4883.0000000 4883.0000000 -4.469999790 2.7799999714 2.6300001144 2.6300001144
 4884.0000000 4884.0000000 -5.070000172 3.0599999428 2.5899999142 2.5899999142
 4885.0000000 4885.0000000 -5.690000057 3.1900000572 2.4400000572 2.4400000572
 4886.0000000 4886.0000000 -6.119999886 3.2100000381 2.3299999237 2.3299999237
 4887.0000000 4887.0000000 -6.170000076 3.0599999428 2.2799999714 2.2799999714
 4888.0000000 4888.0000000 -5.710000038 2.6600000858 2.2699999809 2.2699999809
 4889.0000000 4889.0000000 -5.030000210 2.4800000191 2.2599999905 2.2599999905
 4890.0000000 4890.0000000 -3.640000105 2.3199999332 2.2100000381 2.2100000381
 4891.0000000 4891.0000000 -1.370000005 2.1500000954 2.1199998856 2.1199998856
 4892.0000000 4892.0000000 0.0099999998 2.0199999809 1.9700000286 1.9700000286
 4893.0000000 4893.0000000 1.0000000000 1.8500000238 1.8099999428 1.8099999428
 4894.0000000 4894.0000000 1.7699999809 1.6799999475 1.7799999714 1.7799999714
 4895.0000000 4895.0000000 2.1099998951 1.5700000525 1.7799999714 1.7799999714
 4896.0000000 4896.0000000 2.0399999619 1.4700000286 1.7599999905 1.7599999905
 4897.0000000 4897.0000000 1.4900000095 1.4600000381 1.7200000286 1.7200000286
 4898.0000000 4898.0000000 -1.120000005 1.4800000191 1.6499999762 1.6499999762
 4899.0000000 4899.0000000 -2.440000057 1.5299999714 1.6200000048 1.6200000048
 4900.0000000 4900.0000000 -4.110000134 1.5800000429 1.6299999952 1.6299999952
 4901.0000000 4901.0000000 -5.280000210 1.6599999666 1.6499999762 1.6499999762
 4902.0000000 4902.0000000 -4.559999943 1.7300000191 1.6900000572 1.6900000572
 4903.0000000 4903.0000000 -3.519999981 1.7799999714 1.7300000191 1.7300000191
 4904.0000000 4904.0000000 -2.500000000 1.8200000525 1.7899999619 1.7899999619
 4905.0000000 4905.0000000 -1.750000000 1.7899999619 1.7899999619 1.7899999619
 4906.0000000 4906.0000000 -1.279999971 1.7599999905 1.7500000000 1.7500000000
 4907.0000000 4907.0000000 -0.970000029 1.7100000381 1.6699999571 1.6699999571
 4908.0000000 4908.0000000 -0.550000012 1.6699999571 1.6100000143 1.6100000143
 4909.0000000 4909.0000000 -0.200000003 1.6299999952 1.5700000525 1.5700000525
 4910.0000000 4910.0000000 -0.020000000 1.5800000429 1.5499999523 1.5499999523
 4911.0000000 4911.0000000 -0.280000001 1.5299999714 1.4900000095 1.4900000095
 4912.0000000 4912.0000000 -1.070000052 1.5099999905 1.5000000000 1.5000000000
 4913.0000000 4913.0000000 -1.659999967 1.5399999619 1.5399999619 1.5399999619
 4914.0000000 4914.0000000 -2.109999895 1.5900000334 1.6200000048 1.6200000048
 4915.0000000 4915.0000000 -2.480000019 1.6299999952 1.6599999666 1.6599999666
 4916.0000000 4916.0000000 -2.680000067 1.6699999571 1.7000000477 1.7000000477
 4917.0000000 4917.0000000 -2.839999914 1.7300000191 1.7500000000 1.7500000000
 4918.0000000 4918.0000000 -2.960000038 1.7999999523 1.7599999905 1.7599999905
 4919.0000000 4919.0000000 -2.980000019 1.9199999571 1.7799999714 1.7799999714
 4920.0000000 4920.0000000 -2.930000067 2.0000000000 1.7100000381 1.7100000381
 4921.0000000 4921.0000000 -2.829999924 2.0199999809 1.6699999571 1.6699999571
 4922.0000000 4922.0000000 -2.609999895 2.0199999809 1.6599999666 1.6599999666
 4923.0000000 4923.0000000 -1.740000010 1.9800000191 1.6699999571 1.6699999571
 4924.0000000 4924.0000000 -0.889999986 1.9199999571 1.7000000477 1.7000000477
 4925.0000000 4925.0000000 -1.250000000 1.8700000048 1.7200000286 1.7200000286
 4926.0000000 4926.0000000 -1.750000000 1.8300000429 1.7400000095 1.7400000095
 4927.0000000 4927.0000000 -2.190000057 1.7999999523 1.7699999809 1.7699999809
 4928.0000000 4928.0000000 -2.039999962 1.7799999714 1.7999999523 1.7999999523
 4929.0000000 4929.0000000 -1.769999981 1.7699999809 1.8300000429 1.8300000429
 4930.0000000 4930.0000000 -1.250000000 1.7599999905 1.8300000429 1.8300000429
 4931.0000000 4931.0000000 0.5600000024 1.7999999523 1.8200000525 1.8200000525
 4932.0000000 4932.0000000 0.9900000095 1.8500000238 1.7999999523 1.7999999523
 4933.0000000 4933.0000000 0.0299999993 1.8899999857 1.7699999809 1.7699999809
 4934.0000000 4934.0000000 -0.639999986 1.9199999571 1.7400000095 1.7400000095
 4935.0000000 4935.0000000 -1.210000038 1.9700000286 1.6200000048 1.6200000048
 4936.0000000 4936.0000000 -1.360000014 1.9900000095 1.5599999428 1.5599999428
 4937.0000000 4937.0000000 -0.939999998 1.9700000286 1.5399999619 1.5399999619
