# LAS format log file from PETREL
# Project units are specified as depth units
#==================================================================
~Version information
VERS.   2.0:
WRAP.   NO:
#==================================================================
~Well
STRT .m      4650.0000000 :
STOP .m      7300.0000000 :
STEP .m     1.00000000 :
NULL .        -999.250000 :
COMP.           : COMPANY
WELL.  WELL_6   : WELL
FLD.            : FIELD
LOC.            : LOCATION
SRVC.           : SERVICE COMPANY
DATE.  2023-03-20 17:52:46   : Log Export Date {yyyy-MM-dd HH:mm:ss}
PROV.           : PROVINCE
UWI.   WELL_6   : UNIQUE WELL ID
API.            : API NUMBER
#==================================================================
~Curve
DEPT .m                   : DEPTH
Depth .m                  : Depth
GR .gAPI                  : GR
SP .mV                    : SP
RT .ohm.m                 : RT
~Parameter
#==================================================================
~Ascii
# ...
 4772.0000000 4772.0000000 79.930000305 -1.440000057 1.9800000191
 4773.0000000 4773.0000000 76.610000610 -2.710000038 2.2100000381
 4774.0000000 4774.0000000 73.190002441 -3.380000114 2.2500000000
 4775.0000000 4775.0000000 70.720001221 -4.139999866 2.5199999809
 4776.0000000 4776.0000000 68.569999695 -5.079999924 2.3900001049
 4777.0000000 4777.0000000 63.650001526 -6.099999905 2.5999999046
 4778.0000000 4778.0000000 60.060001373 -11.27999973 2.6900000572
 4779.0000000 4779.0000000 57.869998932 -16.75000000 2.9700000286
 4780.0000000 4780.0000000 56.970001221 -21.50000000 3.2300000191
 4781.0000000 4781.0000000 56.810001373 -23.29999924 3.4400000572
 4782.0000000 4782.0000000 59.630001068 -23.27000046 3.1300001144
 4783.0000000 4783.0000000 63.299999237 -22.71999931 2.8800001144
 4784.0000000 4784.0000000 56.529998779 -21.63999939 2.9600000381
 4785.0000000 4785.0000000 53.799999237 -21.62999916 3.5799999237
 4786.0000000 4786.0000000 54.939998627 -21.80999947 4.9600000381
 4787.0000000 4787.0000000 53.740001678 -20.65999985 5.1900000572
 4788.0000000 4788.0000000 54.500000000 -19.93000031 5.0199999809
 4789.0000000 4789.0000000 57.540000916 -19.54000092 4.4499998093
 4790.0000000 4790.0000000 59.610000610 -19.21999931 3.7999999523
 4791.0000000 4791.0000000 69.800003052 -16.68000031 3.1400001049
 4792.0000000 4792.0000000 72.400001526 -12.55000019 2.6700000763
 4793.0000000 4793.0000000 71.790000916 -7.809999943 2.3699998856
 4794.0000000 4794.0000000 76.489997864 -3.759999990 2.2000000477
 4795.0000000 4795.0000000 77.379997253 -1.480000019 1.9400000572
 4796.0000000 4796.0000000 73.440002441 -1.710000038 1.9400000572
 4797.0000000 4797.0000000 70.000000000 -2.549999952 1.9800000191
 4798.0000000 4798.0000000 69.839996338 -3.359999895 1.9500000477
 4799.0000000 4799.0000000 66.849998474 -4.190000057 1.9199999571
 4800.0000000 4800.0000000 63.200000763 -6.250000000 1.9900000095
 4801.0000000 4801.0000000 62.990001678 -10.94999981 2.0699999332
 4802.0000000 4802.0000000 64.489997864 -15.02999973 2.1600000858
 4803.0000000 4803.0000000 66.559997559 -16.05999947 2.2200000286
 4804.0000000 4804.0000000 65.760002136 -16.01000023 2.2300000191
 4805.0000000 4805.0000000 67.099998474 -14.22999954 2.2300000191
 4806.0000000 4806.0000000 71.830001831 -12.42000008 2.1600000858
 4807.0000000 4807.0000000 67.650001526 -12.06999969 2.0999999046
 4808.0000000 4808.0000000 69.099998474 -13.06000042 2.0499999523
 4809.0000000 4809.0000000 72.000000000 -12.56000042 1.9700000286
 4810.0000000 4810.0000000 72.739997864 -10.96000004 1.8700000048
 4811.0000000 4811.0000000 74.160003662 -12.97000027 1.7699999809
 4812.0000000 4812.0000000 70.120002747 -16.37999916 1.7400000095
 4813.0000000 4813.0000000 73.980003357 -16.28000069 1.8099999428
 4814.0000000 4814.0000000 80.129997253 -14.56999969 1.8799999952
 4815.0000000 4815.0000000 85.029998779 -12.14999962 1.8099999428
 4816.0000000 4816.0000000 91.379997253 -10.68999958 1.6799999475
 4817.0000000 4817.0000000 88.559997559 -8.970000267 1.6499999762
 4818.0000000 4818.0000000 83.239997864 -7.530000210 1.7100000381
 4819.0000000 4819.0000000 81.680000305 -6.980000019 1.8200000525
 4820.0000000 4820.0000000 80.529998779 -7.429999828 2.0099999905
 4821.0000000 4821.0000000 76.889999390 -7.880000114 2.2599999905
 4822.0000000 4822.0000000 75.000000000 -8.010000229 2.4400000572
 4823.0000000 4823.0000000 75.080001831 -7.389999866 2.6199998856
 4824.0000000 4824.0000000 72.800003052 -6.980000019 2.7300000191
 4825.0000000 4825.0000000 64.220001221 -8.890000343 2.8800001144
 4826.0000000 4826.0000000 53.139999390 -13.97000027 3.0000000000
 4827.0000000 4827.0000000 56.470001221 -17.95000076 2.7000000477
 4828.0000000 4828.0000000 65.309997559 -20.46999931 2.5299999714
 4829.0000000 4829.0000000 70.949996948 -22.42000008 2.4000000954
 4830.0000000 4830.0000000 67.279998779 -23.77000046 2.2799999714
 4831.0000000 4831.0000000 64.980003357 -24.40999985 2.2300000191
 4832.0000000 4832.0000000 68.730003357 -24.29000092 2.3099999428
 4833.0000000 4833.0000000 64.709999084 -26.95000076 2.4600000381
 4834.0000000 4834.0000000 63.630001068 -29.10000038 2.6099998951
 4835.0000000 4835.0000000 64.739997864 -29.98999977 2.6700000763
 4836.0000000 4836.0000000 65.000000000 -27.47999954 2.6099998951
 4837.0000000 4837.0000000 68.169998169 -22.59000015 2.4600000381
 4838.0000000 4838.0000000 71.360000610 -20.57999992 2.3099999428
 4839.0000000 4839.0000000 68.190002441 -21.62999916 2.1800000668
 4840.0000000 4840.0000000 62.790000916 -25.03000069 2.1400001049
 4841.0000000 4841.0000000 58.840000153 -26.45999908 2.1700000763
 4842.0000000 4842.0000000 55.080001831 -27.43000031 2.1900000572
 4843.0000000 4843.0000000 53.650001526 -27.20999908 2.2100000381
 4844.0000000 4844.0000000 59.959999084 -25.19000053 2.2300000191
 4845.0000000 4845.0000000 65.169998169 -16.27000046 2.0000000000
 4846.0000000 4846.0000000 69.160003662 -11.15999985 1.5700000525
 4847.0000000 4847.0000000 76.849998474 -8.289999962 1.4800000191
 4848.0000000 4848.0000000 79.680000305 -8.229999542 1.4600000381
 4849.0000000 4849.0000000 62.950000763 -16.23999977 1.4500000477
 4850.0000000 4850.0000000 62.009998322 -23.10000038 1.5700000525
 4851.0000000 4851.0000000 73.260002136 -28.03000069 1.7100000381
 4852.0000000 4852.0000000 76.099998474 -29.86000061 1.8500000238
 4853.0000000 4853.0000000 72.980003357 -29.54999924 1.8700000048
 4854.0000000 4854.0000000 69.519996643 -27.95000076 1.6699999571
 4855.0000000 4855.0000000 74.139999390 -25.50000000 1.5599999428
 4856.0000000 4856.0000000 76.879997253 -23.23999977 1.5399999619
 4857.0000000 4857.0000000 73.989997864 -24.90999985 1.5700000525
 4858.0000000 4858.0000000 65.319999695 -27.05999947 1.6499999762
 4859.0000000 4859.0000000 64.699996948 -26.90999985 1.8099999428
 4860.0000000 4860.0000000 66.629997253 -25.26000023 1.9800000191
 4861.0000000 4861.0000000 66.269996643 -24.22999954 2.1600000858
 4862.0000000 4862.0000000 69.580001831 -23.68000031 2.2999999523
 4863.0000000 4863.0000000 75.360000610 -22.37999916 2.4100000858
 4864.0000000 4864.0000000 77.720001221 -19.57999992 2.4400000572
 4865.0000000 4865.0000000 104.79000092 -16.39999962 2.2699999809
 4866.0000000 4866.0000000 128.77000427 -10.93000031 1.9099999666
 4867.0000000 4867.0000000 139.50999451 -7.619999886 1.6299999952
 4868.0000000 4868.0000000 139.92999268 -5.670000076 1.5399999619
 4869.0000000 4869.0000000 122.22000122 -4.559999943 1.5700000525
 4870.0000000 4870.0000000 96.209999084 -4.050000191 1.7100000381
 4871.0000000 4871.0000000 84.190002441 -8.340000153 1.9299999475
 4872.0000000 4872.0000000 88.589996338 -14.07999992 2.2000000477
 4873.0000000 4873.0000000 102.37999725 -16.71999931 2.0999999046
 4874.0000000 4874.0000000 108.50000000 -17.37000084 2.0899999142
 4875.0000000 4875.0000000 111.93000031 -16.39999962 2.0399999619
 4876.0000000 4876.0000000 105.05999756 -16.62000084 2.1300001144
 4877.0000000 4877.0000000 73.529998779 -14.21000004 2.5799999237
 4878.0000000 4878.0000000 71.069999695 -9.329999924 3.5299999714
 4879.0000000 4879.0000000 90.849998474 -4.969999790 4.5900001526
 4880.0000000 4880.0000000 94.559997559 -2.990000010 2.2899999619
 4881.0000000 4881.0000000 87.430000305 -2.250000000 2.0000000000
 4882.0000000 4882.0000000 95.620002747 -2.029999971 1.7300000191
 4883.0000000 4883.0000000 100.41999817 -1.129999995 1.5000000000
 4884.0000000 4884.0000000 95.470001221 -0.349999994 1.3700000048
 4885.0000000 4885.0000000 90.550003052 -0.319999993 1.3099999428
 4886.0000000 4886.0000000 88.610000610 -0.629999995 1.2799999714
 4887.0000000 4887.0000000 94.470001221 -1.529999971 1.3099999428
 4888.0000000 4888.0000000 96.900001526 -2.829999924 1.3200000525
 4889.0000000 4889.0000000 90.419998169 -2.730000019 1.2999999523
 4890.0000000 4890.0000000 86.199996948 -2.059999943 1.2999999523
 4891.0000000 4891.0000000 91.239997864 -3.549999952 1.3400000334
 4892.0000000 4892.0000000 108.18000031 -3.359999895 1.3300000429
 4893.0000000 4893.0000000 113.31999969 -2.680000067 1.2599999905
