# LAS format log file from PETREL
# Project units are specified as depth units
#==================================================================
~Version information
VERS.   2.0:
WRAP.   NO:
#==================================================================
~Well
STRT .m      4561.0000000 :
STOP .m      7034.0000000 :
STEP .m     1.00000000 :
NULL .        -999.250000 :
COMP.           : COMPANY
WELL.  WELL_5   : WELL
FLD.            : FIELD
LOC.            : LOCATION
SRVC.           : SERVICE COMPANY
DATE.  2023-03-20 17:52:46   : Log Export Date {yyyy-MM-dd HH:mm:ss}
PROV.           : PROVINCE
UWI.   WELL_5   : UNIQUE WELL ID
API.            : API NUMBER
#==================================================================
~Curve
DEPT .m                   : DEPTH
Depth .m                  : Depth
SN .ohm.m                 : SN
ILD .ohm.m                : ILD
~Parameter
#==================================================================
~Ascii
# ...
 5165.0000000 5165.0000000 1.6799999475 1.4500000477
 5166.0000000 5166.0000000 1.6699999571 1.4199999571
 5167.0000000 5167.0000000 1.6699999571 1.3999999762
 5168.0000000 5168.0000000 1.6799999475 1.3899999857
 5169.0000000 5169.0000000 1.6900000572 1.3899999857
 5170.0000000 5170.0000000 1.7300000191 1.4199999571
 5171.0000000 5171.0000000 1.8600000143 1.5299999714
 5172.0000000 5172.0000000 2.0399999619 1.7200000286
 5173.0000000 5173.0000000 2.2300000191 2.0000000000
 5174.0000000 5174.0000000 2.4700000286 2.3099999428
 5175.0000000 5175.0000000 2.7300000191 2.4600000381
 5176.0000000 5176.0000000 2.8800001144 2.4000000954
 5177.0000000 5177.0000000 2.7400000095 2.2000000477
 5178.0000000 5178.0000000 2.4200000763 1.9900000095
 5179.0000000 5179.0000000 2.1500000954 1.8400000334
 5180.0000000 5180.0000000 2.0899999142 1.7300000191
 5181.0000000 5181.0000000 2.0499999523 1.6699999571
 5182.0000000 5182.0000000 2.0499999523 1.7100000381
 5183.0000000 5183.0000000 2.0699999332 1.7799999714
 5184.0000000 5184.0000000 2.1300001144 1.8700000048
 5185.0000000 5185.0000000 2.1300001144 1.9600000381
 5186.0000000 5186.0000000 2.3099999428 2.0499999523
 5187.0000000 5187.0000000 2.3599998951 2.0699999332
 5188.0000000 5188.0000000 2.3399999142 1.9800000191
 5189.0000000 5189.0000000 2.2100000381 1.8899999857
 5190.0000000 5190.0000000 2.0899999142 1.7899999619
 5191.0000000 5191.0000000 1.9900000095 1.6499999762
 5192.0000000 5192.0000000 1.9500000477 1.5800000429
 5193.0000000 5193.0000000 1.9199999571 1.5599999428
 5194.0000000 5194.0000000 1.8899999857 1.5499999523
 5195.0000000 5195.0000000 1.8700000048 1.5599999428
 5196.0000000 5196.0000000 1.8899999857 1.6100000143
 5197.0000000 5197.0000000 1.9400000572 1.6599999666
 5198.0000000 5198.0000000 1.9900000095 1.7000000477
 5199.0000000 5199.0000000 2.0399999619 1.7300000191
 5200.0000000 5200.0000000 2.0499999523 1.7699999809
 5201.0000000 5201.0000000 2.0699999332 1.8099999428
 5202.0000000 5202.0000000 2.0999999046 1.8899999857
 5203.0000000 5203.0000000 2.1400001049 1.8899999857
 5204.0000000 5204.0000000 2.1400001049 1.8700000048
 5205.0000000 5205.0000000 2.0699999332 1.8099999428
 5206.0000000 5206.0000000 1.9900000095 1.7100000381
 5207.0000000 5207.0000000 1.8899999857 1.5199999809
 5208.0000000 5208.0000000 1.7599999905 1.3999999762
 5209.0000000 5209.0000000 1.6799999475 1.3400000334
 5210.0000000 5210.0000000 1.6399999857 1.3600000143
 5211.0000000 5211.0000000 1.7000000477 1.4800000191
 5212.0000000 5212.0000000 1.7699999809 1.6200000048
 5213.0000000 5213.0000000 1.8700000048 1.7300000191
 5214.0000000 5214.0000000 1.9700000286 1.7799999714
 5215.0000000 5215.0000000 2.0199999809 1.7799999714
 5216.0000000 5216.0000000 2.0299999714 1.7400000095
 5217.0000000 5217.0000000 2.0399999619 1.7200000286
 5218.0000000 5218.0000000 2.0899999142 1.8099999428
 5219.0000000 5219.0000000 2.1800000668 1.9099999666
 5220.0000000 5220.0000000 2.4700000286 2.0199999809
 5221.0000000 5221.0000000 2.6099998951 2.0899999142
 5222.0000000 5222.0000000 2.4400000572 1.9700000286
 5223.0000000 5223.0000000 2.1300001144 1.7799999714
 5224.0000000 5224.0000000 1.9299999475 1.6399999857
 5225.0000000 5225.0000000 1.8600000143 1.5700000525
 5226.0000000 5226.0000000 1.8700000048 1.6000000238
 5227.0000000 5227.0000000 1.9199999571 1.6399999857
 5228.0000000 5228.0000000 1.9099999666 1.6399999857
 5229.0000000 5229.0000000 1.8899999857 1.6599999666
 5230.0000000 5230.0000000 1.8799999952 1.6799999475
 5231.0000000 5231.0000000 1.9099999666 1.7000000477
 5232.0000000 5232.0000000 1.9400000572 1.7100000381
 5233.0000000 5233.0000000 1.8999999762 1.7200000286
 5234.0000000 5234.0000000 1.8700000048 1.6000000238
 5235.0000000 5235.0000000 1.7799999714 1.5000000000
 5236.0000000 5236.0000000 1.7200000286 1.4400000572
 5237.0000000 5237.0000000 1.6599999666 1.3799999952
 5238.0000000 5238.0000000 1.6399999857 1.3200000525
 5239.0000000 5239.0000000 1.6200000048 1.3099999428
 5240.0000000 5240.0000000 1.6299999952 1.3200000525
 5241.0000000 5241.0000000 1.6599999666 1.3899999857
 5242.0000000 5242.0000000 1.6900000572 1.5000000000
 5243.0000000 5243.0000000 1.8300000429 1.6900000572
 5244.0000000 5244.0000000 2.0199999809 1.8500000238
 5245.0000000 5245.0000000 2.2200000286 2.0099999905
 5246.0000000 5246.0000000 2.3800001144 2.1600000858
 5247.0000000 5247.0000000 2.4900000095 2.2599999905
 5248.0000000 5248.0000000 2.6300001144 2.3099999428
 5249.0000000 5249.0000000 2.6500000954 2.2799999714
 5250.0000000 5250.0000000 2.6300001144 2.2300000191
 5251.0000000 5251.0000000 2.5599999428 2.1099998951
 5252.0000000 5252.0000000 2.4800000191 1.9700000286
 5253.0000000 5253.0000000 2.3800001144 1.9099999666
 5254.0000000 5254.0000000 2.2599999905 1.8899999857
 5255.0000000 5255.0000000 2.2000000477 1.9099999666
 5256.0000000 5256.0000000 2.2799999714 1.9299999475
 5257.0000000 5257.0000000 2.3499999046 1.9600000381
 5258.0000000 5258.0000000 2.3199999332 2.0199999809
 5259.0000000 5259.0000000 2.2599999905 1.9600000381
 5260.0000000 5260.0000000 2.2200000286 1.7500000000
 5261.0000000 5261.0000000 2.0399999619 1.5499999523
 5262.0000000 5262.0000000 1.8200000525 1.3500000238
 5263.0000000 5263.0000000 1.6399999857 1.2500000000
 5264.0000000 5264.0000000 1.5700000525 1.2599999905
 5265.0000000 5265.0000000 1.6000000238 1.3200000525
 5266.0000000 5266.0000000 1.6699999571 1.3899999857
 5267.0000000 5267.0000000 1.7599999905 1.4900000095
 5268.0000000 5268.0000000 1.8600000143 1.6599999666
 5269.0000000 5269.0000000 1.9600000381 1.7699999809
 5270.0000000 5270.0000000 2.0299999714 1.7400000095
 5271.0000000 5271.0000000 1.8899999857 1.6000000238
 5272.0000000 5272.0000000 1.6299999952 1.3999999762
 5273.0000000 5273.0000000 1.5199999809 1.2899999619
 5274.0000000 5274.0000000 1.4900000095 1.2400000095
 5275.0000000 5275.0000000 1.5000000000 1.2300000191
 5276.0000000 5276.0000000 1.5099999905 1.2500000000
 5277.0000000 5277.0000000 1.5199999809 1.3200000525
 5278.0000000 5278.0000000 1.5499999523 1.3799999952
 5279.0000000 5279.0000000 1.5900000334 1.4299999475
 5280.0000000 5280.0000000 1.6599999666 1.5000000000
 5281.0000000 5281.0000000 1.7100000381 1.5599999428
 5282.0000000 5282.0000000 1.7300000191 1.5599999428
 5283.0000000 5283.0000000 1.7100000381 1.5099999905
 5284.0000000 5284.0000000 1.6699999571 1.4299999475
 5285.0000000 5285.0000000 1.6200000048 1.3700000048
 5286.0000000 5286.0000000 1.6000000238 1.3300000429
 5287.0000000 5287.0000000 1.6100000143 1.3600000143
 5288.0000000 5288.0000000 1.7200000286 1.4600000381
 5289.0000000 5289.0000000 1.8200000525 1.5700000525
 5290.0000000 5290.0000000 1.8999999762 1.6699999571
 5291.0000000 5291.0000000 1.9600000381 1.7100000381
 5292.0000000 5292.0000000 1.9900000095 1.7300000191
 5293.0000000 5293.0000000 2.0099999905 1.7799999714
 5294.0000000 5294.0000000 2.0699999332 1.8400000334
 5295.0000000 5295.0000000 2.1600000858 1.8999999762
 5296.0000000 5296.0000000 2.2200000286 1.9600000381
 5297.0000000 5297.0000000 2.2699999809 1.9900000095
 5298.0000000 5298.0000000 2.2799999714 1.9500000477
 5299.0000000 5299.0000000 2.2300000191 1.8999999762
 5300.0000000 5300.0000000 2.0999999046 1.7899999619
 5301.0000000 5301.0000000 2.0499999523 1.7300000191
 5302.0000000 5302.0000000 2.0199999809 1.6699999571
 5303.0000000 5303.0000000 2.0099999905 1.6699999571
 5304.0000000 5304.0000000 1.9900000095 1.6699999571
 5305.0000000 5305.0000000 1.9900000095 1.6499999762
 5306.0000000 5306.0000000 2.0099999905 1.6399999857
 5307.0000000 5307.0000000 2.0199999809 1.6499999762
 5308.0000000 5308.0000000 2.0499999523 1.7100000381
 5309.0000000 5309.0000000 2.1199998856 1.7899999619
 5310.0000000 5310.0000000 2.2500000000 1.9099999666
 5311.0000000 5311.0000000 2.4100000858 2.0699999332
 5312.0000000 5312.0000000 2.5599999428 2.2400000095
 5313.0000000 5313.0000000 2.7100000381 2.3499999046
 5314.0000000 5314.0000000 2.8399999142 2.3900001049
 5315.0000000 5315.0000000 2.8800001144 2.2300000191
