# LAS format log file from PETREL
# Project units are specified as depth units
#==================================================================
~Version information
VERS.   2.0:
WRAP.   NO:
#==================================================================
~Well
STRT .m      3000.0000000 :
STOP .m      7750.0000000 :
STEP .m     1.00000000 :
NULL .        -999.250000 :
COMP.           : COMPANY
WELL.  WELL_2   : WELL
FLD.            : FIELD
LOC.            : LOCATION
SRVC.           : SERVICE COMPANY
DATE.  2023-03-20 17:52:46   : Log Export Date {yyyy-MM-dd HH:mm:ss}
PROV.           : PROVINCE
UWI.   WELL_2   : UNIQUE WELL ID
API.            : API NUMBER
#==================================================================
~Curve
DEPT .m                   : DEPTH
Depth .m                  : Depth
SP .mV                    : SP
SN .ohm.m                 : SN
LN .ohm.m                 : LN
LAT .ohm.m                : LAT
~Parameter
#==================================================================
~Ascii
# ...
 5856.0000000 5856.0000000 -25.29999924 5.3499999046 4.3899998665 4.3899998665
 5857.0000000 5857.0000000 -25.04999924 5.2500000000 4.4299998283 4.4299998283
 5858.0000000 5858.0000000 -24.60000038 5.2300000191 4.4699997902 4.4699997902
 5859.0000000 5859.0000000 -24.03000069 5.2899999619 4.4499998093 4.4499998093
 5860.0000000 5860.0000000 -23.38999939 5.3899998665 4.4099998474 4.4099998474
 5861.0000000 5861.0000000 -22.03000069 5.5599999428 3.9700000286 3.9700000286
 5862.0000000 5862.0000000 -15.64999962 5.4200000763 3.6500000954 3.6500000954
 5863.0000000 5863.0000000 -12.64000034 4.3499999046 3.3699998856 3.3699998856
 5864.0000000 5864.0000000 -10.32999992 3.9900000095 3.3299999237 3.3299999237
 5865.0000000 5865.0000000 -7.869999886 3.0799999237 3.3099999428 3.3099999428
 5866.0000000 5866.0000000 -7.500000000 2.8299999237 3.3099999428 3.3099999428
 5867.0000000 5867.0000000 -8.399999619 3.1600000858 3.3099999428 3.3099999428
 5868.0000000 5868.0000000 -9.310000420 3.4600000381 3.1600000858 3.1600000858
 5869.0000000 5869.0000000 -9.420000076 3.7300000191 2.8599998951 2.8599998951
 5870.0000000 5870.0000000 -9.159999847 3.7200000286 2.7300000191 2.7300000191
 5871.0000000 5871.0000000 -7.210000038 3.4400000572 2.8099999428 2.8099999428
 5872.0000000 5872.0000000 -5.960000038 2.9100000858 2.9500000477 2.9500000477
 5873.0000000 5873.0000000 -5.570000172 2.7300000191 3.0299999714 3.0299999714
 5874.0000000 5874.0000000 -6.130000114 2.6800000668 3.0299999714 3.0299999714
 5875.0000000 5875.0000000 -7.119999886 2.8199999332 2.9400000572 2.9400000572
 5876.0000000 5876.0000000 -7.869999886 2.9900000095 2.8399999142 2.8399999142
 5877.0000000 5877.0000000 -8.420000076 3.2400000095 2.7899999619 2.7899999619
 5878.0000000 5878.0000000 -8.640000343 3.3099999428 2.7599999905 2.7599999905
 5879.0000000 5879.0000000 -8.739999771 3.3499999046 2.8099999428 2.8099999428
 5880.0000000 5880.0000000 -9.100000381 3.3499999046 2.9900000095 2.9900000095
 5881.0000000 5881.0000000 -10.13000011 3.3099999428 3.1300001144 3.1300001144
 5882.0000000 5882.0000000 -11.47999954 3.5199999809 3.3299999237 3.3299999237
 5883.0000000 5883.0000000 -14.14999962 4.0199999809 3.2699999809 3.2699999809
 5884.0000000 5884.0000000 -16.75000000 4.4299998283 3.2500000000 3.2500000000
 5885.0000000 5885.0000000 -17.45000076 4.5599999428 3.2899999619 3.2899999619
 5886.0000000 5886.0000000 -18.00000000 4.6100001335 3.3900001049 3.3900001049
 5887.0000000 5887.0000000 -18.13999939 4.6199998856 3.4300000668 3.4300000668
 5888.0000000 5888.0000000 -17.70000076 4.6500000954 3.1300001144 3.1300001144
 5889.0000000 5889.0000000 -16.77000046 4.5599999428 2.8599998951 2.8599998951
 5890.0000000 5890.0000000 -15.50000000 4.3699998856 2.6300001144 2.6300001144
 5891.0000000 5891.0000000 -11.63000011 3.9500000477 2.5000000000 2.5000000000
 5892.0000000 5892.0000000 -8.119999886 3.0000000000 2.4700000286 2.4700000286
 5893.0000000 5893.0000000 -6.570000172 2.6600000858 2.5000000000 2.5000000000
 5894.0000000 5894.0000000 -5.420000076 2.6199998856 2.5099999905 2.5099999905
 5895.0000000 5895.0000000 -5.500000000 2.6400001049 2.5199999809 2.5199999809
 5896.0000000 5896.0000000 -6.639999866 2.6500000954 2.4400000572 2.4400000572
 5897.0000000 5897.0000000 -6.829999924 2.6800000668 2.0399999619 2.0399999619
 5898.0000000 5898.0000000 -5.760000229 2.6199998856 2.0000000000 2.0000000000
 5899.0000000 5899.0000000 -4.800000191 2.3900001049 2.0000000000 2.0000000000
 5900.0000000 5900.0000000 -4.309999943 2.2200000286 2.0099999905 2.0099999905
 5901.0000000 5901.0000000 -4.269999981 2.1500000954 2.0299999714 2.0299999714
 5902.0000000 5902.0000000 -4.769999981 2.2100000381 2.0699999332 2.0699999332
 5903.0000000 5903.0000000 -5.010000229 2.2300000191 2.1199998856 2.1199998856
 5904.0000000 5904.0000000 -4.579999924 2.2400000095 2.1900000572 2.1900000572
 5905.0000000 5905.0000000 -4.489999771 2.2500000000 2.2999999523 2.2999999523
 5906.0000000 5906.0000000 -4.699999809 2.2799999714 2.3900001049 2.3900001049
 5907.0000000 5907.0000000 -5.719999790 2.4500000477 2.4600000381 2.4600000381
 5908.0000000 5908.0000000 -6.699999809 2.7500000000 2.4800000191 2.4800000191
 5909.0000000 5909.0000000 -7.570000172 2.9800000191 2.4900000095 2.4900000095
 5910.0000000 5910.0000000 -8.479999542 3.3599998951 2.5599999428 2.5599999428
 5911.0000000 5911.0000000 -9.409999847 3.4900000095 2.7000000477 2.7000000477
 5912.0000000 5912.0000000 -10.55000019 3.6800000668 2.8699998856 2.8699998856
 5913.0000000 5913.0000000 -11.34000015 3.9900000095 3.0199999809 3.0199999809
 5914.0000000 5914.0000000 -11.69999981 4.2500000000 3.1500000954 3.1500000954
 5915.0000000 5915.0000000 -11.81999969 4.3400001526 3.0599999428 3.0599999428
 5916.0000000 5916.0000000 -11.50000000 4.2899999619 2.9700000286 2.9700000286
 5917.0000000 5917.0000000 -10.73999977 3.9800000191 2.8599998951 2.8599998951
 5918.0000000 5918.0000000 -9.590000153 3.6800000668 2.7000000477 2.7000000477
 5919.0000000 5919.0000000 -8.449999809 3.1900000572 2.5499999523 2.5499999523
 5920.0000000 5920.0000000 -6.980000019 2.8299999237 2.5000000000 2.5000000000
 5921.0000000 5921.0000000 -6.690000057 2.5099999905 2.5299999714 2.5299999714
 5922.0000000 5922.0000000 -7.309999943 2.4700000286 2.5999999046 2.5999999046
 5923.0000000 5923.0000000 -7.960000038 2.6099998951 2.5099999905 2.5099999905
 5924.0000000 5924.0000000 -8.609999657 2.7000000477 2.4000000954 2.4000000954
 5925.0000000 5925.0000000 -8.670000076 2.8800001144 2.4500000477 2.4500000477
 5926.0000000 5926.0000000 -8.439999580 2.9600000381 2.3499999046 2.3499999046
 5927.0000000 5927.0000000 -7.659999847 2.7899999619 2.2100000381 2.2100000381
 5928.0000000 5928.0000000 -7.019999981 2.5999999046 2.2100000381 2.2100000381
 5929.0000000 5929.0000000 -6.440000057 2.4100000858 2.2200000286 2.2200000286
 5930.0000000 5930.0000000 -5.670000076 2.2500000000 2.2400000095 2.2400000095
 5931.0000000 5931.0000000 -4.650000095 2.2400000095 2.2400000095 2.2400000095
 5932.0000000 5932.0000000 -4.369999886 2.2599999905 2.2100000381 2.2100000381
 5933.0000000 5933.0000000 -4.349999905 2.2599999905 2.1800000668 2.1800000668
 5934.0000000 5934.0000000 -4.989999771 2.2200000286 2.1900000572 2.1900000572
 5935.0000000 5935.0000000 -5.010000229 2.2200000286 2.2000000477 2.2000000477
 5936.0000000 5936.0000000 -4.869999886 2.2699999809 2.2500000000 2.2500000000
 5937.0000000 5937.0000000 -4.500000000 2.3199999332 2.2799999714 2.2799999714
 5938.0000000 5938.0000000 -5.449999809 2.3499999046 2.3199999332 2.3199999332
 5939.0000000 5939.0000000 -7.110000134 2.4100000858 2.3800001144 2.3800001144
 5940.0000000 5940.0000000 -8.930000305 2.6900000572 2.5199999809 2.5199999809
 5941.0000000 5941.0000000 -12.53999996 3.3299999237 2.8199999332 2.8199999332
 5942.0000000 5942.0000000 -15.47000027 3.7599999905 3.0399999619 3.0399999619
 5943.0000000 5943.0000000 -17.68000031 4.3699998856 3.2799999714 3.2799999714
 5944.0000000 5944.0000000 -19.62999916 5.1500000954 3.4700000286 3.4700000286
 5945.0000000 5945.0000000 -20.85000038 5.4699997902 3.6800000668 3.6800000668
 5946.0000000 5946.0000000 -21.12999916 5.5100002289 3.8900001049 3.8900001049
 5947.0000000 5947.0000000 -20.93000031 5.5300002098 4.0300002098 4.0300002098
 5948.0000000 5948.0000000 -20.60000038 5.5399999619 4.1700000763 4.1700000763
 5949.0000000 5949.0000000 -20.11000061 5.5399999619 4.2800002098 4.2800002098
 5950.0000000 5950.0000000 -18.95999908 5.5500001907 4.3000001907 4.3000001907
 5951.0000000 5951.0000000 -17.87000084 5.5799999237 4.2199997902 4.2199997902
 5952.0000000 5952.0000000 -17.34000015 5.5799999237 4.1300001144 4.1300001144
 5953.0000000 5953.0000000 -17.02000046 5.5199999809 3.9500000477 3.9500000477
 5954.0000000 5954.0000000 -16.47999954 5.2699999809 3.6500000954 3.6500000954
 5955.0000000 5955.0000000 -15.63000011 4.8000001907 3.3199999332 3.3199999332
 5956.0000000 5956.0000000 -14.84000015 4.2699999809 3.0000000000 3.0000000000
 5957.0000000 5957.0000000 -13.27000046 3.7699999809 2.8199999332 2.8199999332
