# LAS format log file from PETREL
# Project units are specified as depth units
#==================================================================
~Version information
VERS.   2.0:
WRAP.   NO:
#==================================================================
~Well
STRT .m      4450.0000000 :
STOP .m      7050.0000000 :
STEP .m     1.00000000 :
NULL .        -999.250000 :
COMP.           : COMPANY
WELL.  WELL_4   : WELL
FLD.            : FIELD
LOC.            : LOCATION
SRVC.           : SERVICE COMPANY
DATE.  2023-03-20 17:52:46   : Log Export Date {yyyy-MM-dd HH:mm:ss}
PROV.           : PROVINCE
UWI.   WELL_4   : UNIQUE WELL ID
API.            : API NUMBER
#==================================================================
~Curve
DEPT .m                   : DEPTH
Depth .m                  : Depth
SP .mV                    : SP
SN .ohm.m                 : SN
LN .ohm.m                 : LN
LAT .ohm.m                : LAT
~Parameter
#==================================================================
~Ascii
 4450.0000000 4450.0000000 -9.460000038 1.2000000477 1.4099999666 1.4199999571
 4451.0000000 4451.0000000 -9.350000381 1.1499999762 1.3999999762 1.4600000381
 4452.0000000 4452.0000000 -9.180000305 1.1299999952 1.3899999857 1.4700000286
 4453.0000000 4453.0000000 -9.470000267 1.1399999857 1.3799999952 1.4299999475
 4454.0000000 4454.0000000 -9.619999886 1.1699999571 1.3799999952 1.3899999857
 4455.0000000 4455.0000000 -9.539999962 1.1699999571 1.3899999857 1.3500000238
 4456.0000000 4456.0000000 -9.550000191 1.1799999475 1.4099999666 1.3600000143
 4457.0000000 4457.0000000 -9.529999733 1.2100000381 1.4199999571 1.3500000238
 4458.0000000 4458.0000000 -9.520000458 1.2699999809 1.4400000572 1.3300000429
 4459.0000000 4459.0000000 -9.539999962 1.3899999857 1.4900000095 1.3400000334
 4460.0000000 4460.0000000 -9.609999657 1.4800000191 1.5199999809 1.3600000143
 4461.0000000 4461.0000000 -9.800000191 1.5299999714 1.5399999619 1.3999999762
 4462.0000000 4462.0000000 -10.07999992 1.5399999619 1.5399999619 1.4600000381
 4463.0000000 4463.0000000 -10.15999985 1.5499999523 1.5199999809 1.4800000191
 4464.0000000 4464.0000000 -10.23999977 1.5700000525 1.4900000095 1.4299999475
 4465.0000000 4465.0000000 -10.59000015 1.5800000429 1.4199999571 1.3899999857
 4466.0000000 4466.0000000 -11.06999969 1.5800000429 1.3400000334 1.4400000572
 4467.0000000 4467.0000000 -11.32999992 1.5199999809 1.2999999523 1.5199999809
 4468.0000000 4468.0000000 -10.93999958 1.3999999762 1.2999999523 1.5299999714
 4469.0000000 4469.0000000 -9.890000343 1.2599999905 1.3300000429 1.4600000381
 4470.0000000 4470.0000000 -8.850000381 1.1799999475 1.3700000048 1.3500000238
 4471.0000000 4471.0000000 -8.789999962 1.1599999666 1.3899999857 1.2400000095
 4472.0000000 4472.0000000 -9.329999924 1.2000000477 1.4099999666 1.1799999475
 4473.0000000 4473.0000000 -9.890000343 1.3200000525 1.4199999571 1.1399999857
 4474.0000000 4474.0000000 -9.939999580 1.3899999857 1.4400000572 1.1299999952
 4475.0000000 4475.0000000 -9.720000267 1.4099999666 1.4600000381 1.1299999952
 4476.0000000 4476.0000000 -9.829999924 1.4099999666 1.4700000286 1.1399999857
 4477.0000000 4477.0000000 -10.71000004 1.4099999666 1.4800000191 1.1599999666
 4478.0000000 4478.0000000 -11.77999973 1.4299999475 1.4900000095 1.1900000572
 4479.0000000 4479.0000000 -12.25000000 1.4500000477 1.4800000191 1.2100000381
 4480.0000000 4480.0000000 -12.39999962 1.4800000191 1.4700000286 1.2100000381
 4481.0000000 4481.0000000 -12.77999973 1.5099999905 1.4600000381 1.2200000286
 4482.0000000 4482.0000000 -13.85000038 1.5599999428 1.4500000477 1.2899999619
 4483.0000000 4483.0000000 -15.63000011 1.6200000048 1.4500000477 1.3400000334
 4484.0000000 4484.0000000 -17.85000038 1.6699999571 1.4400000572 1.2999999523
 4485.0000000 4485.0000000 -20.65999985 1.7100000381 1.4400000572 1.2699999809
 4486.0000000 4486.0000000 -23.53000069 1.8999999762 1.3700000048 1.3600000143
 4487.0000000 4487.0000000 -25.93000031 2.1199998856 1.2999999523 1.6200000048
 4488.0000000 4488.0000000 -27.89999962 2.2599999905 1.2599999905 1.7699999809
 4489.0000000 4489.0000000 -29.20000076 2.3499999046 1.2799999714 1.7100000381
 4490.0000000 4490.0000000 -29.73999977 2.3800001144 1.3200000525 1.4900000095
 4491.0000000 4491.0000000 -29.45999908 2.2799999714 1.3899999857 1.3899999857
 4492.0000000 4492.0000000 -29.06999969 2.0799999237 1.4700000286 1.3099999428
 4493.0000000 4493.0000000 -28.52000046 1.9500000477 1.5199999809 1.1799999475
 4494.0000000 4494.0000000 -27.72999954 1.9299999475 1.5599999428 1.0900000334
 4495.0000000 4495.0000000 -26.45000076 2.0099999905 1.4500000477 1.1699999571
 4496.0000000 4496.0000000 -24.79000092 2.0999999046 1.2500000000 1.3799999952
 4497.0000000 4497.0000000 -22.59000015 2.1700000763 0.9900000095 1.7400000095
 4498.0000000 4498.0000000 -17.93000031 2.1199998856 0.9300000072 2.2799999714
 4499.0000000 4499.0000000 -13.89999962 1.6699999571 1.1000000238 2.5699999332
 4500.0000000 4500.0000000 -11.27000046 1.3899999857 1.3200000525 2.3599998951
 4501.0000000 4501.0000000 -9.489999771 1.2200000286 1.4900000095 1.6900000572
 4502.0000000 4502.0000000 -9.319999695 1.0900000334 1.6100000143 0.9700000286
 4503.0000000 4503.0000000 -9.569999695 1.1200000048 1.5099999905 0.8600000143
 4504.0000000 4504.0000000 -10.22000027 1.1799999475 1.4299999475 0.8199999928
 4505.0000000 4505.0000000 -11.39999962 1.2200000286 1.3700000048 0.8399999738
 4506.0000000 4506.0000000 -13.98999977 1.2699999809 1.3400000334 0.8799999952
 4507.0000000 4507.0000000 -15.72999954 1.3200000525 1.3200000525 0.9399999976
 4508.0000000 4508.0000000 -16.04999924 1.3400000334 1.3200000525 0.9499999881
 4509.0000000 4509.0000000 -15.73999977 1.3400000334 1.3300000429 0.9200000167
 4510.0000000 4510.0000000 -15.25000000 1.3400000334 1.3400000334 0.8899999857
 4511.0000000 4511.0000000 -14.53999996 1.3600000143 1.3400000334 0.8799999952
 4512.0000000 4512.0000000 -13.73999977 1.3700000048 1.3400000334 0.8999999762
 4513.0000000 4513.0000000 -12.89999962 1.3999999762 1.3300000429 0.9200000167
 4514.0000000 4514.0000000 -11.89999962 1.4299999475 1.3400000334 0.9300000072
 4515.0000000 4515.0000000 -10.06999969 1.4500000477 1.3400000334 1.0199999809
 4516.0000000 4516.0000000 -9.270000458 1.4299999475 1.3200000525 1.2100000381
 4517.0000000 4517.0000000 -8.789999962 1.3700000048 1.2999999523 1.4500000477
 4518.0000000 4518.0000000 -8.460000038 1.2899999619 1.2699999809 1.6000000238
 4519.0000000 4519.0000000 -8.270000458 1.2200000286 1.2400000095 1.6599999666
 4520.0000000 4520.0000000 -8.159999847 1.1699999571 1.2100000381 1.6499999762
 4521.0000000 4521.0000000 -8.350000381 1.1499999762 1.1900000572 1.5800000429
 4522.0000000 4522.0000000 -8.770000458 1.1399999857 1.2000000477 1.4500000477
 4523.0000000 4523.0000000 -9.039999962 1.1599999666 1.2100000381 1.2899999619
 4524.0000000 4524.0000000 -9.090000153 1.1699999571 1.2100000381 1.1599999666
 4525.0000000 4525.0000000 -9.069999695 1.1699999571 1.2200000286 1.1299999952
 4526.0000000 4526.0000000 -9.029999733 1.1699999571 1.2300000191 1.1100000143
 4527.0000000 4527.0000000 -9.100000381 1.1699999571 1.2200000286 1.1000000238
 4528.0000000 4528.0000000 -9.279999733 1.1599999666 1.2100000381 1.0599999428
 4529.0000000 4529.0000000 -9.479999542 1.1599999666 1.2200000286 1.0299999714
 4530.0000000 4530.0000000 -9.449999809 1.1599999666 1.2100000381 1.0199999809
 4531.0000000 4531.0000000 -9.229999542 1.1499999762 1.2100000381 1.0099999905
 4532.0000000 4532.0000000 -8.899999619 1.1299999952 1.2000000477 1.0099999905
 4533.0000000 4533.0000000 -8.560000420 1.1000000238 1.1900000572 1.0199999809
 4534.0000000 4534.0000000 -9.210000038 1.1100000143 1.1799999475 1.0299999714
 4535.0000000 4535.0000000 -10.68000031 1.1499999762 1.1900000572 1.0499999523
 4536.0000000 4536.0000000 -12.25000000 1.2300000191 1.2000000477 1.0700000525
 4537.0000000 4537.0000000 -12.98999977 1.2999999523 1.2400000095 1.0900000334
 4538.0000000 4538.0000000 -12.81999969 1.2999999523 1.3099999428 1.1100000143
 4539.0000000 4539.0000000 -11.86999989 1.2999999523 1.3600000143 1.1000000238
 4540.0000000 4540.0000000 -11.05000019 1.3099999428 1.4199999571 1.0900000334
 4541.0000000 4541.0000000 -10.35999966 1.3600000143 1.4600000381 1.0800000429
 4542.0000000 4542.0000000 -9.689999580 1.4099999666 1.4600000381 1.1200000048
 4543.0000000 4543.0000000 -9.289999962 1.4400000572 1.4500000477 1.2000000477
 4544.0000000 4544.0000000 -8.880000114 1.4400000572 1.4600000381 1.2400000095
 4545.0000000 4545.0000000 -8.479999542 1.4400000572 1.4800000191 1.2400000095
 4546.0000000 4546.0000000 -8.300000191 1.4400000572 1.4900000095 1.2000000477
 4547.0000000 4547.0000000 -8.369999886 1.4400000572 1.4800000191 1.2100000381
 4548.0000000 4548.0000000 -8.560000420 1.4400000572 1.4900000095 1.1799999475
 4549.0000000 4549.0000000 -8.829999924 1.4500000477 1.5099999905 1.1599999666
 4550.0000000 4550.0000000 -9.020000458 1.4600000381 1.5199999809 1.1699999571
 4551.0000000 4551.0000000 -9.149999619 1.4800000191 1.5199999809 1.1799999475
