# LAS format log file from PETREL
# Project units are specified as depth units
#==================================================================
~Version information
VERS.   2.0:
WRAP.   NO:
#==================================================================
~Well
STRT .m      4450.0000000 :
STOP .m      7050.0000000 :
STEP .m     1.00000000 :
NULL .        -999.250000 :
COMP.           : COMPANY
WELL.  WELL_4   : WELL
FLD.            : FIELD
LOC.            : LOCATION
SRVC.           : SERVICE COMPANY
DATE.  2023-03-20 17:52:46   : Log Export Date {yyyy-MM-dd HH:mm:ss}
PROV.           : PROVINCE
UWI.   WELL_4   : UNIQUE WELL ID
API.            : API NUMBER
#==================================================================
~Curve
DEPT .m                   : DEPTH
Depth .m                  : Depth
SP .mV                    : SP
SN .ohm.m                 : SN
LN .ohm.m                 : LN
LAT .ohm.m                : LAT
~Parameter
#==================================================================
~Ascii
# ...
 6796.0000000 6796.0000000 -5.019999981 1.6499999762 1.7999999523 1.6799999475
 6797.0000000 6797.0000000 -5.269999981 1.8400000334 1.7799999714 1.8200000525
 6798.0000000 6798.0000000 -5.719999790 2.0099999905 1.7500000000 2.0899999142
 6799.0000000 6799.0000000 -5.940000057 2.1300001144 1.7999999523 2.2799999714
 6800.0000000 6800.0000000 -5.760000229 2.1900000572 1.9400000572 2.4900000095
 6801.0000000 6801.0000000 -5.369999886 2.2100000381 2.1300001144 2.4700000286
 6802.0000000 6802.0000000 -5.250000000 2.2500000000 2.2100000381 2.2500000000
 6803.0000000 6803.0000000 -5.820000172 2.3800001144 2.1900000572 2.1700000763
 6804.0000000 6804.0000000 -6.409999847 2.6199998856 2.0899999142 2.4800000191
 6805.0000000 6805.0000000 -6.730000019 2.7300000191 1.9800000191 2.7699999809
 6806.0000000 6806.0000000 -6.659999847 2.5699999332 1.9400000572 2.8499999046
 6807.0000000 6807.0000000 -6.679999828 2.3900001049 1.9900000095 2.6099998951
 6808.0000000 6808.0000000 -6.909999847 2.2500000000 2.0499999523 2.4000000954
 6809.0000000 6809.0000000 -6.889999866 2.1199998856 2.0699999332 2.2799999714
 6810.0000000 6810.0000000 -6.440000057 2.0499999523 2.0499999523 2.1900000572
 6811.0000000 6811.0000000 -6.239999771 2.0499999523 2.0199999809 2.0699999332
 6812.0000000 6812.0000000 -6.289999962 2.0999999046 2.0299999714 1.9800000191
 6813.0000000 6813.0000000 -6.469999790 2.1900000572 1.9900000095 1.9400000572
 6814.0000000 6814.0000000 -7.199999809 2.3099999428 1.9400000572 1.9900000095
 6815.0000000 6815.0000000 -8.020000458 2.4700000286 1.8899999857 2.1600000858
 6816.0000000 6816.0000000 -8.239999771 2.5299999714 1.8400000334 2.3599998951
 6817.0000000 6817.0000000 -8.069999695 2.4800000191 1.8899999857 2.4300000668
 6818.0000000 6818.0000000 -7.769999981 2.3900001049 1.8899999857 2.4600000381
 6819.0000000 6819.0000000 -7.500000000 2.3800001144 1.7400000095 2.5199999809
 6820.0000000 6820.0000000 -7.699999809 2.4100000858 1.5599999428 2.6900000572
 6821.0000000 6821.0000000 -7.800000191 2.4600000381 1.3999999762 3.0000000000
 6822.0000000 6822.0000000 -7.369999886 2.1800000668 1.3200000525 3.0699999332
 6823.0000000 6823.0000000 -6.469999790 1.7599999905 1.3700000048 2.7400000095
 6824.0000000 6824.0000000 -5.780000210 1.4700000286 1.4099999666 2.3599998951
 6825.0000000 6825.0000000 -5.409999847 1.2899999619 1.3899999857 1.8700000048
 6826.0000000 6826.0000000 -5.349999905 1.1799999475 1.3400000334 1.6000000238
 6827.0000000 6827.0000000 -5.460000038 1.1200000048 1.2999999523 1.4700000286
 6828.0000000 6828.0000000 -5.519999981 1.0800000429 1.2500000000 1.3400000334
 6829.0000000 6829.0000000 -5.210000038 1.0599999428 1.2000000477 1.2200000286
 6830.0000000 6830.0000000 -4.840000153 1.0299999714 1.1599999666 1.1900000572
 6831.0000000 6831.0000000 -4.639999866 1.0299999714 1.1499999762 1.1900000572
 6832.0000000 6832.0000000 -4.579999924 1.0299999714 1.2100000381 1.1499999762
 6833.0000000 6833.0000000 -4.690000057 1.0299999714 1.3099999428 1.0199999809
 6834.0000000 6834.0000000 -5.309999943 1.0700000525 1.3799999952 0.9399999976
 6835.0000000 6835.0000000 -6.599999905 1.2699999809 1.3999999762 0.9300000072
 6836.0000000 6836.0000000 -8.369999886 1.6100000143 1.3700000048 1.0099999905
 6837.0000000 6837.0000000 -9.529999733 1.9900000095 1.3500000238 1.2999999523
 6838.0000000 6838.0000000 -9.510000229 2.2000000477 1.3899999857 1.5599999428
 6839.0000000 6839.0000000 -8.609999657 2.1099998951 1.5700000525 1.7100000381
 6840.0000000 6840.0000000 -7.780000210 1.9900000095 1.7999999523 1.7599999905
 6841.0000000 6841.0000000 -7.710000038 1.9900000095 2.0199999809 1.6900000572
 6842.0000000 6842.0000000 -8.619999886 2.1300001144 2.1400001049 1.6799999475
 6843.0000000 6843.0000000 -10.26000023 2.4300000668 2.1199998856 1.7799999714
 6844.0000000 6844.0000000 -11.48999977 2.9200000763 1.9500000477 2.0299999714
 6845.0000000 6845.0000000 -12.39999962 3.4600000381 1.7000000477 2.7400000095
 6846.0000000 6846.0000000 -12.81000042 3.7300000191 1.5099999905 3.3599998951
 6847.0000000 6847.0000000 -12.10999966 3.4000000954 1.4199999571 3.8299999237
 6848.0000000 6848.0000000 -10.30000019 2.7500000000 1.4800000191 3.5899999142
 6849.0000000 6849.0000000 -8.149999619 2.1500000954 1.5299999714 2.8399999142
 6850.0000000 6850.0000000 -6.409999847 1.7200000286 1.5499999523 2.1199998856
 6851.0000000 6851.0000000 -5.409999847 1.5199999809 1.5299999714 1.6799999475
 6852.0000000 6852.0000000 -4.980000019 1.3899999857 1.4900000095 1.3300000429
 6853.0000000 6853.0000000 -4.909999847 1.2999999523 1.4400000572 1.1000000238
 6854.0000000 6854.0000000 -5.070000172 1.2599999905 1.3899999857 1.0099999905
 6855.0000000 6855.0000000 -5.079999924 1.2599999905 1.3500000238 0.9599999785
 6856.0000000 6856.0000000 -5.179999828 1.2899999619 1.3200000525 0.9399999976
 6857.0000000 6857.0000000 -5.309999943 1.3400000334 1.2999999523 1.0000000000
 6858.0000000 6858.0000000 -5.280000210 1.3999999762 1.2699999809 1.0900000334
 6859.0000000 6859.0000000 -5.269999981 1.4400000572 1.2500000000 1.1699999571
 6860.0000000 6860.0000000 -5.639999866 1.4500000477 1.2200000286 1.1900000572
 6861.0000000 6861.0000000 -6.659999847 1.4299999475 1.2000000477 1.1599999666
 6862.0000000 6862.0000000 -7.690000057 1.4500000477 1.1599999666 1.2500000000
 6863.0000000 6863.0000000 -8.189999580 1.5099999905 1.1100000143 1.4800000191
 6864.0000000 6864.0000000 -8.449999809 1.4900000095 1.0399999619 1.6599999666
 6865.0000000 6865.0000000 -8.189999580 1.4099999666 1.0199999809 1.7699999809
 6866.0000000 6866.0000000 -7.599999905 1.3200000525 1.0199999809 1.8500000238
 6867.0000000 6867.0000000 -6.960000038 1.2599999905 1.0099999905 1.8799999952
 6868.0000000 6868.0000000 -6.329999924 1.2400000095 1.0000000000 1.8600000143
 6869.0000000 6869.0000000 -5.860000134 1.2200000286 0.9700000286 1.7999999523
 6870.0000000 6870.0000000 -5.360000134 1.2000000477 0.9300000072 1.7100000381
 6871.0000000 6871.0000000 -5.139999866 1.1399999857 0.8899999857 1.6100000143
 6872.0000000 6872.0000000 -5.309999943 1.0499999523 0.8799999952 1.5399999619
 6873.0000000 6873.0000000 -5.570000172 0.9900000095 0.8700000048 1.4700000286
 6874.0000000 6874.0000000 -5.789999962 0.9499999881 0.8799999952 1.3799999952
 6875.0000000 6875.0000000 -5.940000057 0.9499999881 0.8999999762 1.2300000191
 6876.0000000 6876.0000000 -6.050000191 0.9499999881 0.9200000167 1.1100000143
 6877.0000000 6877.0000000 -6.159999847 0.9599999785 0.9300000072 1.0499999523
 6878.0000000 6878.0000000 -6.210000038 0.9599999785 0.9200000167 1.0499999523
 6879.0000000 6879.0000000 -6.250000000 0.9700000286 0.9100000262 1.0399999619
 6880.0000000 6880.0000000 -6.289999962 0.9700000286 0.8999999762 1.0299999714
 6881.0000000 6881.0000000 -6.269999981 0.9700000286 0.8700000048 1.0700000525
 6882.0000000 6882.0000000 -6.159999847 1.0000000000 0.8399999738 1.1200000048
 6883.0000000 6883.0000000 -6.030000210 1.0000000000 0.8199999928 1.1399999857
 6884.0000000 6884.0000000 -5.989999771 0.9100000262 0.8199999928 1.1399999857
 6885.0000000 6885.0000000 -6.360000134 0.8700000048 0.8399999738 1.1200000048
 6886.0000000 6886.0000000 -6.900000095 0.9100000262 0.8799999952 1.0599999428
 6887.0000000 6887.0000000 -8.109999657 0.9900000095 0.9300000072 0.9800000191
 6888.0000000 6888.0000000 -10.68999958 1.1200000048 0.9900000095 0.9399999976
 6889.0000000 6889.0000000 -15.01000023 1.4700000286 1.0599999428 0.9300000072
 6890.0000000 6890.0000000 -21.65999985 1.9700000286 1.1399999857 0.9599999785
 6891.0000000 6891.0000000 -27.65999985 2.5799999237 1.2300000191 1.0199999809
 6892.0000000 6892.0000000 -30.78000069 3.0399999619 1.3200000525 1.1100000143
 6893.0000000 6893.0000000 -31.20000076 3.1199998856 1.3999999762 1.1900000572
 6894.0000000 6894.0000000 -29.55999947 2.9300000668 1.4099999666 1.2699999809
 6895.0000000 6895.0000000 -25.20000076 2.5000000000 1.2999999523 1.3600000143
 6896.0000000 6896.0000000 -19.70000076 2.0099999905 1.1699999571 1.4400000572
 6897.0000000 6897.0000000 -12.64999962 1.6000000238 1.1599999666 1.5000000000
