# LAS format log file from PETREL
# Project units are specified as depth units
#==================================================================
~Version information
VERS.   2.0:
WRAP.   NO:
#==================================================================
~Well
STRT .m      3000.0000000 :
STOP .m      6457.0000000 :
STEP .m     1.00000000 :
NULL .        -999.250000 :
COMP.           : COMPANY
WELL.  WELL_1   : WELL
FLD.            : FIELD
LOC.            : LOCATION
SRVC.           : SERVICE COMPANY
DATE.  2023-03-20 17:52:46   : Log Export Date {yyyy-MM-dd HH:mm:ss}
PROV.           : PROVINCE
UWI.   WELL_1   : UNIQUE WELL ID
API.            : API NUMBER
#==================================================================
~Curve
DEPT .m                   : DEPTH
Depth .m                  : Depth
SP .mV                    : SP
SN .ohm.m                 : SN
LN .ohm.m                 : LN
~Parameter
#==================================================================
~Ascii
# ...
 5806.0000000 5806.0000000 8.0000000000 1.7999999523 1.9400000572
 5807.0000000 5807.0000000 8.1999998093 1.8899999857 1.7899999619
 5808.0000000 5808.0000000 8.3999996185 1.9700000286 1.6900000572
 5809.0000000 5809.0000000 8.6700000763 2.0199999809 1.6599999666
 5810.0000000 5810.0000000 8.9600000381 2.0699999332 1.7400000095
 5811.0000000 5811.0000000 9.2500000000 1.9600000381 1.7999999523
 5812.0000000 5812.0000000 9.5399999619 1.8300000429 1.7799999714
 5813.0000000 5813.0000000 9.8199996948 1.7100000381 1.7599999905
 5814.0000000 5814.0000000 10.100000381 1.6000000238 1.7300000191
 5815.0000000 5815.0000000 10.380000114 1.4800000191 1.6900000572
 5816.0000000 5816.0000000 10.659999847 1.4900000095 1.6599999666
 5817.0000000 5817.0000000 10.840000153 1.5299999714 1.7000000477
 5818.0000000 5818.0000000 11.020000458 1.6499999762 1.8400000334
 5819.0000000 5819.0000000 11.210000038 1.7599999905 2.0599999428
 5820.0000000 5820.0000000 11.140000343 1.8700000048 2.3399999142
 5821.0000000 5821.0000000 10.970000267 1.8099999428 2.3900001049
 5822.0000000 5822.0000000 10.800000191 1.7400000095 2.2699999809
 5823.0000000 5823.0000000 10.649999619 1.6599999666 2.0899999142
 5824.0000000 5824.0000000 10.640000343 1.5399999619 1.8899999857
 5825.0000000 5825.0000000 10.630000114 1.5399999619 1.6699999571
 5826.0000000 5826.0000000 10.800000191 1.5700000525 1.4700000286
 5827.0000000 5827.0000000 10.970000267 1.6000000238 1.3999999762
 5828.0000000 5828.0000000 11.140000343 1.6200000048 1.3300000429
 5829.0000000 5829.0000000 11.260000229 1.6399999857 1.3400000334
 5830.0000000 5830.0000000 11.090000153 1.6499999762 1.3899999857
 5831.0000000 5831.0000000 10.920000076 1.7000000477 1.4400000572
 5832.0000000 5832.0000000 10.750000000 1.7599999905 1.4800000191
 5833.0000000 5833.0000000 10.600000381 1.8200000525 1.5099999905
 5834.0000000 5834.0000000 10.439999580 1.8799999952 1.5399999619
 5835.0000000 5835.0000000 10.289999962 1.9299999475 1.5700000525
 5836.0000000 5836.0000000 10.340000153 1.9800000191 1.5900000334
 5837.0000000 5837.0000000 10.500000000 1.9600000381 1.5800000429
 5838.0000000 5838.0000000 10.649999619 1.8600000143 1.5700000525
 5839.0000000 5839.0000000 11.020000458 1.7699999809 1.6000000238
 5840.0000000 5840.0000000 10.199999809 2.1099998951 1.7400000095
 5841.0000000 5841.0000000 9.3000001907 2.4800000191 1.8999999762
 5842.0000000 5842.0000000 9.0399999619 2.2500000000 2.0199999809
 5843.0000000 5843.0000000 10.210000038 2.0000000000 1.8799999952
 5844.0000000 5844.0000000 11.369999886 1.7500000000 1.7500000000
 5845.0000000 5845.0000000 11.960000038 1.5099999905 1.6100000143
 5846.0000000 5846.0000000 12.260000229 1.5199999809 1.5900000334
 5847.0000000 5847.0000000 11.750000000 1.8200000525 1.6399999857
 5848.0000000 5848.0000000 11.229999542 2.0999999046 1.7000000477
 5849.0000000 5849.0000000 10.619999886 2.3900001049 1.7500000000
 5850.0000000 5850.0000000 10.439999580 2.4000000954 1.7999999523
 5851.0000000 5851.0000000 10.750000000 2.3299999237 1.7300000191
 5852.0000000 5852.0000000 11.069999695 2.1500000954 1.6599999666
 5853.0000000 5853.0000000 11.380000114 1.9700000286 1.5900000334
 5854.0000000 5854.0000000 11.529999733 1.9800000191 1.5199999809
 5855.0000000 5855.0000000 11.579999924 2.0099999905 1.5399999619
 5856.0000000 5856.0000000 11.640000343 2.0499999523 1.6000000238
 5857.0000000 5857.0000000 11.119999886 2.0899999142 1.6599999666
 5858.0000000 5858.0000000 10.170000076 2.2300000191 1.7400000095
 5859.0000000 5859.0000000 8.2799997330 2.4400000572 1.8300000429
 5860.0000000 5860.0000000 6.1700000763 3.1300001144 1.9199999571
 5861.0000000 5861.0000000 2.9800000191 5.7300000191 2.0499999523
 5862.0000000 5862.0000000 -0.699999988 6.3499999046 2.2599999905
 5863.0000000 5863.0000000 -3.529999971 6.6100001335 2.4700000286
 5864.0000000 5864.0000000 -4.210000038 6.7800002098 2.7999999523
 5865.0000000 5865.0000000 -4.199999809 6.7199997902 3.0799999237
 5866.0000000 5866.0000000 -4.039999962 6.2399997711 2.9900000095
 5867.0000000 5867.0000000 -2.339999914 4.9499998093 2.7000000477
 5868.0000000 5868.0000000 1.7899999619 3.7200000286 2.4600000381
 5869.0000000 5869.0000000 6.9499998093 2.7599999905 2.2699999809
 5870.0000000 5870.0000000 10.359999657 1.8899999857 2.0699999332
 5871.0000000 5871.0000000 10.970000267 1.9800000191 2.0099999905
 5872.0000000 5872.0000000 10.130000114 2.0899999142 2.0399999619
 5873.0000000 5873.0000000 9.3000001907 1.9400000572 2.0299999714
 5874.0000000 5874.0000000 9.1499996185 1.8099999428 1.8999999762
 5875.0000000 5875.0000000 10.189999580 1.7100000381 1.7699999809
 5876.0000000 5876.0000000 10.970000267 1.6200000048 1.6200000048
 5877.0000000 5877.0000000 10.859999657 1.6699999571 1.6900000572
 5878.0000000 5878.0000000 10.739999771 1.8999999762 1.9500000477
 5879.0000000 5879.0000000 10.359999657 2.2400000095 2.1300001144
 5880.0000000 5880.0000000 9.8599996567 2.5199999809 2.2699999809
 5881.0000000 5881.0000000 9.5000000000 2.3599998951 2.2599999905
 5882.0000000 5882.0000000 9.7600002289 2.2400000095 2.2400000095
 5883.0000000 5883.0000000 10.010000229 2.1199998856 2.1700000763
 5884.0000000 5884.0000000 10.289999962 2.0000000000 2.1099998951
 5885.0000000 5885.0000000 10.760000229 2.2999999523 2.0000000000
 5886.0000000 5886.0000000 11.239999771 2.2699999809 1.8999999762
 5887.0000000 5887.0000000 11.579999924 2.0099999905 1.7699999809
 5888.0000000 5888.0000000 11.779999733 1.8200000525 1.6399999857
 5889.0000000 5889.0000000 11.989999771 1.8500000238 1.5000000000
 5890.0000000 5890.0000000 11.989999771 2.0000000000 1.4400000572
 5891.0000000 5891.0000000 11.770000458 2.1600000858 1.4099999666
 5892.0000000 5892.0000000 11.550000191 2.3099999428 1.5299999714
 5893.0000000 5893.0000000 11.130000114 2.5000000000 1.6399999857
 5894.0000000 5894.0000000 10.649999619 2.7400000095 1.7999999523
 5895.0000000 5895.0000000 10.170000076 2.9800000191 1.9900000095
 5896.0000000 5896.0000000 9.4899997711 3.2500000000 1.8999999762
 5897.0000000 5897.0000000 8.7399997711 3.5499999523 1.7899999619
 5898.0000000 5898.0000000 8.0900001526 3.8699998856 1.7200000286
 5899.0000000 5899.0000000 7.5100002289 4.3200001717 1.8200000525
 5900.0000000 5900.0000000 6.9400000572 4.8000001907 2.0699999332
 5901.0000000 5901.0000000 5.8000001907 5.3299999237 2.3099999428
 5902.0000000 5902.0000000 3.1400001049 6.5100002289 2.5199999809
 5903.0000000 5903.0000000 -0.980000019 8.1099996567 2.7699999809
 5904.0000000 5904.0000000 -3.230000019 8.5200004578 3.0499999523
 5905.0000000 5905.0000000 -4.739999771 8.2700004578 2.9900000095
 5906.0000000 5906.0000000 -6.010000229 7.9400000572 2.9100000858
 5907.0000000 5907.0000000 -7.079999924 7.5599999428 2.8399999142
 5908.0000000 5908.0000000 -6.840000153 7.1500000954 2.7599999905
 5909.0000000 5909.0000000 -5.449999809 6.9600000381 2.7699999809
 5910.0000000 5910.0000000 -4.199999809 7.2899999619 2.9800000191
 5911.0000000 5911.0000000 -3.940000057 7.7100000381 3.1400001049
 5912.0000000 5912.0000000 -3.460000038 7.4499998093 3.0799999237
 5913.0000000 5913.0000000 -2.579999924 6.3699998856 3.0099999905
 5914.0000000 5914.0000000 -1.299999952 5.4000000954 2.9500000477
 5915.0000000 5915.0000000 -0.129999995 5.0799999237 2.9100000858
 5916.0000000 5916.0000000 -0.389999986 4.9099998474 2.9600000381
 5917.0000000 5917.0000000 -0.490000010 4.7300000191 3.0499999523
 5918.0000000 5918.0000000 -0.589999974 4.4699997902 3.1600000858
 5919.0000000 5919.0000000 1.0399999619 4.0999999046 3.2699999809
 5920.0000000 5920.0000000 3.7200000286 3.7300000191 3.3199999332
 5921.0000000 5921.0000000 5.4299998283 3.3499999046 3.2999999523
 5922.0000000 5922.0000000 6.3899998665 3.0000000000 3.1900000572
 5923.0000000 5923.0000000 6.8400001526 2.7000000477 3.0599999428
 5924.0000000 5924.0000000 7.2500000000 2.4400000572 2.9300000668
 5925.0000000 5925.0000000 7.5599999428 2.3099999428 2.7999999523
 5926.0000000 5926.0000000 7.8699998856 2.1700000763 2.6800000668
 5927.0000000 5927.0000000 8.1700000763 2.0399999619 2.5699999332
