# LAS format log file from PETREL
# Project units are specified as depth units
#==================================================================
~Version information
VERS.   2.0:
WRAP.   NO:
#==================================================================
~Well
STRT .m      4561.0000000 :
STOP .m      7034.0000000 :
STEP .m     1.00000000 :
NULL .        -999.250000 :
COMP.           : COMPANY
WELL.  WELL_5   : WELL
FLD.            : FIELD
LOC.            : LOCATION
SRVC.           : SERVICE COMPANY
DATE.  2023-03-20 17:52:46   : Log Export Date {yyyy-MM-dd HH:mm:ss}
PROV.           : PROVINCE
UWI.   WELL_5   : UNIQUE WELL ID
API.            : API NUMBER
#==================================================================
~Curve
DEPT .m                   : DEPTH
Depth .m                  : Depth
SN .ohm.m                 : SN
ILD .ohm.m                : ILD
~Parameter
#==================================================================
~Ascii
# ...
 5316.0000000 5316.0000000 2.8199999332 2.1300001144
 5317.0000000 5317.0000000 2.6800000668 2.1300001144
 5318.0000000 5318.0000000 2.6800000668 2.1600000858
 5319.0000000 5319.0000000 2.8399999142 2.2000000477
 5320.0000000 5320.0000000 3.0499999523 2.2899999619
 5321.0000000 5321.0000000 3.2000000477 2.4400000572
 5322.0000000 5322.0000000 3.2000000477 2.5999999046
 5323.0000000 5323.0000000 3.4600000381 2.7500000000
 5324.0000000 5324.0000000 3.9700000286 2.9000000954
 5325.0000000 5325.0000000 4.4600000381 3.1800000668
 5326.0000000 5326.0000000 4.5900001526 3.4800000191
 5327.0000000 5327.0000000 4.7100000381 3.6199998856
 5328.0000000 5328.0000000 4.9699997902 3.8199999332
 5329.0000000 5329.0000000 5.2399997711 4.0599999428
 5330.0000000 5330.0000000 5.5300002098 3.5299999714
 5331.0000000 5331.0000000 5.2100000381 2.8599998951
 5332.0000000 5332.0000000 4.0900001526 2.4000000954
 5333.0000000 5333.0000000 2.8299999237 2.0099999905
 5334.0000000 5334.0000000 2.5099999905 1.7799999714
 5335.0000000 5335.0000000 2.4000000954 1.7599999905
 5336.0000000 5336.0000000 2.3499999046 1.7799999714
 5337.0000000 5337.0000000 2.3699998856 1.8300000429
 5338.0000000 5338.0000000 2.3900001049 1.8600000143
 5339.0000000 5339.0000000 2.3900001049 1.8899999857
 5340.0000000 5340.0000000 2.3599998951 1.8999999762
 5341.0000000 5341.0000000 2.2999999523 1.8500000238
 5342.0000000 5342.0000000 2.2400000095 1.7599999905
 5343.0000000 5343.0000000 2.1700000763 1.6599999666
 5344.0000000 5344.0000000 2.0899999142 1.6000000238
 5345.0000000 5345.0000000 2.0399999619 1.6000000238
 5346.0000000 5346.0000000 2.1199998856 1.7500000000
 5347.0000000 5347.0000000 2.3399999142 1.9199999571
 5348.0000000 5348.0000000 2.6099998951 2.1400001049
 5349.0000000 5349.0000000 2.9200000763 2.3399999142
 5350.0000000 5350.0000000 3.1700000763 2.4800000191
 5351.0000000 5351.0000000 3.3199999332 2.5499999523
 5352.0000000 5352.0000000 3.4600000381 2.6600000858
 5353.0000000 5353.0000000 3.6900000572 2.7599999905
 5354.0000000 5354.0000000 3.9000000954 2.8499999046
 5355.0000000 5355.0000000 4.0700001717 3.0299999714
 5356.0000000 5356.0000000 4.4899997711 3.3299999237
 5357.0000000 5357.0000000 5.3600001335 3.7599999905
 5358.0000000 5358.0000000 6.2600002289 4.3499999046
 5359.0000000 5359.0000000 7.8600001335 4.9400000572
 5360.0000000 5360.0000000 8.4700002670 5.3400001526
 5361.0000000 5361.0000000 8.5600004196 5.0900001526
 5362.0000000 5362.0000000 8.3999996185 4.8499999046
 5363.0000000 5363.0000000 8.1000003815 4.6900000572
 5364.0000000 5364.0000000 7.9400000572 4.7300000191
 5365.0000000 5365.0000000 8.1599998474 4.9400000572
 5366.0000000 5366.0000000 8.3999996185 5.2199997902
 5367.0000000 5367.0000000 8.2200002670 5.3600001335
 5368.0000000 5368.0000000 7.3099999428 4.2100000381
 5369.0000000 5369.0000000 5.8099999428 3.6700000763
 5370.0000000 5370.0000000 3.8800001144 3.1400001049
 5371.0000000 5371.0000000 2.9900000095 2.5000000000
 5372.0000000 5372.0000000 2.5499999523 2.0799999237
 5373.0000000 5373.0000000 2.2999999523 1.7599999905
 5374.0000000 5374.0000000 2.0999999046 1.5700000525
 5375.0000000 5375.0000000 1.9600000381 1.4500000477
 5376.0000000 5376.0000000 1.8400000334 1.3899999857
 5377.0000000 5377.0000000 1.8099999428 1.3899999857
 5378.0000000 5378.0000000 1.9099999666 1.4600000381
 5379.0000000 5379.0000000 2.0399999619 1.6499999762
 5380.0000000 5380.0000000 2.2200000286 1.8700000048
 5381.0000000 5381.0000000 2.3199999332 2.0399999619
 5382.0000000 5382.0000000 2.3699998856 2.0899999142
 5383.0000000 5383.0000000 2.3699998856 1.9299999475
 5384.0000000 5384.0000000 2.2699999809 1.7699999809
 5385.0000000 5385.0000000 2.0599999428 1.6499999762
 5386.0000000 5386.0000000 1.9500000477 1.5700000525
 5387.0000000 5387.0000000 1.9199999571 1.5199999809
 5388.0000000 5388.0000000 1.9299999475 1.5099999905
 5389.0000000 5389.0000000 1.9700000286 1.5700000525
 5390.0000000 5390.0000000 2.0199999809 1.6599999666
 5391.0000000 5391.0000000 2.0899999142 1.7799999714
 5392.0000000 5392.0000000 2.1900000572 1.8899999857
 5393.0000000 5393.0000000 2.2799999714 1.9900000095
 5394.0000000 5394.0000000 2.3199999332 2.0699999332
 5395.0000000 5395.0000000 2.3499999046 2.0899999142
 5396.0000000 5396.0000000 2.3499999046 1.9800000191
 5397.0000000 5397.0000000 2.2999999523 1.8600000143
 5398.0000000 5398.0000000 2.2100000381 1.8099999428
 5399.0000000 5399.0000000 2.1700000763 1.7999999523
 5400.0000000 5400.0000000 2.1800000668 1.8400000334
 5401.0000000 5401.0000000 2.2699999809 1.9299999475
 5402.0000000 5402.0000000 2.3699998856 2.0099999905
 5403.0000000 5403.0000000 2.4500000477 2.0799999237
 5404.0000000 5404.0000000 2.5199999809 2.0999999046
 5405.0000000 5405.0000000 2.5899999142 2.0999999046
 5406.0000000 5406.0000000 2.6600000858 2.1400001049
 5407.0000000 5407.0000000 2.7999999523 2.2599999905
 5408.0000000 5408.0000000 3.0399999619 2.4300000668
 5409.0000000 5409.0000000 3.3900001049 2.6600000858
 5410.0000000 5410.0000000 3.6099998951 2.8099999428
 5411.0000000 5411.0000000 3.4700000286 2.7999999523
 5412.0000000 5412.0000000 3.1199998856 2.7000000477
 5413.0000000 5413.0000000 2.9100000858 2.4600000381
 5414.0000000 5414.0000000 2.7599999905 2.1199998856
 5415.0000000 5415.0000000 2.4500000477 1.7599999905
 5416.0000000 5416.0000000 2.0699999332 1.5499999523
 5417.0000000 5417.0000000 1.8400000334 1.3799999952
 5418.0000000 5418.0000000 1.7400000095 1.3400000334
 5419.0000000 5419.0000000 1.7100000381 1.3600000143
 5420.0000000 5420.0000000 1.7500000000 1.4299999475
 5421.0000000 5421.0000000 1.8500000238 1.5700000525
 5422.0000000 5422.0000000 1.9900000095 1.7100000381
 5423.0000000 5423.0000000 2.1199998856 1.8700000048
 5424.0000000 5424.0000000 2.2000000477 1.9199999571
 5425.0000000 5425.0000000 2.1600000858 1.8200000525
 5426.0000000 5426.0000000 1.8600000143 1.5299999714
 5427.0000000 5427.0000000 1.6599999666 1.3300000429
 5428.0000000 5428.0000000 1.5800000429 1.2200000286
 5429.0000000 5429.0000000 1.5399999619 1.1900000572
 5430.0000000 5430.0000000 1.5599999428 1.2599999905
 5431.0000000 5431.0000000 1.6100000143 1.3600000143
 5432.0000000 5432.0000000 1.7100000381 1.5000000000
 5433.0000000 5433.0000000 1.8200000525 1.6399999857
 5434.0000000 5434.0000000 1.9600000381 1.7599999905
 5435.0000000 5435.0000000 2.0899999142 1.8799999952
 5436.0000000 5436.0000000 2.1800000668 1.9500000477
 5437.0000000 5437.0000000 2.1800000668 1.9400000572
 5438.0000000 5438.0000000 2.1199998856 1.7999999523
 5439.0000000 5439.0000000 1.9299999475 1.6200000048
 5440.0000000 5440.0000000 1.7300000191 1.4600000381
 5441.0000000 5441.0000000 1.6100000143 1.3500000238
 5442.0000000 5442.0000000 1.5800000429 1.2899999619
 5443.0000000 5443.0000000 1.5599999428 1.2599999905
 5444.0000000 5444.0000000 1.5599999428 1.2699999809
 5445.0000000 5445.0000000 1.5700000525 1.2899999619
 5446.0000000 5446.0000000 1.5700000525 1.3099999428
 5447.0000000 5447.0000000 1.5700000525 1.3300000429
 5448.0000000 5448.0000000 1.6100000143 1.3700000048
 5449.0000000 5449.0000000 1.6599999666 1.4700000286
 5450.0000000 5450.0000000 1.7200000286 1.5900000334
 5451.0000000 5451.0000000 1.7999999523 1.6499999762
 5452.0000000 5452.0000000 1.8600000143 1.6200000048
 5453.0000000 5453.0000000 1.8600000143 1.5299999714
 5454.0000000 5454.0000000 1.7599999905 1.3799999952
 5455.0000000 5455.0000000 1.6599999666 1.2999999523
 5456.0000000 5456.0000000 1.5800000429 1.2200000286
 5457.0000000 5457.0000000 1.5299999714 1.1799999475
 5458.0000000 5458.0000000 1.5499999523 1.2100000381
 5459.0000000 5459.0000000 1.6100000143 1.3400000334
 5460.0000000 5460.0000000 1.8099999428 1.5599999428
 5461.0000000 5461.0000000 2.2799999714 2.0899999142
 5462.0000000 5462.0000000 3.2799999714 2.8099999428
 5463.0000000 5463.0000000 4.5599999428 3.5299999714
 5464.0000000 5464.0000000 5.4499998093 4.3699998856
 5465.0000000 5465.0000000 6.7300000191 5.0000000000
 5466.0000000 5466.0000000 7.5500001907 5.2500000000
