# LAS format log file from PETREL
# Project units are specified as depth units
#==================================================================
~Version information
VERS.   2.0:
WRAP.   NO:
#==================================================================
~Well
STRT .m      4650.0000000 :
STOP .m      7050.0000000 :
STEP .m     1.00000000 :
NULL .        -999.250000 :
COMP.           : COMPANY
WELL.  WELL_3   : WELL
FLD.            : FIELD
LOC.            : LOCATION
SRVC.           : SERVICE COMPANY
DATE.  2023-03-20 17:52:46   : Log Export Date {yyyy-MM-dd HH:mm:ss}
PROV.           : PROVINCE
UWI.   WELL_3   : UNIQUE WELL ID
API.            : API NUMBER
#==================================================================
~Curve
DEPT .m                   : DEPTH
Depth .m                  : Depth
SP .mV                    : SP
SN .ohm.m                 : SN
LN .ohm.m                 : LN
LAT .ohm.m                : LAT
~Parameter
#==================================================================
~Ascii
# ...
 6180.0000000 6180.0000000 -5.079999924 1.4199999571 1.8500000238 1.9700000286
 6181.0000000 6181.0000000 -5.130000114 1.5199999809 1.7400000095 2.1400001049
 6182.0000000 6182.0000000 -5.190000057 1.6399999857 1.6699999571 2.4800000191
 6183.0000000 6183.0000000 -5.230000019 1.5700000525 1.6399999857 2.7599999905
 6184.0000000 6184.0000000 -5.170000076 1.4099999666 1.6399999857 2.7999999523
 6185.0000000 6185.0000000 -5.039999962 1.2899999619 1.6599999666 2.5599999428
 6186.0000000 6186.0000000 -4.989999771 1.2200000286 1.6499999762 2.2100000381
 6187.0000000 6187.0000000 -5.119999886 1.2100000381 1.6299999952 2.0899999142
 6188.0000000 6188.0000000 -5.380000114 1.2200000286 1.5900000334 2.0099999905
 6189.0000000 6189.0000000 -5.510000229 1.2400000095 1.5399999619 1.9700000286
 6190.0000000 6190.0000000 -5.489999771 1.2400000095 1.5000000000 1.9600000381
 6191.0000000 6191.0000000 -5.210000038 1.2200000286 1.4700000286 1.9299999475
 6192.0000000 6192.0000000 -4.880000114 1.1799999475 1.4299999475 1.9600000381
 6193.0000000 6193.0000000 -4.719999790 1.1699999571 1.3999999762 2.0099999905
 6194.0000000 6194.0000000 -4.710000038 1.1599999666 1.3899999857 2.0399999619
 6195.0000000 6195.0000000 -4.739999771 1.1599999666 1.3899999857 1.9900000095
 6196.0000000 6196.0000000 -4.659999847 1.1699999571 1.4199999571 1.8600000143
 6197.0000000 6197.0000000 -4.670000076 1.1799999475 1.4700000286 1.7400000095
 6198.0000000 6198.0000000 -4.699999809 1.2200000286 1.5000000000 1.6599999666
 6199.0000000 6199.0000000 -4.539999962 1.2999999523 1.3999999762 1.6499999762
 6200.0000000 6200.0000000 -4.809999943 1.3999999762 1.3200000525 1.7300000191
 6201.0000000 6201.0000000 -5.090000153 1.3899999857 1.2999999523 1.9099999666
 6202.0000000 6202.0000000 -4.780000210 1.3099999428 1.3300000429 2.0799999237
 6203.0000000 6203.0000000 -4.030000210 1.2100000381 1.4199999571 1.7999999523
 6204.0000000 6204.0000000 -3.720000029 1.1599999666 1.4900000095 1.5499999523
 6205.0000000 6205.0000000 -3.849999905 1.1599999666 1.5199999809 1.4500000477
 6206.0000000 6206.0000000 -4.000000000 1.1699999571 1.4800000191 1.4600000381
 6207.0000000 6207.0000000 -3.690000057 1.1699999571 1.4600000381 1.4600000381
 6208.0000000 6208.0000000 -3.420000076 1.1699999571 1.4900000095 1.4299999475
 6209.0000000 6209.0000000 -3.650000095 1.1900000572 1.5299999714 1.3999999762
 6210.0000000 6210.0000000 -4.289999962 1.2599999905 1.6100000143 1.3700000048
 6211.0000000 6211.0000000 -5.389999866 1.4500000477 1.6599999666 1.4099999666
 6212.0000000 6212.0000000 -7.269999981 1.7200000286 1.6900000572 1.4600000381
 6213.0000000 6213.0000000 -8.640000343 2.1800000668 1.6900000572 1.7000000477
 6214.0000000 6214.0000000 -9.899999619 2.5499999523 1.6699999571 2.0899999142
 6215.0000000 6215.0000000 -10.10000038 2.7000000477 1.6399999857 2.4600000381
 6216.0000000 6216.0000000 -9.310000420 2.5699999332 1.6100000143 2.6400001049
 6217.0000000 6217.0000000 -8.199999809 2.1199998856 1.7799999714 2.6099998951
 6218.0000000 6218.0000000 -6.780000210 1.6799999475 1.9199999571 2.3099999428
 6219.0000000 6219.0000000 -5.500000000 1.4700000286 2.0799999237 1.8099999428
 6220.0000000 6220.0000000 -4.920000076 1.4500000477 2.2100000381 1.4199999571
 6221.0000000 6221.0000000 -6.309999943 1.7599999905 2.2699999809 1.1900000572
 6222.0000000 6222.0000000 -9.550000191 2.2400000095 2.2899999619 1.1499999762
 6223.0000000 6223.0000000 -10.93000031 2.7699999809 2.3599998951 1.3099999428
 6224.0000000 6224.0000000 -11.84000015 3.2699999809 2.5199999809 1.5199999809
 6225.0000000 6225.0000000 -12.43000031 3.4500000477 2.8099999428 1.6900000572
 6226.0000000 6226.0000000 -12.60000038 3.4200000763 3.0499999523 1.7799999714
 6227.0000000 6227.0000000 -12.85000038 3.2899999619 3.0399999619 1.9900000095
 6228.0000000 6228.0000000 -12.52999973 3.1700000763 2.5000000000 2.2100000381
 6229.0000000 6229.0000000 -12.06999969 2.8800001144 1.9299999475 2.4700000286
 6230.0000000 6230.0000000 -10.85000038 2.4000000954 1.6900000572 2.6800000668
 6231.0000000 6231.0000000 -8.460000038 1.7799999714 1.6100000143 2.7899999619
 6232.0000000 6232.0000000 -5.719999790 1.3099999428 1.6000000238 2.5899999142
 6233.0000000 6233.0000000 -3.849999905 1.1200000048 1.6000000238 2.0000000000
 6234.0000000 6234.0000000 -3.269999981 1.0700000525 1.6000000238 1.6100000143
 6235.0000000 6235.0000000 -2.930000067 1.0700000525 1.5599999428 1.4199999571
 6236.0000000 6236.0000000 -2.519999981 1.0900000334 1.4800000191 1.3700000048
 6237.0000000 6237.0000000 -2.309999943 1.0900000334 1.4199999571 1.3300000429
 6238.0000000 6238.0000000 -2.829999924 1.0700000525 1.3899999857 1.2999999523
 6239.0000000 6239.0000000 -3.509999990 1.0499999523 1.3899999857 1.2899999619
 6240.0000000 6240.0000000 -3.789999962 1.0499999523 1.3899999857 1.2999999523
 6241.0000000 6241.0000000 -3.710000038 1.0800000429 1.3300000429 1.3300000429
 6242.0000000 6242.0000000 -3.559999943 1.1499999762 1.3099999428 1.4299999475
 6243.0000000 6243.0000000 -3.490000010 1.2100000381 1.3099999428 1.5800000429
 6244.0000000 6244.0000000 -3.059999943 1.2100000381 1.2999999523 1.6900000572
 6245.0000000 6245.0000000 -2.789999962 1.1799999475 1.3700000048 1.6900000572
 6246.0000000 6246.0000000 -2.920000076 1.1100000143 1.4600000381 1.5900000334
 6247.0000000 6247.0000000 -3.589999914 1.0800000429 1.5299999714 1.5000000000
 6248.0000000 6248.0000000 -4.250000000 1.0700000525 1.6000000238 1.4099999666
 6249.0000000 6249.0000000 -4.679999828 1.1100000143 1.6799999475 1.3400000334
 6250.0000000 6250.0000000 -5.210000038 1.2300000191 1.7599999905 1.2599999905
 6251.0000000 6251.0000000 -6.230000019 1.4600000381 1.8799999952 1.2100000381
 6252.0000000 6252.0000000 -8.350000381 1.9700000286 2.0699999332 1.2599999905
 6253.0000000 6253.0000000 -10.89000034 2.5299999714 2.2500000000 1.3799999952
 6254.0000000 6254.0000000 -12.90999985 3.1300001144 2.5299999714 1.5499999523
 6255.0000000 6255.0000000 -14.40999985 3.7899999619 3.2300000191 1.7899999619
 6256.0000000 6256.0000000 -16.04000092 4.3200001717 3.8199999332 2.0599999428
 6257.0000000 6257.0000000 -16.85000038 4.7100000381 4.1999998093 2.4000000954
 6258.0000000 6258.0000000 -16.70000076 4.9699997902 4.4699997902 2.6199998856
 6259.0000000 6259.0000000 -15.64000034 4.7600002289 4.6399998665 2.7000000477
 6260.0000000 6260.0000000 -14.19999981 4.3600001335 4.6599998474 2.7100000381
 6261.0000000 6261.0000000 -12.96000004 3.9400000572 4.6100001335 2.6800000668
 6262.0000000 6262.0000000 -11.64000034 3.4500000477 4.6599998474 2.6099998951
 6263.0000000 6263.0000000 -10.67000008 3.2500000000 4.6100001335 2.4000000954
 6264.0000000 6264.0000000 -10.18000031 3.2200000286 4.4099998474 2.1400001049
 6265.0000000 6265.0000000 -10.63000011 3.2899999619 4.1999998093 2.0299999714
 6266.0000000 6266.0000000 -10.86999989 3.3599998951 4.0599999428 2.0399999619
 6267.0000000 6267.0000000 -10.39999962 3.2200000286 3.9200000763 2.0799999237
 6268.0000000 6268.0000000 -9.829999924 3.0999999046 3.7400000095 2.0999999046
 6269.0000000 6269.0000000 -9.550000191 3.0199999809 3.6199998856 2.1900000572
 6270.0000000 6270.0000000 -9.590000153 2.7500000000 3.6199998856 2.3699998856
 6271.0000000 6271.0000000 -8.750000000 2.5000000000 3.8800001144 2.4400000572
 6272.0000000 6272.0000000 -7.940000057 2.4800000191 4.1799998283 2.2799999714
 6273.0000000 6273.0000000 -8.210000038 2.6800000668 4.4099998474 1.9099999666
 6274.0000000 6274.0000000 -10.02999973 3.0599999428 4.4299998283 1.8099999428
 6275.0000000 6275.0000000 -12.89000034 3.6300001144 4.4699997902 2.2599999905
 6276.0000000 6276.0000000 -14.44999981 4.1500000954 4.6900000572 2.7999999523
 6277.0000000 6277.0000000 -15.68999958 4.4699997902 5.1799998283 3.2400000095
 6278.0000000 6278.0000000 -16.61000061 4.7399997711 5.7699999809 3.5499999523
 6279.0000000 6279.0000000 -17.36000061 5.1100001335 6.1199998856 3.9400000572
 6280.0000000 6280.0000000 -18.32999992 5.2500000000 6.4499998093 4.2300000191
 6281.0000000 6281.0000000 -19.52000046 5.1199998856 6.8899998665 4.3899998665
