# LAS format log file from PETREL
# Project units are specified as depth units
#==================================================================
~Version information
VERS.   2.0:
WRAP.   NO:
#==================================================================
~Well
STRT .m      3000.0000000 :
STOP .m      6457.0000000 :
STEP .m     1.00000000 :
NULL .        -999.250000 :
COMP.           : COMPANY
WELL.  WELL_1   : WELL
FLD.            : FIELD
LOC.            : LOCATION
SRVC.           : SERVICE COMPANY
DATE.  2023-03-20 17:52:46   : Log Export Date {yyyy-MM-dd HH:mm:ss}
PROV.           : PROVINCE
UWI.   WELL_1   : UNIQUE WELL ID
API.            : API NUMBER
#==================================================================
~Curve
DEPT .m                   : DEPTH
Depth .m                  : Depth
SP .mV                    : SP
SN .ohm.m                 : SN
LN .ohm.m                 : LN
~Parameter
#==================================================================
~Ascii
 3000.0000000 3000.0000000 8.1700000763 3.2899999619 3.1099998951
 3001.0000000 3001.0000000 9.1199998856 2.8599998951 2.7200000286
 3002.0000000 3002.0000000 9.6800003052 2.4600000381 2.4400000572
 3003.0000000 3003.0000000 10.149999619 2.0899999142 2.2999999523
 3004.0000000 3004.0000000 10.350000381 1.8300000429 2.2999999523
 3005.0000000 3005.0000000 10.500000000 1.7699999809 2.3499999046
 3006.0000000 3006.0000000 10.449999809 1.8200000525 2.4300000668
 3007.0000000 3007.0000000 9.9200000763 2.0099999905 2.5599999428
 3008.0000000 3008.0000000 8.5900001526 2.5699999332 2.7000000477
 3009.0000000 3009.0000000 6.5599999428 3.5299999714 2.8299999237
 3010.0000000 3010.0000000 3.6199998856 4.4299998283 2.9200000763
 3011.0000000 3011.0000000 1.1100000143 5.0100002289 2.9400000572
 3012.0000000 3012.0000000 -0.600000024 5.0999999046 2.9200000763
 3013.0000000 3013.0000000 -1.830000043 5.1900000572 2.8399999142
 3014.0000000 3014.0000000 -2.680000067 5.2800002098 2.7500000000
 3015.0000000 3015.0000000 -2.680000067 5.3299999237 2.5999999046
 3016.0000000 3016.0000000 -2.180000067 5.0799999237 2.4500000477
 3017.0000000 3017.0000000 -1.539999962 4.8499999046 2.3599998951
 3018.0000000 3018.0000000 -0.400000006 4.5399999619 2.3499999046
 3019.0000000 3019.0000000 0.8000000119 4.1700000763 2.4900000095
 3020.0000000 3020.0000000 1.2300000191 4.0199999809 2.7300000191
 3021.0000000 3021.0000000 0.8999999762 4.4699997902 2.6600000858
 3022.0000000 3022.0000000 0.4699999988 4.9200000763 2.5199999809
 3023.0000000 3023.0000000 -0.020000000 4.9800000191 2.4900000095
 3024.0000000 3024.0000000 -0.519999981 4.9400000572 2.5799999237
 3025.0000000 3025.0000000 -0.930000007 4.9000000954 2.7100000381
 3026.0000000 3026.0000000 -1.289999962 4.8600001335 2.8499999046
 3027.0000000 3027.0000000 -1.649999976 4.8499999046 2.9800000191
 3028.0000000 3028.0000000 -1.759999990 4.8499999046 3.1199998856
 3029.0000000 3029.0000000 -1.830000043 4.7800002098 3.1800000668
 3030.0000000 3030.0000000 -1.360000014 4.6500000954 3.2300000191
 3031.0000000 3031.0000000 -0.740000010 4.4699997902 3.2699999809
 3032.0000000 3032.0000000 0.2000000030 4.1399998665 3.3199999332
 3033.0000000 3033.0000000 1.3099999428 3.7799999714 3.3299999237
 3034.0000000 3034.0000000 3.0899999142 3.4000000954 3.3399999142
 3035.0000000 3035.0000000 5.0900001526 3.0499999523 3.2699999809
 3036.0000000 3036.0000000 6.8800001144 2.7100000381 3.0999999046
 3037.0000000 3037.0000000 8.1700000763 2.3900001049 2.7699999809
 3038.0000000 3038.0000000 9.1400003433 2.1199998856 2.5299999714
 3039.0000000 3039.0000000 9.7799997330 1.9199999571 2.6600000858
 3040.0000000 3040.0000000 9.2899999619 1.9099999666 2.7699999809
 3041.0000000 3041.0000000 8.6199998856 1.9900000095 2.7899999619
 3042.0000000 3042.0000000 7.9600000381 2.0799999237 2.5999999046
 3043.0000000 3043.0000000 8.5100002289 2.1700000763 2.4000000954
 3044.0000000 3044.0000000 9.0799999237 2.2000000477 2.1900000572
 3045.0000000 3045.0000000 9.6499996185 2.2300000191 2.1800000668
 3046.0000000 3046.0000000 10.239999771 2.2699999809 2.1900000572
 3047.0000000 3047.0000000 10.840000153 2.3399999142 2.2000000477
 3048.0000000 3048.0000000 11.180000305 2.4200000763 2.2200000286
 3049.0000000 3049.0000000 11.079999924 2.5999999046 2.2300000191
 3050.0000000 3050.0000000 10.970000267 2.8199999332 2.1700000763
 3051.0000000 3051.0000000 9.6700000763 3.2000000477 2.2100000381
 3052.0000000 3052.0000000 8.3900003433 3.6300001144 2.2999999523
 3053.0000000 3053.0000000 7.1500000954 3.9500000477 2.4200000763
 3054.0000000 3054.0000000 6.2300000191 4.0599999428 2.5299999714
 3055.0000000 3055.0000000 5.5300002098 4.0500001907 2.4800000191
 3056.0000000 3056.0000000 5.2699999809 3.6800000668 2.3699998856
 3057.0000000 3057.0000000 6.1900000572 3.0699999332 2.1900000572
 3058.0000000 3058.0000000 7.5300002098 2.2100000381 2.1300001144
 3059.0000000 3059.0000000 8.8400001526 2.0499999523 2.2000000477
 3060.0000000 3060.0000000 8.2899999619 2.5199999809 2.2799999714
 3061.0000000 3061.0000000 6.3400001526 3.2500000000 2.3599998951
 3062.0000000 3062.0000000 4.0900001526 4.0700001717 2.4400000572
 3063.0000000 3063.0000000 1.9299999475 4.5399999619 2.5399999619
 3064.0000000 3064.0000000 0.6600000262 4.8099999428 2.6400001049
 3065.0000000 3065.0000000 -0.189999998 4.9200000763 2.7400000095
 3066.0000000 3066.0000000 -0.879999995 4.9899997711 2.7899999619
 3067.0000000 3067.0000000 -1.490000010 4.9800000191 2.8299999237
 3068.0000000 3068.0000000 -1.840000033 4.9699997902 2.8399999142
 3069.0000000 3069.0000000 -2.190000057 4.9699997902 2.7899999619
 3070.0000000 3070.0000000 -2.140000105 4.9200000763 2.7400000095
 3071.0000000 3071.0000000 -2.019999981 4.8800001144 2.7699999809
 3072.0000000 3072.0000000 -1.779999971 4.8400001526 2.7899999619
 3073.0000000 3073.0000000 -1.419999957 4.7699999809 2.7699999809
 3074.0000000 3074.0000000 -1.049999952 4.6500000954 2.7400000095
 3075.0000000 3075.0000000 -0.519999981 4.5300002098 2.7100000381
 3076.0000000 3076.0000000 0.1299999952 4.4000000954 2.6300001144
 3077.0000000 3077.0000000 0.7699999809 4.2600002289 2.5699999332
 3078.0000000 3078.0000000 1.3899999857 4.1199998856 2.5999999046
 3079.0000000 3079.0000000 1.9900000095 4.0100002289 2.8399999142
 3080.0000000 3080.0000000 1.9500000477 3.9100000858 3.0899999142
 3081.0000000 3081.0000000 1.4299999475 3.8499999046 3.2200000286
 3082.0000000 3082.0000000 0.9100000262 3.9500000477 3.3399999142
 3083.0000000 3083.0000000 0.4099999964 4.1500000954 3.2200000286
 3084.0000000 3084.0000000 -0.090000004 4.4800000191 3.0999999046
 3085.0000000 3085.0000000 -0.589999974 4.8200001717 2.8900001049
 3086.0000000 3086.0000000 -0.970000029 4.7399997711 2.9500000477
 3087.0000000 3087.0000000 -1.330000043 4.8000001907 3.0099999905
 3088.0000000 3088.0000000 -1.679999948 4.8899998665 3.0599999428
 3089.0000000 3089.0000000 -1.690000057 5.0700001717 3.1099998951
 3090.0000000 3090.0000000 -1.710000038 5.2399997711 3.1500000954
 3091.0000000 3091.0000000 -1.720000029 5.2899999619 3.1800000668
 3092.0000000 3092.0000000 -1.629999995 5.3200001717 3.2100000381
 3093.0000000 3093.0000000 -1.500000000 5.3499999046 3.2500000000
 3094.0000000 3094.0000000 -1.370000005 5.3299999237 3.2899999619
 3095.0000000 3095.0000000 -1.090000033 5.3099999428 3.3299999237
 3096.0000000 3096.0000000 -0.750000000 5.2899999619 3.3699998856
 3097.0000000 3097.0000000 -0.409999996 5.2300000191 3.3800001144
 3098.0000000 3098.0000000 0.0399999991 5.1599998474 3.3800001144
 3099.0000000 3099.0000000 0.5400000215 5.0500001907 3.3900001049
 3100.0000000 3100.0000000 1.0499999523 4.8000001907 3.4000000954
 3101.0000000 3101.0000000 1.4299999475 4.6999998093 3.3800001144
 3102.0000000 3102.0000000 1.5900000334 4.7600002289 3.3499999046
 3103.0000000 3103.0000000 1.2400000095 4.7899999619 3.3299999237
 3104.0000000 3104.0000000 0.8799999952 4.5300002098 3.2999999523
 3105.0000000 3105.0000000 1.4700000286 4.2300000191 3.2799999714
 3106.0000000 3106.0000000 2.5799999237 3.8900001049 3.2599999905
 3107.0000000 3107.0000000 3.4400000572 3.5599999428 3.2400000095
 3108.0000000 3108.0000000 4.1300001144 3.3900001049 3.2200000286
 3109.0000000 3109.0000000 3.8399999142 3.7599999905 3.2000000477
 3110.0000000 3110.0000000 2.9400000572 4.3899998665 3.1800000668
 3111.0000000 3111.0000000 1.4800000191 4.8699998856 3.1700000763
 3112.0000000 3112.0000000 -0.079999998 5.0999999046 3.1500000954
 3113.0000000 3113.0000000 -1.960000038 5.1700000763 3.1300001144
 3114.0000000 3114.0000000 -2.380000114 5.2300000191 3.1099998951
 3115.0000000 3115.0000000 -2.529999971 5.2399997711 3.0799999237
 3116.0000000 3116.0000000 -2.569999933 5.2600002289 3.0599999428
 3117.0000000 3117.0000000 -2.609999895 5.2699999809 3.0699999332
 3118.0000000 3118.0000000 -2.670000076 5.2500000000 3.0699999332
 3119.0000000 3119.0000000 -2.759999990 5.2399997711 3.0699999332
 3120.0000000 3120.0000000 -2.859999895 5.2199997902 3.1099998951
 3121.0000000 3121.0000000 -2.599999905 5.1700000763 3.1600000858
