# LAS format log file from PETREL
# Project units are specified as depth units
#==================================================================
~Version information
VERS.   2.0:
WRAP.   NO:
#==================================================================
~Well
STRT .m      4650.0000000 :
STOP .m      7300.0000000 :
STEP .m     1.00000000 :
NULL .        -999.250000 :
COMP.           : COMPANY
WELL.  WELL_6   : WELL
FLD.            : FIELD
LOC.            : LOCATION
SRVC.           : SERVICE COMPANY
DATE.  2023-03-20 17:52:46   : Log Export Date {yyyy-MM-dd HH:mm:ss}
PROV.           : PROVINCE
UWI.   WELL_6   : UNIQUE WELL ID
API.            : API NUMBER
#==================================================================
~Curve
DEPT .m                   : DEPTH
Depth .m                  : Depth
GR .gAPI                  : GR
SP .mV                    : SP
RT .ohm.m                 : RT
~Parameter
#==================================================================
~Ascii
# ...
 6846.0000000 6846.0000000 91.129997253 -3.349999905 1.3200000525
 6847.0000000 6847.0000000 91.470001221 -3.130000114 1.2100000381
 6848.0000000 6848.0000000 93.879997253 -3.309999943 1.1799999475
 6849.0000000 6849.0000000 94.269996643 -3.700000048 1.1599999666
 6850.0000000 6850.0000000 94.910003662 -3.880000114 1.1499999762
 6851.0000000 6851.0000000 98.110000610 -3.539999962 1.1200000048
 6852.0000000 6852.0000000 92.110000610 -2.569999933 1.0800000429
 6853.0000000 6853.0000000 87.959999084 -1.750000000 1.0199999809
 6854.0000000 6854.0000000 85.379997253 -1.720000029 1.0199999809
 6855.0000000 6855.0000000 81.930000305 -2.250000000 0.9800000191
 6856.0000000 6856.0000000 78.639999390 -2.150000095 1.2400000095
 6857.0000000 6857.0000000 81.050003052 -2.589999914 1.4400000572
 6858.0000000 6858.0000000 87.949996948 -3.630000114 1.5599999428
 6859.0000000 6859.0000000 90.949996948 -4.329999924 1.6299999952
 6860.0000000 6860.0000000 90.599998474 -4.460000038 1.7899999619
 6861.0000000 6861.0000000 81.889999390 -4.269999981 1.5599999428
 6862.0000000 6862.0000000 80.730003357 -3.779999971 2.0699999332
 6863.0000000 6863.0000000 97.769996643 -3.150000095 1.3200000525
 6864.0000000 6864.0000000 104.76999664 -2.299999952 0.9900000095
 6865.0000000 6865.0000000 114.19000244 -1.750000000 0.9900000095
 6866.0000000 6866.0000000 106.80999756 -2.230000019 1.1299999952
 6867.0000000 6867.0000000 90.550003052 -3.220000029 1.6499999762
 6868.0000000 6868.0000000 74.269996643 -3.150000095 3.1199998856
 6869.0000000 6869.0000000 72.269996643 -3.259999990 3.2899999619
 6870.0000000 6870.0000000 74.470001221 -4.380000114 2.7400000095
 6871.0000000 6871.0000000 77.879997253 -4.789999962 2.3499999046
 6872.0000000 6872.0000000 78.599998474 -4.190000057 1.8999999762
 6873.0000000 6873.0000000 79.900001526 -3.609999895 1.5299999714
 6874.0000000 6874.0000000 90.169998169 -3.109999895 1.3200000525
 6875.0000000 6875.0000000 95.709999084 -2.730000019 1.2300000191
 6876.0000000 6876.0000000 98.510002136 -2.460000038 1.2200000286
 6877.0000000 6877.0000000 95.510002136 -2.250000000 1.2500000000
 6878.0000000 6878.0000000 96.279998779 -2.470000029 1.3500000238
 6879.0000000 6879.0000000 99.529998779 -3.519999981 1.3400000334
 6880.0000000 6880.0000000 98.269996643 -4.909999847 1.4099999666
 6881.0000000 6881.0000000 93.360000610 -5.380000114 1.5299999714
 6882.0000000 6882.0000000 93.150001526 -5.849999905 1.7699999809
 6883.0000000 6883.0000000 97.519996643 -8.109999657 2.0699999332
 6884.0000000 6884.0000000 88.360000610 -11.06000042 2.6199998856
 6885.0000000 6885.0000000 71.580001831 -13.47999954 3.5299999714
 6886.0000000 6886.0000000 58.000000000 -14.64999962 4.4299998283
 6887.0000000 6887.0000000 58.110000610 -13.68999958 4.8800001144
 6888.0000000 6888.0000000 57.900001526 -11.27999973 4.5500001907
 6889.0000000 6889.0000000 63.040000916 -9.010000229 3.2400000095
 6890.0000000 6890.0000000 72.860000610 -7.639999866 3.0399999619
 6891.0000000 6891.0000000 75.220001221 -12.31999969 3.0000000000
 6892.0000000 6892.0000000 68.349998474 -13.98999977 3.6500000954
 6893.0000000 6893.0000000 65.379997253 -16.25000000 3.4500000477
 6894.0000000 6894.0000000 70.379997253 -17.68000031 3.8499999046
 6895.0000000 6895.0000000 69.459999084 -16.57999992 3.9000000954
 6896.0000000 6896.0000000 68.870002747 -13.63000011 4.3299999237
 6897.0000000 6897.0000000 57.290000916 -9.970000267 5.5199999809
 6898.0000000 6898.0000000 67.580001831 -6.159999847 3.5499999523
 6899.0000000 6899.0000000 92.029998779 -4.170000076 2.2799999714
 6900.0000000 6900.0000000 105.48000336 -2.839999914 1.6299999952
 6901.0000000 6901.0000000 101.62999725 -1.889999986 1.4299999475
 6902.0000000 6902.0000000 99.870002747 -1.470000029 1.3500000238
 6903.0000000 6903.0000000 100.20999908 -2.119999886 1.3500000238
 6904.0000000 6904.0000000 89.709999084 -2.319999933 1.5299999714
 6905.0000000 6905.0000000 83.410003662 -2.589999914 1.6000000238
 6906.0000000 6906.0000000 84.489997864 -2.329999924 1.4700000286
 6907.0000000 6907.0000000 88.589996338 -1.610000014 1.5299999714
 6908.0000000 6908.0000000 82.819999695 -1.159999967 1.5000000000
 6909.0000000 6909.0000000 83.559997559 -0.860000014 1.4700000286
 6910.0000000 6910.0000000 88.000000000 -0.620000005 1.4800000191
 6911.0000000 6911.0000000 91.430000305 -0.409999996 1.4900000095
 6912.0000000 6912.0000000 91.919998169 -0.720000029 1.4700000286
 6913.0000000 6913.0000000 95.790000916 -1.679999948 1.3899999857
 6914.0000000 6914.0000000 92.580001831 -1.980000019 1.2500000000
 6915.0000000 6915.0000000 92.919998169 -1.539999962 1.1599999666
 6916.0000000 6916.0000000 102.23000336 -1.049999952 1.1399999857
 6917.0000000 6917.0000000 97.699996948 -0.889999986 1.1900000572
 6918.0000000 6918.0000000 94.540000916 -1.000000000 1.3400000334
 6919.0000000 6919.0000000 96.019996643 -1.070000052 1.6200000048
 6920.0000000 6920.0000000 97.879997253 -0.709999979 1.7400000095
 6921.0000000 6921.0000000 100.22000122 -0.239999995 1.7999999523
 6922.0000000 6922.0000000 101.72000122 -0.219999999 1.8400000334
 6923.0000000 6923.0000000 97.569999695 -0.819999993 1.9400000572
 6924.0000000 6924.0000000 93.519996643 -1.490000010 2.1600000858
 6925.0000000 6925.0000000 90.050003052 -2.009999990 2.4000000954
 6926.0000000 6926.0000000 93.660003662 -2.500000000 2.5699999332
 6927.0000000 6927.0000000 94.099998474 -2.869999886 2.6700000763
 6928.0000000 6928.0000000 91.879997253 -2.980000019 2.5199999809
 6929.0000000 6929.0000000 92.110000610 -2.690000057 1.8999999762
 6930.0000000 6930.0000000 97.830001831 -2.069999933 1.8400000334
 6931.0000000 6931.0000000 90.440002441 -1.799999952 1.9400000572
 6932.0000000 6932.0000000 80.660003662 -2.309999943 2.5399999619
 6933.0000000 6933.0000000 78.790000916 -2.859999895 3.0499999523
 6934.0000000 6934.0000000 81.019996643 -3.720000029 3.6300001144
 6935.0000000 6935.0000000 79.099998474 -5.429999828 4.2500000000
 6936.0000000 6936.0000000 76.120002747 -6.449999809 4.3099999428
 6937.0000000 6937.0000000 73.080001831 -5.880000114 5.2500000000
 6938.0000000 6938.0000000 76.029998779 -4.400000095 3.3599998951
 6939.0000000 6939.0000000 90.569999695 -3.299999952 2.2100000381
 6940.0000000 6940.0000000 95.760002136 -2.660000086 2.0599999428
 6941.0000000 6941.0000000 88.769996643 -2.450000048 2.2100000381
 6942.0000000 6942.0000000 83.680000305 -2.390000105 2.7599999905
 6943.0000000 6943.0000000 84.690002441 -2.250000000 2.2300000191
 6944.0000000 6944.0000000 85.160003662 -2.420000076 2.0599999428
 6945.0000000 6945.0000000 86.580001831 -3.049999952 2.0299999714
 6946.0000000 6946.0000000 90.489997864 -4.099999905 2.2799999714
 6947.0000000 6947.0000000 79.319999695 -5.329999924 2.6700000763
 6948.0000000 6948.0000000 78.220001221 -5.590000153 3.2400000095
 6949.0000000 6949.0000000 85.540000916 -5.320000172 3.4600000381
 6950.0000000 6950.0000000 105.38999939 -4.690000057 2.8599998951
 6951.0000000 6951.0000000 130.05999756 -3.740000010 2.0499999523
 6952.0000000 6952.0000000 128.44999695 -2.460000038 1.3700000048
 6953.0000000 6953.0000000 116.87999725 -1.539999962 1.1000000238
 6954.0000000 6954.0000000 109.62999725 -2.079999924 0.9599999785
 6955.0000000 6955.0000000 110.83999634 -2.970000029 0.9100000262
 6956.0000000 6956.0000000 107.02999878 -2.690000057 0.8999999762
 6957.0000000 6957.0000000 109.47000122 -2.490000010 0.9599999785
 6958.0000000 6958.0000000 111.83000183 -2.740000010 1.1000000238
 6959.0000000 6959.0000000 117.37999725 -3.500000000 1.3400000334
 6960.0000000 6960.0000000 109.55000305 -3.559999943 1.8700000048
 6961.0000000 6961.0000000 96.709999084 -2.809999943 2.7000000477
 6962.0000000 6962.0000000 89.730003357 -2.720000029 4.1399998665
 6963.0000000 6963.0000000 78.910003662 -3.049999952 4.6500000954
 6964.0000000 6964.0000000 81.860000610 -1.960000038 4.7800002098
 6965.0000000 6965.0000000 85.510002136 -1.480000019 3.5799999237
 6966.0000000 6966.0000000 90.980003357 -1.590000033 1.8999999762
 6967.0000000 6967.0000000 96.769996643 -1.860000014 1.5800000429
