# LAS format log file from PETREL
# Project units are specified as depth units
#==================================================================
~Version information
VERS.   2.0:
WRAP.   NO:
#==================================================================
~Well
STRT .m      4650.0000000 :
STOP .m      7300.0000000 :
STEP .m     1.00000000 :
NULL .        -999.250000 :
COMP.           : COMPANY
WELL.  WELL_6   : WELL
FLD.            : FIELD
LOC.            : LOCATION
SRVC.           : SERVICE COMPANY
DATE.  2023-03-20 17:52:46   : Log Export Date {yyyy-MM-dd HH:mm:ss}
PROV.           : PROVINCE
UWI.   WELL_6   : UNIQUE WELL ID
API.            : API NUMBER
#==================================================================
~Curve
DEPT .m                   : DEPTH
Depth .m                  : Depth
GR .gAPI                  : GR
SP .mV                    : SP
RT .ohm.m                 : RT
~Parameter
#==================================================================
~Ascii
# ...
 5382.0000000 5382.0000000 114.72000122 -16.64999962 2.6900000572
 5383.0000000 5383.0000000 110.33999634 -17.61000061 2.7500000000
 5384.0000000 5384.0000000 115.38999939 -18.78000069 2.7400000095
 5385.0000000 5385.0000000 121.16999817 -20.29000092 2.8499999046
 5386.0000000 5386.0000000 118.19999695 -22.77000046 3.0899999142
 5387.0000000 5387.0000000 113.83999634 -25.04999924 3.3599998951
 5388.0000000 5388.0000000 107.18000031 -26.44000053 3.6099998951
 5389.0000000 5389.0000000 102.97000122 -26.29000092 3.8199999332
 5390.0000000 5390.0000000 98.309997559 -26.73999977 3.9600000381
 5391.0000000 5391.0000000 93.860000610 -27.42000008 3.9500000477
 5392.0000000 5392.0000000 99.720001221 -27.64999962 3.7999999523
 5393.0000000 5393.0000000 114.91000366 -27.37000084 3.7100000381
 5394.0000000 5394.0000000 121.87000275 -25.87999916 3.6800000668
 5395.0000000 5395.0000000 110.26000214 -24.77000046 3.7899999619
 5396.0000000 5396.0000000 100.66000366 -25.63999939 3.9100000858
 5397.0000000 5397.0000000 99.550003052 -28.23999977 3.9200000763
 5398.0000000 5398.0000000 104.41999817 -31.50000000 3.8599998951
 5399.0000000 5399.0000000 110.05999756 -34.36999893 3.7000000477
 5400.0000000 5400.0000000 113.73999786 -36.66999817 3.5000000000
 5401.0000000 5401.0000000 111.37000275 -37.22000122 3.3499999046
 5402.0000000 5402.0000000 104.66000366 -37.15999985 3.2000000477
 5403.0000000 5403.0000000 104.73999786 -37.33000183 3.0899999142
 5404.0000000 5404.0000000 109.69999695 -37.72999954 3.0000000000
 5405.0000000 5405.0000000 114.41000366 -38.22000122 2.9500000477
 5406.0000000 5406.0000000 108.93000031 -38.11000061 2.9200000763
 5407.0000000 5407.0000000 106.30999756 -37.25000000 2.8900001049
 5408.0000000 5408.0000000 102.01000214 -34.38000107 2.9800000191
 5409.0000000 5409.0000000 98.760002136 -29.20000076 3.2300000191
 5410.0000000 5410.0000000 110.08000183 -22.86000061 3.2999999523
 5411.0000000 5411.0000000 119.62000275 -16.96999931 3.2599999905
 5412.0000000 5412.0000000 118.44000244 -10.96000004 2.9900000095
 5413.0000000 5413.0000000 114.23999786 -7.099999905 2.2500000000
 5414.0000000 5414.0000000 124.76000214 -4.750000000 1.8700000048
 5415.0000000 5415.0000000 127.55999756 -4.090000153 1.7100000381
 5416.0000000 5416.0000000 120.83999634 -4.860000134 1.6699999571
 5417.0000000 5417.0000000 117.81999969 -5.010000229 1.7100000381
 5418.0000000 5418.0000000 112.16000366 -4.309999943 1.7599999905
 5419.0000000 5419.0000000 108.41999817 -4.949999809 1.8899999857
 5420.0000000 5420.0000000 109.37999725 -5.289999962 2.1400001049
 5421.0000000 5421.0000000 111.22000122 -7.769999981 2.5099999905
 5422.0000000 5422.0000000 111.97000122 -8.229999542 2.6500000954
 5423.0000000 5423.0000000 120.08000183 -7.420000076 2.7100000381
 5424.0000000 5424.0000000 126.41999817 -6.889999866 2.5799999237
 5425.0000000 5425.0000000 122.84999847 -6.949999809 2.3599998951
 5426.0000000 5426.0000000 119.25000000 -6.070000172 2.2400000095
 5427.0000000 5427.0000000 116.04000092 -5.809999943 2.2000000477
 5428.0000000 5428.0000000 113.45999908 -6.449999809 2.1700000763
 5429.0000000 5429.0000000 115.55000305 -6.880000114 2.1600000858
 5430.0000000 5430.0000000 118.37000275 -7.059999943 2.1800000668
 5431.0000000 5431.0000000 121.48999786 -6.989999771 2.2200000286
 5432.0000000 5432.0000000 124.95999908 -6.750000000 2.2799999714
 5433.0000000 5433.0000000 128.33000183 -6.900000095 2.2999999523
 5434.0000000 5434.0000000 128.66000366 -6.940000057 2.2999999523
 5435.0000000 5435.0000000 125.12000275 -7.630000114 2.2899999619
 5436.0000000 5436.0000000 125.33000183 -8.949999809 2.2400000095
 5437.0000000 5437.0000000 124.77999878 -10.50000000 2.2500000000
 5438.0000000 5438.0000000 121.44999695 -12.05000019 2.2999999523
 5439.0000000 5439.0000000 128.05000305 -12.82999992 2.3699998856
 5440.0000000 5440.0000000 126.83000183 -12.84000015 2.4800000191
 5441.0000000 5441.0000000 120.80000305 -11.71000004 2.5000000000
 5442.0000000 5442.0000000 121.73999786 -8.100000381 2.1900000572
 5443.0000000 5443.0000000 130.36999512 -6.019999981 1.9099999666
 5444.0000000 5444.0000000 125.76999664 -4.679999828 1.6699999571
 5445.0000000 5445.0000000 120.43000031 -3.910000086 1.5299999714
 5446.0000000 5446.0000000 124.27999878 -4.190000057 1.4900000095
 5447.0000000 5447.0000000 130.00000000 -5.550000191 1.5399999619
 5448.0000000 5448.0000000 126.79000092 -5.280000210 1.7200000286
 5449.0000000 5449.0000000 120.12999725 -5.360000134 1.9900000095
 5450.0000000 5450.0000000 124.51000214 -5.949999809 2.2100000381
 5451.0000000 5451.0000000 120.19999695 -6.800000191 2.2100000381
 5452.0000000 5452.0000000 111.91000366 -5.980000019 1.8799999952
 5453.0000000 5453.0000000 106.52999878 -4.820000172 1.5700000525
 5454.0000000 5454.0000000 105.33000183 -3.849999905 1.3700000048
 5455.0000000 5455.0000000 110.43000031 -3.200000048 1.2500000000
 5456.0000000 5456.0000000 121.37000275 -3.069999933 1.2599999905
 5457.0000000 5457.0000000 123.58999634 -4.309999943 1.3300000429
 5458.0000000 5458.0000000 125.50000000 -4.789999962 1.4299999475
 5459.0000000 5459.0000000 117.37000275 -4.809999943 1.5599999428
 5460.0000000 5460.0000000 117.08999634 -5.340000153 1.6699999571
 5461.0000000 5461.0000000 124.41000366 -4.940000057 1.7799999714
 5462.0000000 5462.0000000 116.18000031 -5.150000095 1.8700000048
 5463.0000000 5463.0000000 112.37000275 -5.510000229 1.9700000286
 5464.0000000 5464.0000000 121.31999969 -4.860000134 2.0499999523
 5465.0000000 5465.0000000 131.91000366 -3.859999895 1.9700000286
 5466.0000000 5466.0000000 123.73000336 -3.039999962 1.7899999619
 5467.0000000 5467.0000000 111.98999786 -2.869999886 1.5900000334
 5468.0000000 5468.0000000 117.76999664 -3.710000038 1.5399999619
 5469.0000000 5469.0000000 126.16999817 -3.859999895 1.5099999905
 5470.0000000 5470.0000000 125.98999786 -4.030000210 1.5199999809
 5471.0000000 5471.0000000 115.62999725 -4.489999771 1.5199999809
 5472.0000000 5472.0000000 117.63999939 -5.639999866 1.5000000000
 5473.0000000 5473.0000000 123.58000183 -6.159999847 1.4700000286
 5474.0000000 5474.0000000 124.43000031 -5.460000038 1.4800000191
 5475.0000000 5475.0000000 124.30000305 -4.400000095 1.5299999714
 5476.0000000 5476.0000000 128.63000488 -3.289999962 1.6200000048
 5477.0000000 5477.0000000 136.71000671 -2.789999962 1.7100000381
 5478.0000000 5478.0000000 132.69000244 -3.200000048 1.7899999619
 5479.0000000 5479.0000000 126.51999664 -3.750000000 1.8200000525
 5480.0000000 5480.0000000 115.94999695 -3.650000095 1.8300000429
 5481.0000000 5481.0000000 113.95999908 -3.619999886 1.8099999428
 5482.0000000 5482.0000000 122.79000092 -4.519999981 1.7799999714
 5483.0000000 5483.0000000 129.75999451 -6.190000057 1.7699999809
 5484.0000000 5484.0000000 127.09999847 -6.900000095 1.7699999809
 5485.0000000 5485.0000000 125.33000183 -7.469999790 1.8300000429
 5486.0000000 5486.0000000 127.12999725 -8.380000114 1.9500000477
 5487.0000000 5487.0000000 117.81999969 -9.119999886 2.1099998951
 5488.0000000 5488.0000000 116.69999695 -10.39999962 2.2599999905
 5489.0000000 5489.0000000 120.48000336 -12.53999996 2.3900001049
 5490.0000000 5490.0000000 116.41999817 -15.77999973 2.5399999619
 5491.0000000 5491.0000000 118.58000183 -18.86000061 2.7200000286
 5492.0000000 5492.0000000 117.09999847 -19.82999992 2.9000000954
 5493.0000000 5493.0000000 118.40000153 -22.45999908 3.0299999714
 5494.0000000 5494.0000000 111.01999664 -24.29000092 3.1300001144
 5495.0000000 5495.0000000 106.34999847 -25.12999916 3.2200000286
 5496.0000000 5496.0000000 111.09999847 -24.60000038 3.5099999905
 5497.0000000 5497.0000000 117.48999786 -22.78000069 3.9100000858
 5498.0000000 5498.0000000 113.95999908 -18.94000053 3.7300000191
 5499.0000000 5499.0000000 119.73999786 -13.09000015 3.3599998951
 5500.0000000 5500.0000000 135.88999939 -9.170000076 2.4800000191
 5501.0000000 5501.0000000 141.19000244 -9.149999619 2.3499999046
 5502.0000000 5502.0000000 128.25000000 -8.739999771 2.3800001144
 5503.0000000 5503.0000000 127.83000183 -8.500000000 2.3900001049
