# LAS format log file from PETREL
# Project units are specified as depth units
#==================================================================
~Version information
VERS.   2.0:
WRAP.   NO:
#==================================================================
~Well
STRT .m      4650.0000000 :
STOP .m      7300.0000000 :
STEP .m     1.00000000 :
NULL .        -999.250000 :
COMP.           : COMPANY
WELL.  WELL_6   : WELL
FLD.            : FIELD
LOC.            : LOCATION
SRVC.           : SERVICE COMPANY
DATE.  2023-03-20 17:52:46   : Log Export Date {yyyy-MM-dd HH:mm:ss}
PROV.           : PROVINCE
UWI.   WELL_6   : UNIQUE WELL ID
API.            : API NUMBER
#==================================================================
~Curve
DEPT .m                   : DEPTH
Depth .m                  : Depth
GR .gAPI                  : GR
SP .mV                    : SP
RT .ohm.m                 : RT
~Parameter
#==================================================================
~Ascii
# ...
 6480.0000000 6480.0000000 98.589996338 -4.130000114 1.8099999428
 6481.0000000 6481.0000000 96.349998474 -4.969999790 1.9400000572
 6482.0000000 6482.0000000 92.430000305 -5.559999943 2.0799999237
 6483.0000000 6483.0000000 96.400001526 -4.949999809 2.0699999332
 6484.0000000 6484.0000000 96.980003357 -4.659999847 1.9299999475
 6485.0000000 6485.0000000 96.360000610 -5.360000134 1.7899999619
 6486.0000000 6486.0000000 100.22000122 -5.030000210 1.6900000572
 6487.0000000 6487.0000000 101.80000305 -4.010000229 1.6399999857
 6488.0000000 6488.0000000 104.58999634 -3.049999952 1.5900000334
 6489.0000000 6489.0000000 98.370002747 -3.799999952 1.5599999428
 6490.0000000 6490.0000000 95.739997864 -4.699999809 1.5599999428
 6491.0000000 6491.0000000 94.209999084 -5.659999847 1.6100000143
 6492.0000000 6492.0000000 90.099998474 -8.319999695 1.7799999714
 6493.0000000 6493.0000000 84.440002441 -14.14000034 2.6500000954
 6494.0000000 6494.0000000 68.949996948 -19.88999939 3.6900000572
 6495.0000000 6495.0000000 61.669998169 -24.26000023 4.8299999237
 6496.0000000 6496.0000000 59.650001526 -26.94000053 5.0000000000
 6497.0000000 6497.0000000 59.450000763 -28.90999985 4.4200000763
 6498.0000000 6498.0000000 60.979999542 -30.00000000 3.8099999428
 6499.0000000 6499.0000000 59.380001068 -31.19000053 3.4200000763
 6500.0000000 6500.0000000 61.000000000 -32.52999878 3.2599999905
 6501.0000000 6501.0000000 61.240001678 -33.08000183 3.2000000477
 6502.0000000 6502.0000000 62.810001373 -32.24000168 3.1199998856
 6503.0000000 6503.0000000 69.500000000 -31.25000000 3.0699999332
 6504.0000000 6504.0000000 66.330001831 -32.22000122 3.0199999809
 6505.0000000 6505.0000000 65.330001831 -33.84000015 2.9600000381
 6506.0000000 6506.0000000 68.569999695 -34.97000122 2.9200000763
 6507.0000000 6507.0000000 64.169998169 -35.20999908 2.9200000763
 6508.0000000 6508.0000000 61.240001678 -34.47000122 2.9600000381
 6509.0000000 6509.0000000 67.139999390 -32.95000076 3.0000000000
 6510.0000000 6510.0000000 64.500000000 -31.54999924 3.0299999714
 6511.0000000 6511.0000000 63.139999390 -30.56999969 3.0399999619
 6512.0000000 6512.0000000 67.180000305 -29.79999924 3.0799999237
 6513.0000000 6513.0000000 61.169998169 -29.73999977 3.1900000572
 6514.0000000 6514.0000000 63.229999542 -30.70000076 3.2400000095
 6515.0000000 6515.0000000 67.940002441 -32.04000092 3.2300000191
 6516.0000000 6516.0000000 60.270000458 -31.64999962 3.2400000095
 6517.0000000 6517.0000000 56.630001068 -31.55999947 3.3399999142
 6518.0000000 6518.0000000 59.490001678 -30.67000008 3.4900000095
 6519.0000000 6519.0000000 63.049999237 -27.34000015 3.7100000381
 6520.0000000 6520.0000000 64.290000916 -21.92000008 3.9200000763
 6521.0000000 6521.0000000 67.489997864 -13.93000031 3.9800000191
 6522.0000000 6522.0000000 87.139999390 -7.760000229 3.9500000477
 6523.0000000 6523.0000000 107.86000061 -2.990000010 1.5900000334
 6524.0000000 6524.0000000 102.70999908 -0.050000001 1.2500000000
 6525.0000000 6525.0000000 98.180000305 0.1500000060 1.1499999762
 6526.0000000 6526.0000000 95.720001221 -1.919999957 1.2599999905
 6527.0000000 6527.0000000 91.919998169 -3.710000038 1.5199999809
 6528.0000000 6528.0000000 89.480003357 -4.199999809 1.8400000334
 6529.0000000 6529.0000000 84.489997864 -3.890000105 2.1500000954
 6530.0000000 6530.0000000 80.599998474 -4.170000076 2.4700000286
 6531.0000000 6531.0000000 84.790000916 -5.090000153 2.7500000000
 6532.0000000 6532.0000000 85.059997559 -4.940000057 2.9500000477
 6533.0000000 6533.0000000 82.319999695 -4.579999924 2.9800000191
 6534.0000000 6534.0000000 82.059997559 -4.070000172 2.9300000668
 6535.0000000 6535.0000000 75.129997253 -4.099999905 2.9800000191
 6536.0000000 6536.0000000 79.190002441 -3.940000057 3.4400000572
 6537.0000000 6537.0000000 85.430000305 -4.000000000 3.2599999905
 6538.0000000 6538.0000000 91.620002747 -4.739999771 2.1600000858
 6539.0000000 6539.0000000 97.120002747 -4.900000095 1.7699999809
 6540.0000000 6540.0000000 94.269996643 -4.480000019 1.5599999428
 6541.0000000 6541.0000000 90.110000610 -3.960000038 1.5000000000
 6542.0000000 6542.0000000 88.199996948 -3.349999905 1.5599999428
 6543.0000000 6543.0000000 87.760002136 -2.799999952 1.6799999475
 6544.0000000 6544.0000000 84.589996338 -2.670000076 2.0799999237
 6545.0000000 6545.0000000 85.319999695 -2.950000048 1.7799999714
 6546.0000000 6546.0000000 90.309997559 -3.029999971 1.6799999475
 6547.0000000 6547.0000000 97.069999695 -3.130000114 1.5199999809
 6548.0000000 6548.0000000 97.809997559 -3.470000029 1.5000000000
 6549.0000000 6549.0000000 90.550003052 -4.090000153 1.5900000334
 6550.0000000 6550.0000000 88.019996643 -4.699999809 1.8099999428
 6551.0000000 6551.0000000 91.349998474 -4.889999866 2.4300000668
 6552.0000000 6552.0000000 91.860000610 -4.139999866 2.4700000286
 6553.0000000 6553.0000000 98.709999084 -3.259999990 2.2599999905
 6554.0000000 6554.0000000 108.19999695 -2.869999886 1.7100000381
 6555.0000000 6555.0000000 112.54000092 -2.660000086 1.4299999475
 6556.0000000 6556.0000000 106.09999847 -3.069999933 1.3200000525
 6557.0000000 6557.0000000 102.66999817 -3.230000019 1.3400000334
 6558.0000000 6558.0000000 97.839996338 -2.880000114 1.5399999619
 6559.0000000 6559.0000000 92.699996948 -3.980000019 2.6099998951
 6560.0000000 6560.0000000 88.760002136 -5.000000000 2.5399999619
 6561.0000000 6561.0000000 97.180000305 -5.329999924 1.9199999571
 6562.0000000 6562.0000000 99.129997253 -4.820000172 1.6499999762
 6563.0000000 6563.0000000 99.180000305 -3.990000010 1.4800000191
 6564.0000000 6564.0000000 99.470001221 -3.400000095 1.4099999666
 6565.0000000 6565.0000000 100.54000092 -2.940000057 1.4199999571
 6566.0000000 6566.0000000 99.550003052 -2.589999914 1.4400000572
 6567.0000000 6567.0000000 95.989997864 -2.579999924 1.3999999762
 6568.0000000 6568.0000000 97.019996643 -2.730000019 1.3500000238
 6569.0000000 6569.0000000 90.940002441 -2.849999905 1.2899999619
 6570.0000000 6570.0000000 92.220001221 -4.260000229 1.3200000525
 6571.0000000 6571.0000000 85.050003052 -4.829999924 1.5399999619
 6572.0000000 6572.0000000 89.730003357 -5.360000134 1.8600000143
 6573.0000000 6573.0000000 92.440002441 -6.699999809 2.3099999428
 6574.0000000 6574.0000000 86.680000305 -6.099999905 2.6600000858
 6575.0000000 6575.0000000 81.629997253 -5.230000019 3.3099999428
 6576.0000000 6576.0000000 80.760002136 -4.849999905 3.7999999523
 6577.0000000 6577.0000000 76.930000305 -4.800000191 4.4699997902
 6578.0000000 6578.0000000 83.040000916 -4.699999809 4.6100001335
 6579.0000000 6579.0000000 89.260002136 -4.300000191 4.2399997711
 6580.0000000 6580.0000000 91.589996338 -3.559999943 3.3299999237
 6581.0000000 6581.0000000 91.610000610 -4.119999886 2.7300000191
 6582.0000000 6582.0000000 95.830001831 -5.130000114 2.1099998951
 6583.0000000 6583.0000000 96.209999084 -4.880000114 1.4900000095
 6584.0000000 6584.0000000 99.099998474 -3.650000095 1.1000000238
 6585.0000000 6585.0000000 94.919998169 -2.140000105 0.8999999762
 6586.0000000 6586.0000000 99.660003662 -1.440000057 0.8199999928
 6587.0000000 6587.0000000 101.01999664 -1.990000010 0.7900000215
 6588.0000000 6588.0000000 104.41000366 -1.399999976 0.8399999738
 6589.0000000 6589.0000000 96.589996338 -1.049999952 1.0099999905
 6590.0000000 6590.0000000 89.910003662 -1.019999981 0.9700000286
 6591.0000000 6591.0000000 84.989997864 -1.549999952 1.0099999905
 6592.0000000 6592.0000000 82.180000305 -3.019999981 1.2200000286
 6593.0000000 6593.0000000 80.400001526 -4.550000191 1.4500000477
 6594.0000000 6594.0000000 85.300003052 -4.829999924 1.6699999571
 6595.0000000 6595.0000000 82.569999695 -4.329999924 1.8500000238
 6596.0000000 6596.0000000 79.699996948 -5.670000076 1.9500000477
 6597.0000000 6597.0000000 77.349998474 -6.510000229 2.1600000858
 6598.0000000 6598.0000000 74.839996338 -5.099999905 2.3900001049
 6599.0000000 6599.0000000 82.830001831 -3.089999914 3.0399999619
 6600.0000000 6600.0000000 93.790000916 -1.669999957 2.1700000763
 6601.0000000 6601.0000000 103.94000244 -1.320000052 1.6100000143
