# LAS format log file from PETREL
# Project units are specified as depth units
#==================================================================
~Version information
VERS.   2.0:
WRAP.   NO:
#==================================================================
~Well
STRT .m      3000.0000000 :
STOP .m      7750.0000000 :
STEP .m     1.00000000 :
NULL .        -999.250000 :
COMP.           : COMPANY
WELL.  WELL_2   : WELL
FLD.            : FIELD
LOC.            : LOCATION
SRVC.           : SERVICE COMPANY
DATE.  2023-03-20 17:52:46   : Log Export Date {yyyy-MM-dd HH:mm:ss}
PROV.           : PROVINCE
UWI.   WELL_2   : UNIQUE WELL ID
API.            : API NUMBER
#==================================================================
~Curve
DEPT .m                   : DEPTH
Depth .m                  : Depth
SP .mV                    : SP
SN .ohm.m                 : SN
LN .ohm.m                 : LN
LAT .ohm.m                : LAT
~Parameter
#==================================================================
~Ascii
# ...
 4530.0000000 4530.0000000 -0.709999979 1.5599999428 1.3999999762 1.3999999762
 4531.0000000 4531.0000000 -1.360000014 1.5099999905 1.3999999762 1.3999999762
 4532.0000000 4532.0000000 -1.990000010 1.4800000191 1.3999999762 1.3999999762
 4533.0000000 4533.0000000 -2.470000029 1.4700000286 1.3999999762 1.3999999762
 4534.0000000 4534.0000000 -2.950000048 1.4800000191 1.4099999666 1.4099999666
 4535.0000000 4535.0000000 -3.259999990 1.5000000000 1.4099999666 1.4099999666
 4536.0000000 4536.0000000 -3.470000029 1.5299999714 1.4199999571 1.4199999571
 4537.0000000 4537.0000000 -3.710000038 1.5399999619 1.4299999475 1.4299999475
 4538.0000000 4538.0000000 -3.970000029 1.5399999619 1.4400000572 1.4400000572
 4539.0000000 4539.0000000 -4.280000210 1.5299999714 1.4500000477 1.4500000477
 4540.0000000 4540.0000000 -4.059999943 1.5499999523 1.4600000381 1.4600000381
 4541.0000000 4541.0000000 -3.849999905 1.6000000238 1.4700000286 1.4700000286
 4542.0000000 4542.0000000 -3.819999933 1.6499999762 1.4600000381 1.4600000381
 4543.0000000 4543.0000000 -3.819999933 1.6699999571 1.4299999475 1.4299999475
 4544.0000000 4544.0000000 -3.140000105 1.6699999571 1.3600000143 1.3600000143
 4545.0000000 4545.0000000 -2.190000057 1.6299999952 1.3099999428 1.3099999428
 4546.0000000 4546.0000000 -1.220000029 1.5900000334 1.3099999428 1.3099999428
 4547.0000000 4547.0000000 0.2700000107 1.5499999523 1.3400000334 1.3400000334
 4548.0000000 4548.0000000 0.7200000286 1.5000000000 1.3600000143 1.3600000143
 4549.0000000 4549.0000000 0.8299999833 1.4500000477 1.3899999857 1.3899999857
 4550.0000000 4550.0000000 0.5699999928 1.4299999475 1.3999999762 1.3999999762
 4551.0000000 4551.0000000 0.1800000072 1.4099999666 1.3799999952 1.3799999952
 4552.0000000 4552.0000000 0.1800000072 1.3999999762 1.3600000143 1.3600000143
 4553.0000000 4553.0000000 0.6800000072 1.3899999857 1.3400000334 1.3400000334
 4554.0000000 4554.0000000 1.0000000000 1.3799999952 1.3200000525 1.3200000525
 4555.0000000 4555.0000000 1.1799999475 1.3600000143 1.2799999714 1.2799999714
 4556.0000000 4556.0000000 1.6100000143 1.3300000429 1.2400000095 1.2400000095
 4557.0000000 4557.0000000 1.9500000477 1.2899999619 1.2000000477 1.2000000477
 4558.0000000 4558.0000000 2.1800000668 1.2500000000 1.1599999666 1.1599999666
 4559.0000000 4559.0000000 2.0199999809 1.2000000477 1.1200000048 1.1200000048
 4560.0000000 4560.0000000 1.3899999857 1.1599999666 1.0700000525 1.0700000525
 4561.0000000 4561.0000000 0.8600000143 1.1100000143 1.0199999809 1.0199999809
 4562.0000000 4562.0000000 0.1099999994 1.0800000429 0.9700000286 0.9700000286
 4563.0000000 4563.0000000 -0.180000007 1.1399999857 0.9399999976 0.9399999976
 4564.0000000 4564.0000000 -0.550000012 1.2100000381 1.0000000000 1.0000000000
 4565.0000000 4565.0000000 -1.029999971 1.2899999619 1.1100000143 1.1100000143
 4566.0000000 4566.0000000 -0.870000005 1.3700000048 1.2200000286 1.2200000286
 4567.0000000 4567.0000000 0.3000000119 1.4600000381 1.3400000334 1.3400000334
 4568.0000000 4568.0000000 1.2699999809 1.5499999523 1.4600000381 1.4600000381
 4569.0000000 4569.0000000 1.1900000572 1.6399999857 1.5800000429 1.5800000429
 4570.0000000 4570.0000000 1.0000000000 1.7200000286 1.6900000572 1.6900000572
 4571.0000000 4571.0000000 0.7699999809 1.8099999428 1.7899999619 1.7899999619
 4572.0000000 4572.0000000 0.3499999940 1.8799999952 1.8899999857 1.8899999857
 4573.0000000 4573.0000000 -0.239999995 1.9299999475 1.9700000286 1.9700000286
 4574.0000000 4574.0000000 -0.980000019 1.9700000286 2.0399999619 2.0399999619
 4575.0000000 4575.0000000 -1.700000048 2.0099999905 2.0999999046 2.0999999046
 4576.0000000 4576.0000000 -2.500000000 2.3199999332 2.1400001049 2.1400001049
 4577.0000000 4577.0000000 -3.220000029 2.5199999809 2.1700000763 2.1700000763
 4578.0000000 4578.0000000 -3.779999971 2.6600000858 2.2000000477 2.2000000477
 4579.0000000 4579.0000000 -4.369999886 2.7599999905 2.1800000668 2.1800000668
 4580.0000000 4580.0000000 -4.659999847 2.8099999428 2.1600000858 2.1600000858
 4581.0000000 4581.0000000 -3.880000114 2.8099999428 2.1199998856 2.1199998856
 4582.0000000 4582.0000000 -1.889999986 2.5599999428 2.0799999237 2.0799999237
 4583.0000000 4583.0000000 -1.970000029 2.1600000858 2.0399999619 2.0399999619
 4584.0000000 4584.0000000 -2.200000048 2.0599999428 1.9900000095 1.9900000095
 4585.0000000 4585.0000000 -2.789999962 2.0000000000 1.9500000477 1.9500000477
 4586.0000000 4586.0000000 -2.690000057 1.9600000381 1.9099999666 1.9099999666
 4587.0000000 4587.0000000 -2.519999981 1.8999999762 1.8700000048 1.8700000048
 4588.0000000 4588.0000000 -2.250000000 1.7899999619 1.8300000429 1.8300000429
 4589.0000000 4589.0000000 -1.440000057 1.6499999762 1.8300000429 1.8300000429
 4590.0000000 4590.0000000 -4.710000038 1.9500000477 1.9900000095 1.9900000095
 4591.0000000 4591.0000000 -5.369999886 2.0699999332 2.0699999332 2.0699999332
 4592.0000000 4592.0000000 -6.079999924 2.2300000191 2.1400001049 2.1400001049
 4593.0000000 4593.0000000 -7.070000172 2.4200000763 2.1800000668 2.1800000668
 4594.0000000 4594.0000000 -8.680000305 2.6600000858 2.1600000858 2.1600000858
 4595.0000000 4595.0000000 -9.750000000 2.9500000477 2.0999999046 2.0999999046
 4596.0000000 4596.0000000 -10.94999981 3.1600000858 2.0499999523 2.0499999523
 4597.0000000 4597.0000000 -12.14999962 3.2100000381 1.9900000095 1.9900000095
 4598.0000000 4598.0000000 -9.449999809 3.0299999714 1.9199999571 1.9199999571
 4599.0000000 4599.0000000 -6.030000210 2.7500000000 1.8400000334 1.8400000334
 4600.0000000 4600.0000000 -4.079999924 2.3599998951 1.7799999714 1.7799999714
 4601.0000000 4601.0000000 -3.970000029 2.2100000381 1.7100000381 1.7100000381
 4602.0000000 4602.0000000 -4.039999962 2.1600000858 1.6699999571 1.6699999571
 4603.0000000 4603.0000000 -4.000000000 2.1199998856 1.6799999475 1.6799999475
 4604.0000000 4604.0000000 -3.299999952 2.0599999428 1.7100000381 1.7100000381
 4605.0000000 4605.0000000 -2.410000086 2.0000000000 1.7599999905 1.7599999905
 4606.0000000 4606.0000000 -0.469999999 1.9600000381 1.7799999714 1.7799999714
 4607.0000000 4607.0000000 1.3300000429 1.9299999475 1.7899999619 1.7899999619
 4608.0000000 4608.0000000 2.0999999046 1.9099999666 1.7799999714 1.7799999714
 4609.0000000 4609.0000000 2.3399999142 1.8999999762 1.7500000000 1.7500000000
 4610.0000000 4610.0000000 0.9200000167 1.8999999762 1.7100000381 1.7100000381
 4611.0000000 4611.0000000 0.4199999869 1.9099999666 1.6900000572 1.6900000572
 4612.0000000 4612.0000000 0.2399999946 1.8700000048 1.7000000477 1.7000000477
 4613.0000000 4613.0000000 0.4000000060 1.8500000238 1.7300000191 1.7300000191
 4614.0000000 4614.0000000 0.5500000119 1.8600000143 1.7500000000 1.7500000000
 4615.0000000 4615.0000000 0.6899999976 1.8899999857 1.7300000191 1.7300000191
 4616.0000000 4616.0000000 0.8399999738 1.9099999666 1.6799999475 1.6799999475
 4617.0000000 4617.0000000 1.0199999809 1.8500000238 1.6399999857 1.6399999857
 4618.0000000 4618.0000000 0.8399999738 1.7799999714 1.5800000429 1.5800000429
 4619.0000000 4619.0000000 0.2000000030 1.6799999475 1.5199999809 1.5199999809
 4620.0000000 4620.0000000 -0.699999988 1.5900000334 1.4600000381 1.4600000381
 4621.0000000 4621.0000000 -1.379999995 1.5399999619 1.4099999666 1.4099999666
 4622.0000000 4622.0000000 -1.750000000 1.5399999619 1.3600000143 1.3600000143
 4623.0000000 4623.0000000 -1.509999990 1.5399999619 1.3200000525 1.3200000525
 4624.0000000 4624.0000000 -0.959999979 1.5499999523 1.3400000334 1.3400000334
 4625.0000000 4625.0000000 -0.379999995 1.5700000525 1.3799999952 1.3799999952
 4626.0000000 4626.0000000 -0.239999995 1.5800000429 1.4199999571 1.4199999571
 4627.0000000 4627.0000000 -0.270000011 1.6000000238 1.4600000381 1.4600000381
 4628.0000000 4628.0000000 -0.100000001 1.6000000238 1.4900000095 1.4900000095
 4629.0000000 4629.0000000 0.6700000167 1.6000000238 1.5099999905 1.5099999905
 4630.0000000 4630.0000000 1.7400000095 1.5900000334 1.5299999714 1.5299999714
 4631.0000000 4631.0000000 2.7100000381 1.5700000525 1.5499999523 1.5499999523
