# LAS format log file from PETREL
# Project units are specified as depth units
#==================================================================
~Version information
VERS.   2.0:
WRAP.   NO:
#==================================================================
~Well
STRT .m      4650.0000000 :
STOP .m      7050.0000000 :
STEP .m     1.00000000 :
NULL .        -999.250000 :
COMP.           : COMPANY
WELL.  WELL_3   : WELL
FLD.            : FIELD
LOC.            : LOCATION
SRVC.           : SERVICE COMPANY
DATE.  2023-03-20 17:52:46   : Log Export Date {yyyy-MM-dd HH:mm:ss}
PROV.           : PROVINCE
UWI.   WELL_3   : UNIQUE WELL ID
API.            : API NUMBER
#==================================================================
~Curve
DEPT .m                   : DEPTH
Depth .m                  : Depth
SP .mV                    : SP
SN .ohm.m                 : SN
LN .ohm.m                 : LN
LAT .ohm.m                : LAT
~Parameter
#==================================================================
~Ascii
# ...
 6384.0000000 6384.0000000 -11.46000004 4.8000001907 4.3499999046 3.7799999714
 6385.0000000 6385.0000000 -11.67000008 4.8600001335 4.1399998665 4.0700001717
 6386.0000000 6386.0000000 -11.14000034 4.3699998856 4.1100001335 4.1599998474
 6387.0000000 6387.0000000 -10.02000046 3.8099999428 3.8499999046 3.8499999046
 6388.0000000 6388.0000000 -8.609999657 3.4800000191 3.1700000763 3.6400001049
 6389.0000000 6389.0000000 -7.539999962 3.1099998951 2.6700000763 3.8099999428
 6390.0000000 6390.0000000 -6.480000019 2.4600000381 2.3599998951 3.8499999046
 6391.0000000 6391.0000000 -5.449999809 2.0000000000 2.2200000286 2.9200000763
 6392.0000000 6392.0000000 -4.590000153 1.7200000286 2.1700000763 2.3299999237
 6393.0000000 6393.0000000 -3.940000057 1.5399999619 2.0899999142 2.0499999523
 6394.0000000 6394.0000000 -3.230000019 1.3300000429 1.9900000095 1.8200000525
 6395.0000000 6395.0000000 -2.730000019 1.1900000572 1.9500000477 1.5800000429
 6396.0000000 6396.0000000 -2.769999981 1.1499999762 1.9600000381 1.3999999762
 6397.0000000 6397.0000000 -4.039999962 1.2400000095 1.8999999762 1.1900000572
 6398.0000000 6398.0000000 -5.769999981 1.6399999857 1.7699999809 1.2599999905
 6399.0000000 6399.0000000 -7.539999962 2.1500000954 1.6299999952 1.8400000334
 6400.0000000 6400.0000000 -8.850000381 2.8599998951 1.5299999714 2.5000000000
 6401.0000000 6401.0000000 -9.300000191 2.8299999237 1.4700000286 2.9700000286
 6402.0000000 6402.0000000 -9.069999695 2.3399999142 1.5299999714 3.0499999523
 6403.0000000 6403.0000000 -8.119999886 1.8099999428 1.6200000048 2.6900000572
 6404.0000000 6404.0000000 -7.130000114 1.4800000191 1.7000000477 2.4100000858
 6405.0000000 6405.0000000 -6.340000153 1.3099999428 1.7400000095 2.2000000477
 6406.0000000 6406.0000000 -5.619999886 1.2200000286 1.7400000095 1.9199999571
 6407.0000000 6407.0000000 -4.900000095 1.1599999666 1.7699999809 1.5499999523
 6408.0000000 6408.0000000 -4.780000210 1.2200000286 1.8400000334 1.4199999571
 6409.0000000 6409.0000000 -5.320000172 1.4600000381 1.9199999571 1.3400000334
 6410.0000000 6410.0000000 -6.659999847 1.9099999666 1.9900000095 1.2599999905
 6411.0000000 6411.0000000 -8.649999619 2.4900000095 2.0399999619 1.3700000048
 6412.0000000 6412.0000000 -10.36999989 2.9300000668 2.1400001049 1.8099999428
 6413.0000000 6413.0000000 -11.01000023 3.2100000381 2.2999999523 2.1500000954
 6414.0000000 6414.0000000 -11.47999954 3.2200000286 2.4800000191 2.3099999428
 6415.0000000 6415.0000000 -11.65999985 3.0299999714 2.6400001049 2.3299999237
 6416.0000000 6416.0000000 -11.64000034 2.8499999046 2.5099999905 2.2699999809
 6417.0000000 6417.0000000 -11.18000031 2.7500000000 2.0899999142 2.3900001049
 6418.0000000 6418.0000000 -10.22999954 2.4700000286 1.7899999619 2.7000000477
 6419.0000000 6419.0000000 -8.630000114 1.9099999666 1.6699999571 2.9100000858
 6420.0000000 6420.0000000 -6.710000038 1.3999999762 1.7599999905 2.6400001049
 6421.0000000 6421.0000000 -4.619999886 1.2300000191 1.8600000143 1.8899999857
 6422.0000000 6422.0000000 -5.110000134 1.2100000381 1.8400000334 1.3400000334
 6423.0000000 6423.0000000 -7.000000000 1.3500000238 1.6499999762 1.1699999571
 6424.0000000 6424.0000000 -8.000000000 1.5099999905 1.4500000477 1.3500000238
 6425.0000000 6425.0000000 -8.399999619 1.6900000572 1.3200000525 1.5800000429
 6426.0000000 6426.0000000 -8.100000381 1.7100000381 1.2500000000 1.7300000191
 6427.0000000 6427.0000000 -7.190000057 1.5299999714 1.2500000000 1.7999999523
 6428.0000000 6428.0000000 -5.980000019 1.3099999428 1.2999999523 1.7100000381
 6429.0000000 6429.0000000 -4.690000057 1.0900000334 1.3799999952 1.5199999809
 6430.0000000 6430.0000000 -3.230000019 1.0000000000 1.4800000191 1.3500000238
 6431.0000000 6431.0000000 -1.809999943 0.9800000191 1.5599999428 1.1799999475
 6432.0000000 6432.0000000 -1.500000000 1.0599999428 1.5800000429 1.1100000143
 6433.0000000 6433.0000000 -1.899999976 1.2599999905 1.5599999428 1.2100000381
 6434.0000000 6434.0000000 -2.819999933 1.4900000095 1.5299999714 1.3999999762
 6435.0000000 6435.0000000 -3.299999952 1.6499999762 1.5199999809 1.6499999762
 6436.0000000 6436.0000000 -2.900000095 1.6799999475 1.5700000525 1.8200000525
 6437.0000000 6437.0000000 -2.589999914 1.6100000143 1.6900000572 1.8700000048
 6438.0000000 6438.0000000 -2.640000105 1.5199999809 1.7999999523 1.8099999428
 6439.0000000 6439.0000000 -2.980000019 1.4500000477 1.8799999952 1.7200000286
 6440.0000000 6440.0000000 -3.250000000 1.4299999475 1.8999999762 1.6299999952
 6441.0000000 6441.0000000 -3.509999990 1.4199999571 1.8899999857 1.5700000525
 6442.0000000 6442.0000000 -3.789999962 1.4500000477 1.8999999762 1.4900000095
 6443.0000000 6443.0000000 -4.050000191 1.5299999714 1.8999999762 1.4800000191
 6444.0000000 6444.0000000 -4.280000210 1.6100000143 1.9299999475 1.5499999523
 6445.0000000 6445.0000000 -4.369999886 1.6699999571 1.9500000477 1.6399999857
 6446.0000000 6446.0000000 -4.320000172 1.7100000381 1.9900000095 1.7100000381
 6447.0000000 6447.0000000 -4.289999962 1.7999999523 2.0199999809 1.7599999905
 6448.0000000 6448.0000000 -4.369999886 1.8799999952 2.0000000000 1.7899999619
 6449.0000000 6449.0000000 -4.659999847 1.8999999762 1.9900000095 1.8300000429
 6450.0000000 6450.0000000 -4.880000114 1.8400000334 2.0599999428 1.8400000334
 6451.0000000 6451.0000000 -4.699999809 1.7300000191 2.1900000572 1.7500000000
 6452.0000000 6452.0000000 -4.429999828 1.6599999666 2.3299999237 1.5900000334
 6453.0000000 6453.0000000 -4.219999790 1.6799999475 2.4600000381 1.4600000381
 6454.0000000 6454.0000000 -4.760000229 1.8099999428 2.5899999142 1.3799999952
 6455.0000000 6455.0000000 -6.510000229 2.0599999428 2.7000000477 1.3400000334
 6456.0000000 6456.0000000 -8.579999924 2.4000000954 2.8299999237 1.3799999952
 6457.0000000 6457.0000000 -11.46000004 2.8599998951 3.0299999714 1.5099999905
 6458.0000000 6458.0000000 -14.05000019 3.5499999523 3.4100000858 1.7999999523
 6459.0000000 6459.0000000 -16.09000015 4.2600002289 4.0599999428 2.1600000858
 6460.0000000 6460.0000000 -17.04000092 5.2600002289 4.6100001335 2.7200000286
 6461.0000000 6461.0000000 -18.06999969 6.3699998856 5.1700000763 3.4600000381
 6462.0000000 6462.0000000 -19.03000069 6.9899997711 5.9400000572 4.1100001335
 6463.0000000 6463.0000000 -19.79999924 7.0500001907 6.7399997711 4.3800001144
 6464.0000000 6464.0000000 -20.31999969 6.6300001144 7.5999999046 4.4499998093
 6465.0000000 6465.0000000 -20.55999947 6.0799999237 8.0000000000 4.2199997902
 6466.0000000 6466.0000000 -20.56999969 5.5900001526 7.8600001335 3.9200000763
 6467.0000000 6467.0000000 -20.19000053 5.1799998283 6.5399999619 3.7799999714
 6468.0000000 6468.0000000 -18.76000023 4.7500000000 5.4800000191 3.7400000095
 6469.0000000 6469.0000000 -16.56999969 4.0500001907 4.8000001907 3.9600000381
 6470.0000000 6470.0000000 -13.55000019 3.4100000858 4.4499998093 4.1500000954
 6471.0000000 6471.0000000 -9.760000229 2.9500000477 4.4899997711 3.7000000477
 6472.0000000 6472.0000000 -7.679999828 2.7400000095 4.5799999237 3.0000000000
 6473.0000000 6473.0000000 -7.389999866 2.8399999142 4.3600001335 2.2599999905
 6474.0000000 6474.0000000 -10.19999981 3.2200000286 3.9900000095 2.2000000477
 6475.0000000 6475.0000000 -13.21000004 3.8299999237 3.5299999714 2.7200000286
 6476.0000000 6476.0000000 -14.98999977 4.2199997902 3.0699999332 3.5299999714
 6477.0000000 6477.0000000 -14.69999981 4.0399999619 2.6900000572 4.1700000763
 6478.0000000 6478.0000000 -12.59000015 3.2899999619 2.8199999332 5.0300002098
 6479.0000000 6479.0000000 -8.939999580 2.4000000954 3.0399999619 6.0399999619
 6480.0000000 6480.0000000 -6.730000019 2.1500000954 3.2200000286 5.2699999809
 6481.0000000 6481.0000000 -6.449999809 2.1099998951 3.2699999809 3.7100000381
 6482.0000000 6482.0000000 -6.920000076 2.1700000763 3.1300001144 2.8099999428
 6483.0000000 6483.0000000 -7.949999809 2.3099999428 2.8499999046 2.8299999237
 6484.0000000 6484.0000000 -8.810000420 2.4500000477 2.7000000477 3.0999999046
 6485.0000000 6485.0000000 -9.039999962 2.4800000191 2.5999999046 3.3399999142
