# LAS format log file from PETREL
# Project units are specified as depth units
#==================================================================
~Version information
VERS.   2.0:
WRAP.   NO:
#==================================================================
~Well
STRT .m      4650.0000000 :
STOP .m      7300.0000000 :
STEP .m     1.00000000 :
NULL .        -999.250000 :
COMP.           : COMPANY
WELL.  WELL_6   : WELL
FLD.            : FIELD
LOC.            : LOCATION
SRVC.           : SERVICE COMPANY
DATE.  2023-03-20 17:52:46   : Log Export Date {yyyy-MM-dd HH:mm:ss}
PROV.           : PROVINCE
UWI.   WELL_6   : UNIQUE WELL ID
API.            : API NUMBER
#==================================================================
~Curve
DEPT .m                   : DEPTH
Depth .m                  : Depth
GR .gAPI                  : GR
SP .mV                    : SP
RT .ohm.m                 : RT
~Parameter
#==================================================================
~Ascii
# ...
 5504.0000000 5504.0000000 135.82000732 -9.380000114 2.3399999142
 5505.0000000 5505.0000000 133.64999390 -8.810000420 2.2000000477
 5506.0000000 5506.0000000 128.33000183 -7.019999981 1.7799999714
 5507.0000000 5507.0000000 135.33000183 -6.099999905 1.5900000334
 5508.0000000 5508.0000000 138.14999390 -5.429999828 1.6399999857
 5509.0000000 5509.0000000 132.77000427 -6.130000114 1.7300000191
 5510.0000000 5510.0000000 130.33999634 -5.889999866 1.8300000429
 5511.0000000 5511.0000000 119.80000305 -4.449999809 1.9199999571
 5512.0000000 5512.0000000 113.16000366 -3.680000067 1.9400000572
 5513.0000000 5513.0000000 118.95999908 -4.000000000 1.9299999475
 5514.0000000 5514.0000000 122.47000122 -5.030000210 1.9099999666
 5515.0000000 5515.0000000 123.84999847 -5.409999847 1.9299999475
 5516.0000000 5516.0000000 121.69999695 -5.360000134 1.9800000191
 5517.0000000 5517.0000000 129.92999268 -4.809999943 2.0000000000
 5518.0000000 5518.0000000 133.89999390 -4.519999981 1.9800000191
 5519.0000000 5519.0000000 127.08000183 -5.559999943 1.9700000286
 5520.0000000 5520.0000000 126.08000183 -5.679999828 2.0299999714
 5521.0000000 5521.0000000 123.29000092 -4.550000191 2.1900000572
 5522.0000000 5522.0000000 126.38999939 -4.329999924 2.2799999714
 5523.0000000 5523.0000000 132.41999817 -4.050000191 2.1500000954
 5524.0000000 5524.0000000 134.22000122 -3.160000086 1.8300000429
 5525.0000000 5525.0000000 120.51999664 -3.470000029 1.6599999666
 5526.0000000 5526.0000000 117.55000305 -4.190000057 1.5499999523
 5527.0000000 5527.0000000 134.97999573 -3.940000057 1.4800000191
 5528.0000000 5528.0000000 138.44000244 -3.369999886 1.5499999523
 5529.0000000 5529.0000000 136.61000061 -4.000000000 1.5599999428
 5530.0000000 5530.0000000 137.25000000 -4.309999943 1.6499999762
 5531.0000000 5531.0000000 135.47999573 -3.779999971 1.7899999619
 5532.0000000 5532.0000000 127.87999725 -3.039999962 1.9099999666
 5533.0000000 5533.0000000 127.48000336 -2.319999933 2.1800000668
 5534.0000000 5534.0000000 109.73000336 -3.000000000 1.9299999475
 5535.0000000 5535.0000000 97.889999390 -4.820000172 1.7999999523
 5536.0000000 5536.0000000 128.97000122 -5.230000019 1.7599999905
 5537.0000000 5537.0000000 138.61999512 -5.269999981 1.7799999714
 5538.0000000 5538.0000000 141.21000671 -6.000000000 1.9299999475
 5539.0000000 5539.0000000 136.25999451 -7.429999828 2.1500000954
 5540.0000000 5540.0000000 133.02000427 -8.840000153 2.3399999142
 5541.0000000 5541.0000000 134.08000183 -9.449999809 2.4000000954
 5542.0000000 5542.0000000 135.57000732 -8.710000038 2.3599998951
 5543.0000000 5543.0000000 139.38999939 -7.750000000 2.2999999523
 5544.0000000 5544.0000000 129.63999939 -7.010000229 2.2999999523
 5545.0000000 5545.0000000 126.43000031 -8.840000153 2.3399999142
 5546.0000000 5546.0000000 127.30999756 -9.899999619 2.5499999523
 5547.0000000 5547.0000000 121.23000336 -10.46000004 2.9000000954
 5548.0000000 5548.0000000 125.38999939 -10.90999985 3.2400000095
 5549.0000000 5549.0000000 125.41999817 -10.89999962 3.3399999142
 5550.0000000 5550.0000000 138.33999634 -11.05000019 3.0399999619
 5551.0000000 5551.0000000 127.97000122 -11.86999989 2.9400000572
 5552.0000000 5552.0000000 117.83999634 -12.32999992 3.0399999619
 5553.0000000 5553.0000000 129.44999695 -11.76000023 3.1300001144
 5554.0000000 5554.0000000 127.02999878 -10.31999969 3.0399999619
 5555.0000000 5555.0000000 124.51999664 -8.470000267 2.8199999332
 5556.0000000 5556.0000000 128.41000366 -9.329999924 2.7000000477
 5557.0000000 5557.0000000 126.40000153 -9.609999657 2.5999999046
 5558.0000000 5558.0000000 129.00000000 -9.260000229 2.5499999523
 5559.0000000 5559.0000000 136.13999939 -8.550000191 2.6099998951
 5560.0000000 5560.0000000 132.69999695 -8.819999695 2.6500000954
 5561.0000000 5561.0000000 130.89999390 -10.53999996 2.7200000286
 5562.0000000 5562.0000000 124.91000366 -10.02000046 2.6700000763
 5563.0000000 5563.0000000 120.83999634 -8.560000420 2.5499999523
 5564.0000000 5564.0000000 118.91000366 -6.900000095 2.2599999905
 5565.0000000 5565.0000000 123.05999756 -4.980000019 2.0099999905
 5566.0000000 5566.0000000 126.15000153 -3.319999933 1.8099999428
 5567.0000000 5567.0000000 130.78999329 -2.380000114 1.7200000286
 5568.0000000 5568.0000000 126.19000244 -2.059999943 1.4800000191
 5569.0000000 5569.0000000 124.27999878 -1.700000048 1.4099999666
 5570.0000000 5570.0000000 131.19000244 -1.259999990 1.4099999666
 5571.0000000 5571.0000000 125.02999878 -3.220000029 1.5499999523
 5572.0000000 5572.0000000 113.09999847 -5.710000038 1.7599999905
 5573.0000000 5573.0000000 110.16999817 -6.360000134 2.1600000858
 5574.0000000 5574.0000000 117.52999878 -5.659999847 2.4200000763
 5575.0000000 5575.0000000 123.94000244 -4.500000000 2.2300000191
 5576.0000000 5576.0000000 126.62000275 -3.019999981 2.0899999142
 5577.0000000 5577.0000000 129.02999878 -2.170000076 1.9099999666
 5578.0000000 5578.0000000 131.16999817 -2.210000038 1.8799999952
 5579.0000000 5579.0000000 120.86000061 -3.109999895 2.0099999905
 5580.0000000 5580.0000000 109.19999695 -3.529999971 2.1700000763
 5581.0000000 5581.0000000 107.43000031 -3.019999981 2.4000000954
 5582.0000000 5582.0000000 112.55000305 -2.779999971 1.8099999428
 5583.0000000 5583.0000000 119.80000305 -3.599999905 1.5900000334
 5584.0000000 5584.0000000 121.52999878 -3.920000076 1.4800000191
 5585.0000000 5585.0000000 121.02999878 -3.789999962 1.4600000381
 5586.0000000 5586.0000000 122.90000153 -3.480000019 1.4900000095
 5587.0000000 5587.0000000 123.73000336 -3.180000067 1.5399999619
 5588.0000000 5588.0000000 122.31999969 -2.789999962 1.5900000334
 5589.0000000 5589.0000000 125.87999725 -2.200000048 1.6499999762
 5590.0000000 5590.0000000 131.50000000 -1.779999971 1.6900000572
 5591.0000000 5591.0000000 129.30999756 -1.799999952 1.6900000572
 5592.0000000 5592.0000000 133.38000488 -1.929999948 1.7100000381
 5593.0000000 5593.0000000 142.08000183 -2.059999943 1.8200000525
 5594.0000000 5594.0000000 144.53999329 -3.430000067 2.0099999905
 5595.0000000 5595.0000000 136.21000671 -5.210000038 2.2699999809
 5596.0000000 5596.0000000 125.98999786 -5.670000076 2.5299999714
 5597.0000000 5597.0000000 121.83000183 -5.900000095 2.7500000000
 5598.0000000 5598.0000000 122.09999847 -6.090000153 2.8199999332
 5599.0000000 5599.0000000 121.98999786 -4.630000114 2.5899999142
 5600.0000000 5600.0000000 126.76999664 -3.319999933 2.2000000477
 5601.0000000 5601.0000000 130.55999756 -1.809999943 1.7899999619
 5602.0000000 5602.0000000 122.80999756 -1.179999948 1.5700000525
 5603.0000000 5603.0000000 109.04000092 -1.690000057 1.4700000286
 5604.0000000 5604.0000000 109.23000336 -2.579999924 1.4600000381
 5605.0000000 5605.0000000 114.30999756 -3.869999886 1.5199999809
 5606.0000000 5606.0000000 120.54000092 -4.869999886 1.6000000238
 5607.0000000 5607.0000000 129.22000122 -4.980000019 1.6900000572
 5608.0000000 5608.0000000 126.94000244 -4.550000191 1.7300000191
 5609.0000000 5609.0000000 124.83000183 -4.110000134 1.7500000000
 5610.0000000 5610.0000000 120.98999786 -3.559999943 1.7899999619
 5611.0000000 5611.0000000 122.27999878 -3.960000038 1.8700000048
 5612.0000000 5612.0000000 130.85000610 -3.390000105 1.9900000095
 5613.0000000 5613.0000000 132.78999329 -3.730000019 2.1800000668
 5614.0000000 5614.0000000 121.41000366 -4.909999847 2.3900001049
 5615.0000000 5615.0000000 125.90000153 -5.190000057 2.3399999142
 5616.0000000 5616.0000000 136.03999329 -6.039999962 2.2899999619
 5617.0000000 5617.0000000 137.75000000 -7.280000210 2.2899999619
 5618.0000000 5618.0000000 137.71000671 -9.380000114 2.4400000572
 5619.0000000 5619.0000000 141.30999756 -12.50000000 2.7100000381
 5620.0000000 5620.0000000 143.83999634 -14.52999973 3.0999999046
 5621.0000000 5621.0000000 137.11000061 -14.81999969 3.4500000477
 5622.0000000 5622.0000000 136.52999878 -13.97000027 3.4100000858
 5623.0000000 5623.0000000 135.10000610 -12.40999985 3.2000000477
 5624.0000000 5624.0000000 136.52999878 -11.09000015 3.1500000954
 5625.0000000 5625.0000000 131.02000427 -10.97000027 3.3399999142
