# LAS format log file from PETREL
# Project units are specified as depth units
#==================================================================
~Version information
VERS.   2.0:
WRAP.   NO:
#==================================================================
~Well
STRT .m      4561.0000000 :
STOP .m      7034.0000000 :
STEP .m     1.00000000 :
NULL .        -999.250000 :
COMP.           : COMPANY
WELL.  WELL_5   : WELL
FLD.            : FIELD
LOC.            : LOCATION
SRVC.           : SERVICE COMPANY
DATE.  2023-03-20 17:52:46   : Log Export Date {yyyy-MM-dd HH:mm:ss}
PROV.           : PROVINCE
UWI.   WELL_5   : UNIQUE WELL ID
API.            : API NUMBER
#==================================================================
~Curve
DEPT .m                   : DEPTH
Depth .m                  : Depth
SN .ohm.m                 : SN
ILD .ohm.m                : ILD
~Parameter
#==================================================================
~Ascii
# ...
 6373.0000000 6373.0000000 5.0999999046 4.1199998856
 6374.0000000 6374.0000000 4.9899997711 4.3699998856
 6375.0000000 6375.0000000 5.3600001335 4.5000000000
 6376.0000000 6376.0000000 5.6399998665 3.9000000954
 6377.0000000 6377.0000000 5.1199998856 3.0099999905
 6378.0000000 6378.0000000 3.9200000763 2.3099999428
 6379.0000000 6379.0000000 2.8499999046 2.1199998856
 6380.0000000 6380.0000000 2.4400000572 2.0499999523
 6381.0000000 6381.0000000 2.4900000095 1.9700000286
 6382.0000000 6382.0000000 2.5699999332 1.8500000238
 6383.0000000 6383.0000000 2.2699999809 1.5199999809
 6384.0000000 6384.0000000 1.8099999428 1.0700000525
 6385.0000000 6385.0000000 1.4700000286 0.8199999928
 6386.0000000 6386.0000000 1.2999999523 0.7799999714
 6387.0000000 6387.0000000 1.3200000525 0.8299999833
 6388.0000000 6388.0000000 1.6000000238 1.0399999619
 6389.0000000 6389.0000000 2.2400000095 1.3799999952
 6390.0000000 6390.0000000 2.7100000381 2.1800000668
 6391.0000000 6391.0000000 2.7899999619 2.6400001049
 6392.0000000 6392.0000000 2.9200000763 2.7899999619
 6393.0000000 6393.0000000 3.0999999046 2.8199999332
 6394.0000000 6394.0000000 3.2899999619 2.6300001144
 6395.0000000 6395.0000000 3.2200000286 2.0099999905
 6396.0000000 6396.0000000 2.4400000572 1.4800000191
 6397.0000000 6397.0000000 1.7999999523 0.9499999881
 6398.0000000 6398.0000000 1.3500000238 0.8299999833
 6399.0000000 6399.0000000 1.1900000572 0.8000000119
 6400.0000000 6400.0000000 1.1699999571 0.8500000238
 6401.0000000 6401.0000000 1.2799999714 0.9499999881
 6402.0000000 6402.0000000 1.4500000477 1.2100000381
 6403.0000000 6403.0000000 1.6299999952 1.6200000048
 6404.0000000 6404.0000000 1.8200000525 1.8799999952
 6405.0000000 6405.0000000 1.9299999475 1.8400000334
 6406.0000000 6406.0000000 1.8200000525 1.5599999428
 6407.0000000 6407.0000000 1.5399999619 1.1200000048
 6408.0000000 6408.0000000 1.2899999619 0.8700000048
 6409.0000000 6409.0000000 1.1299999952 0.8000000119
 6410.0000000 6410.0000000 1.0900000334 0.7799999714
 6411.0000000 6411.0000000 1.1100000143 0.8500000238
 6412.0000000 6412.0000000 1.1599999666 0.9599999785
 6413.0000000 6413.0000000 1.2599999905 1.1299999952
 6414.0000000 6414.0000000 1.4400000572 1.4099999666
 6415.0000000 6415.0000000 1.8400000334 1.7200000286
 6416.0000000 6416.0000000 2.2200000286 2.0199999809
 6417.0000000 6417.0000000 2.5999999046 2.3499999046
 6418.0000000 6418.0000000 2.7599999905 2.6500000954
 6419.0000000 6419.0000000 2.8299999237 2.5399999619
 6420.0000000 6420.0000000 2.7300000191 2.2899999619
 6421.0000000 6421.0000000 2.4500000477 1.9400000572
 6422.0000000 6422.0000000 1.9800000191 1.4500000477
 6423.0000000 6423.0000000 1.5900000334 1.2000000477
 6424.0000000 6424.0000000 1.3799999952 1.0399999619
 6425.0000000 6425.0000000 1.3300000429 0.9700000286
 6426.0000000 6426.0000000 1.3400000334 1.0399999619
 6427.0000000 6427.0000000 1.4400000572 1.2400000095
 6428.0000000 6428.0000000 1.6499999762 1.3999999762
 6429.0000000 6429.0000000 1.9500000477 1.5199999809
 6430.0000000 6430.0000000 2.1500000954 1.6100000143
 6431.0000000 6431.0000000 2.0299999714 1.6499999762
 6432.0000000 6432.0000000 1.9099999666 1.5700000525
 6433.0000000 6433.0000000 1.8799999952 1.5199999809
 6434.0000000 6434.0000000 1.8899999857 1.5199999809
 6435.0000000 6435.0000000 1.8700000048 1.4199999571
 6436.0000000 6436.0000000 1.7300000191 1.3400000334
 6437.0000000 6437.0000000 1.6499999762 1.3400000334
 6438.0000000 6438.0000000 1.6599999666 1.3300000429
 6439.0000000 6439.0000000 1.7300000191 1.3500000238
 6440.0000000 6440.0000000 1.7899999619 1.4199999571
 6441.0000000 6441.0000000 1.8500000238 1.5099999905
 6442.0000000 6442.0000000 1.8999999762 1.5499999523
 6443.0000000 6443.0000000 1.9299999475 1.5599999428
 6444.0000000 6444.0000000 1.9800000191 1.5599999428
 6445.0000000 6445.0000000 2.0499999523 1.5900000334
 6446.0000000 6446.0000000 2.1700000763 1.7400000095
 6447.0000000 6447.0000000 2.5399999619 2.0999999046
 6448.0000000 6448.0000000 3.1800000668 2.8599998951
 6449.0000000 6449.0000000 4.0799999237 4.0100002289
 6450.0000000 6450.0000000 5.3699998856 5.5799999237
 6451.0000000 6451.0000000 7.0100002289 7.0000000000
 6452.0000000 6452.0000000 8.6099996567 8.6999998093
 6453.0000000 6453.0000000 9.1199998856 10.310000420
 6454.0000000 6454.0000000 9.6499996185 11.680000305
 6455.0000000 6455.0000000 10.189999580 11.970000267
 6456.0000000 6456.0000000 10.239999771 11.310000420
 6457.0000000 6457.0000000 9.7500000000 10.270000458
 6458.0000000 6458.0000000 8.6000003815 9.0399999619
 6459.0000000 6459.0000000 8.0299997330 7.9099998474
 6460.0000000 6460.0000000 7.7199997902 7.0500001907
 6461.0000000 6461.0000000 7.7600002289 6.6900000572
 6462.0000000 6462.0000000 7.9200000763 6.8200001717
 6463.0000000 6463.0000000 7.6999998093 5.5900001526
 6464.0000000 6464.0000000 6.8299999237 4.1300001144
 6465.0000000 6465.0000000 4.8000001907 3.3900001049
 6466.0000000 6466.0000000 3.7799999714 2.8599998951
 6467.0000000 6467.0000000 3.4100000858 2.6400001049
 6468.0000000 6468.0000000 3.6500000954 2.7599999905
 6469.0000000 6469.0000000 3.9600000381 2.9100000858
 6470.0000000 6470.0000000 4.0599999428 2.9200000763
 6471.0000000 6471.0000000 3.4200000763 2.6900000572
 6472.0000000 6472.0000000 2.9200000763 2.5599999428
 6473.0000000 6473.0000000 2.7899999619 2.4100000858
 6474.0000000 6474.0000000 2.9300000668 2.5399999619
 6475.0000000 6475.0000000 3.1500000954 2.7100000381
 6476.0000000 6476.0000000 3.0799999237 2.5199999809
 6477.0000000 6477.0000000 2.6800000668 2.0999999046
 6478.0000000 6478.0000000 2.1500000954 1.7000000477
 6479.0000000 6479.0000000 1.7999999523 1.3099999428
 6480.0000000 6480.0000000 1.6900000572 1.2400000095
 6481.0000000 6481.0000000 1.6799999475 1.2799999714
 6482.0000000 6482.0000000 1.6799999475 1.3200000525
 6483.0000000 6483.0000000 1.6399999857 1.3400000334
 6484.0000000 6484.0000000 1.6100000143 1.3400000334
 6485.0000000 6485.0000000 1.6000000238 1.3400000334
 6486.0000000 6486.0000000 1.6000000238 1.3700000048
 6487.0000000 6487.0000000 1.6900000572 1.4299999475
 6488.0000000 6488.0000000 1.7799999714 1.4700000286
 6489.0000000 6489.0000000 1.8099999428 1.4900000095
 6490.0000000 6490.0000000 1.7500000000 1.4900000095
 6491.0000000 6491.0000000 1.6900000572 1.4600000381
 6492.0000000 6492.0000000 1.6699999571 1.4500000477
 6493.0000000 6493.0000000 1.7699999809 1.5199999809
 6494.0000000 6494.0000000 1.9400000572 1.6399999857
 6495.0000000 6495.0000000 2.0199999809 1.7699999809
 6496.0000000 6496.0000000 2.0599999428 1.8500000238
 6497.0000000 6497.0000000 2.0499999523 1.6799999475
 6498.0000000 6498.0000000 1.9199999571 1.4600000381
 6499.0000000 6499.0000000 1.6799999475 1.2899999619
 6500.0000000 6500.0000000 1.5099999905 1.2000000477
 6501.0000000 6501.0000000 1.4299999475 1.2500000000
 6502.0000000 6502.0000000 1.5599999428 1.3099999428
 6503.0000000 6503.0000000 1.7500000000 1.3700000048
 6504.0000000 6504.0000000 1.8400000334 1.5099999905
 6505.0000000 6505.0000000 1.7899999619 1.6399999857
 6506.0000000 6506.0000000 1.7000000477 1.4800000191
 6507.0000000 6507.0000000 1.6000000238 1.3500000238
 6508.0000000 6508.0000000 1.5099999905 1.2999999523
 6509.0000000 6509.0000000 1.4400000572 1.2000000477
 6510.0000000 6510.0000000 1.4099999666 1.1599999666
 6511.0000000 6511.0000000 1.4299999475 1.1900000572
 6512.0000000 6512.0000000 1.4900000095 1.3500000238
 6513.0000000 6513.0000000 1.6499999762 1.6200000048
 6514.0000000 6514.0000000 1.9900000095 1.9500000477
 6515.0000000 6515.0000000 2.4700000286 2.4100000858
 6516.0000000 6516.0000000 2.8099999428 2.8199999332
 6517.0000000 6517.0000000 3.1300001144 3.1800000668
 6518.0000000 6518.0000000 3.5699999332 3.7100000381
 6519.0000000 6519.0000000 4.2100000381 4.3699998856
 6520.0000000 6520.0000000 5.0900001526 5.0399999619
 6521.0000000 6521.0000000 5.6300001144 5.0700001717
 6522.0000000 6522.0000000 4.9699997902 3.9500000477
 6523.0000000 6523.0000000 3.7699999809 2.7699999809
