# LAS format log file from PETREL
# Project units are specified as depth units
#==================================================================
~Version information
VERS.   2.0:
WRAP.   NO:
#==================================================================
~Well
STRT .m      4650.0000000 :
STOP .m      7050.0000000 :
STEP .m     1.00000000 :
NULL .        -999.250000 :
COMP.           : COMPANY
WELL.  WELL_3   : WELL
FLD.            : FIELD
LOC.            : LOCATION
SRVC.           : SERVICE COMPANY
DATE.  2023-03-20 17:52:46   : Log Export Date {yyyy-MM-dd HH:mm:ss}
PROV.           : PROVINCE
UWI.   WELL_3   : UNIQUE WELL ID
API.            : API NUMBER
#==================================================================
~Curve
DEPT .m                   : DEPTH
Depth .m                  : Depth
SP .mV                    : SP
SN .ohm.m                 : SN
LN .ohm.m                 : LN
LAT .ohm.m                : LAT
~Parameter
#==================================================================
~Ascii
# ...
 5262.0000000 5262.0000000 -9.159999847 2.1500000954 2.0899999142 1.9400000572
 5263.0000000 5263.0000000 -9.520000458 2.2500000000 2.1500000954 2.0499999523
 5264.0000000 5264.0000000 -9.850000381 2.3299999237 2.2200000286 2.1700000763
 5265.0000000 5265.0000000 -10.14999962 2.3900001049 2.2799999714 2.2300000191
 5266.0000000 5266.0000000 -10.52999973 2.4400000572 2.3199999332 2.3199999332
 5267.0000000 5267.0000000 -10.76000023 2.4500000477 2.3299999237 2.4500000477
 5268.0000000 5268.0000000 -10.60999966 2.4200000763 2.2999999523 2.6099998951
 5269.0000000 5269.0000000 -10.26000023 2.3599998951 2.2500000000 2.7599999905
 5270.0000000 5270.0000000 -9.829999924 2.2699999809 2.2000000477 2.7999999523
 5271.0000000 5271.0000000 -9.869999886 2.1099998951 2.2300000191 2.7400000095
 5272.0000000 5272.0000000 -10.06999969 2.0199999809 2.2599999905 2.5599999428
 5273.0000000 5273.0000000 -10.10000038 1.9800000191 2.2699999809 2.3099999428
 5274.0000000 5274.0000000 -9.979999542 1.9800000191 2.2200000286 2.2100000381
 5275.0000000 5275.0000000 -9.789999962 2.0199999809 2.0999999046 2.2200000286
 5276.0000000 5276.0000000 -9.430000305 1.9900000095 1.9600000381 2.2999999523
 5277.0000000 5277.0000000 -8.920000076 1.8799999952 1.8700000048 2.3900001049
 5278.0000000 5278.0000000 -8.250000000 1.7599999905 1.8400000334 2.4200000763
 5279.0000000 5279.0000000 -7.849999905 1.6399999857 1.8300000429 2.3399999142
 5280.0000000 5280.0000000 -7.750000000 1.5499999523 1.8099999428 2.1600000858
 5281.0000000 5281.0000000 -7.849999905 1.4900000095 1.8200000525 2.0199999809
 5282.0000000 5282.0000000 -7.849999905 1.4900000095 1.8099999428 1.9199999571
 5283.0000000 5283.0000000 -8.039999962 1.5299999714 1.7899999619 1.8899999857
 5284.0000000 5284.0000000 -8.369999886 1.5800000429 1.7699999809 1.9299999475
 5285.0000000 5285.0000000 -8.750000000 1.6299999952 1.7000000477 2.0199999809
 5286.0000000 5286.0000000 -9.090000153 1.6699999571 1.6699999571 2.1600000858
 5287.0000000 5287.0000000 -9.310000420 1.6699999571 1.6599999666 2.2699999809
 5288.0000000 5288.0000000 -9.510000229 1.6299999952 1.6699999571 2.2999999523
 5289.0000000 5289.0000000 -9.630000114 1.5599999428 1.7400000095 2.2200000286
 5290.0000000 5290.0000000 -9.479999542 1.5299999714 1.7799999714 2.0599999428
 5291.0000000 5291.0000000 -9.439999580 1.5499999523 1.8200000525 1.9800000191
 5292.0000000 5292.0000000 -9.979999542 1.6000000238 1.8300000429 1.9299999475
 5293.0000000 5293.0000000 -10.22000027 1.6699999571 1.8200000525 1.9500000477
 5294.0000000 5294.0000000 -10.10999966 1.7599999905 1.7899999619 2.0299999714
 5295.0000000 5295.0000000 -9.729999542 1.8300000429 1.7999999523 2.1099998951
 5296.0000000 5296.0000000 -9.189999580 1.8600000143 1.8099999428 2.2000000477
 5297.0000000 5297.0000000 -8.600000381 1.8300000429 1.8200000525 2.2699999809
 5298.0000000 5298.0000000 -8.069999695 1.7599999905 1.8099999428 2.3099999428
 5299.0000000 5299.0000000 -7.820000172 1.6699999571 1.8400000334 2.2300000191
 5300.0000000 5300.0000000 -7.800000191 1.6399999857 1.8899999857 2.0799999237
 5301.0000000 5301.0000000 -7.949999809 1.5800000429 1.9299999475 1.9299999475
 5302.0000000 5302.0000000 -8.170000076 1.5599999428 1.9199999571 1.8799999952
 5303.0000000 5303.0000000 -8.420000076 1.6000000238 1.8999999762 1.8899999857
 5304.0000000 5304.0000000 -8.729999542 1.6599999666 1.8999999762 1.9099999666
 5305.0000000 5305.0000000 -9.229999542 1.7300000191 1.9500000477 1.9500000477
 5306.0000000 5306.0000000 -9.420000076 1.7999999523 2.0499999523 1.9400000572
 5307.0000000 5307.0000000 -9.329999924 1.8500000238 2.1300001144 1.8999999762
 5308.0000000 5308.0000000 -9.000000000 1.8600000143 2.1900000572 1.8999999762
 5309.0000000 5309.0000000 -8.779999733 1.9099999666 2.2100000381 2.0099999905
 5310.0000000 5310.0000000 -8.859999657 2.0000000000 2.1900000572 2.1500000954
 5311.0000000 5311.0000000 -9.090000153 2.0599999428 2.1700000763 2.2200000286
 5312.0000000 5312.0000000 -9.369999886 2.1400001049 2.2100000381 2.2400000095
 5313.0000000 5313.0000000 -9.560000420 2.2000000477 2.2300000191 2.3099999428
 5314.0000000 5314.0000000 -9.659999847 2.2000000477 2.2200000286 2.4000000954
 5315.0000000 5315.0000000 -9.470000267 2.1199998856 2.1600000858 2.4800000191
 5316.0000000 5316.0000000 -9.199999809 1.9900000095 2.1300001144 2.5000000000
 5317.0000000 5317.0000000 -8.930000305 1.8799999952 2.1099998951 2.4200000763
 5318.0000000 5318.0000000 -8.789999962 1.8099999428 2.0899999142 2.3499999046
 5319.0000000 5319.0000000 -8.520000458 1.7500000000 2.0599999428 2.2899999619
 5320.0000000 5320.0000000 -8.399999619 1.6399999857 2.0299999714 2.1800000668
 5321.0000000 5321.0000000 -8.619999886 1.6000000238 2.0299999714 2.0499999523
 5322.0000000 5322.0000000 -8.779999733 1.6100000143 2.0499999523 1.9500000477
 5323.0000000 5323.0000000 -8.859999657 1.6499999762 2.0799999237 1.8799999952
 5324.0000000 5324.0000000 -8.979999542 1.7000000477 2.1099998951 1.8500000238
 5325.0000000 5325.0000000 -9.229999542 1.7799999714 2.1500000954 1.8999999762
 5326.0000000 5326.0000000 -9.539999962 1.8999999762 2.2000000477 1.9299999475
 5327.0000000 5327.0000000 -9.630000114 2.0599999428 2.2500000000 1.9600000381
 5328.0000000 5328.0000000 -9.779999733 2.1700000763 2.3199999332 2.0199999809
 5329.0000000 5329.0000000 -10.50000000 2.3499999046 2.4000000954 2.1900000572
 5330.0000000 5330.0000000 -11.14000034 2.5199999809 2.4200000763 2.3800001144
 5331.0000000 5331.0000000 -11.38000011 2.5899999142 2.4300000668 2.5299999714
 5332.0000000 5332.0000000 -11.56999969 2.5599999428 2.4700000286 2.6700000763
 5333.0000000 5333.0000000 -11.14999962 2.4300000668 2.4900000095 2.7699999809
 5334.0000000 5334.0000000 -10.63000011 2.3599998951 2.4900000095 2.7599999905
 5335.0000000 5335.0000000 -10.35000038 2.2999999523 2.4600000381 2.7300000191
 5336.0000000 5336.0000000 -10.27000046 2.1800000668 2.4300000668 2.6900000572
 5337.0000000 5337.0000000 -10.17000008 2.0399999619 2.4200000763 2.5699999332
 5338.0000000 5338.0000000 -10.32999992 2.0000000000 2.4500000477 2.4100000858
 5339.0000000 5339.0000000 -10.65999985 2.0000000000 2.4800000191 2.2599999905
 5340.0000000 5340.0000000 -10.80000019 2.0299999714 2.5000000000 2.1400001049
 5341.0000000 5341.0000000 -10.89999962 2.0899999142 2.5099999905 2.0699999332
 5342.0000000 5342.0000000 -10.85000038 2.1700000763 2.5399999619 2.0599999428
 5343.0000000 5343.0000000 -10.84000015 2.2599999905 2.5899999142 2.0899999142
 5344.0000000 5344.0000000 -10.93999958 2.4000000954 2.6400001049 2.1600000858
 5345.0000000 5345.0000000 -11.09000015 2.5299999714 2.7000000477 2.2799999714
 5346.0000000 5346.0000000 -11.13000011 2.6400001049 2.7200000286 2.4400000572
 5347.0000000 5347.0000000 -11.25000000 2.6800000668 2.7200000286 2.5999999046
 5348.0000000 5348.0000000 -11.27999973 2.6199998856 2.7200000286 2.7400000095
 5349.0000000 5349.0000000 -11.11999989 2.5000000000 2.7300000191 2.8299999237
 5350.0000000 5350.0000000 -10.81999969 2.4100000858 2.7500000000 2.7999999523
 5351.0000000 5351.0000000 -10.44999981 2.3599998951 2.7799999714 2.7599999905
 5352.0000000 5352.0000000 -9.979999542 2.3299999237 2.8099999428 2.7000000477
 5353.0000000 5353.0000000 -9.600000381 2.3800001144 2.8299999237 2.6900000572
 5354.0000000 5354.0000000 -9.590000153 2.4600000381 2.7899999619 2.6900000572
 5355.0000000 5355.0000000 -9.840000153 2.5599999428 2.7400000095 2.6900000572
 5356.0000000 5356.0000000 -10.18999958 2.5699999332 2.6800000668 2.7899999619
 5357.0000000 5357.0000000 -10.42000008 2.5000000000 2.6199998856 2.9200000763
 5358.0000000 5358.0000000 -10.44999981 2.3499999046 2.5699999332 2.9600000381
 5359.0000000 5359.0000000 -10.42000008 2.1600000858 2.5499999523 2.8599998951
 5360.0000000 5360.0000000 -10.31000042 2.0099999905 2.5999999046 2.6800000668
 5361.0000000 5361.0000000 -10.07999992 1.9500000477 2.6600000858 2.4500000477
 5362.0000000 5362.0000000 -9.840000153 2.0000000000 2.7200000286 2.2100000381
 5363.0000000 5363.0000000 -10.09000015 2.2300000191 2.7300000191 2.0499999523
