# LAS format log file from PETREL
# Project units are specified as depth units
#==================================================================
~Version information
VERS.   2.0:
WRAP.   NO:
#==================================================================
~Well
STRT .m      3000.0000000 :
STOP .m      6457.0000000 :
STEP .m     1.00000000 :
NULL .        -999.250000 :
COMP.           : COMPANY
WELL.  WELL_1   : WELL
FLD.            : FIELD
LOC.            : LOCATION
SRVC.           : SERVICE COMPANY
DATE.  2023-03-20 17:52:46   : Log Export Date {yyyy-MM-dd HH:mm:ss}
PROV.           : PROVINCE
UWI.   WELL_1   : UNIQUE WELL ID
API.            : API NUMBER
#==================================================================
~Curve
DEPT .m                   : DEPTH
Depth .m                  : Depth
SP .mV                    : SP
SN .ohm.m                 : SN
LN .ohm.m                 : LN
~Parameter
#==================================================================
~Ascii
# ...
 4952.0000000 4952.0000000 0.5799999833 4.9699997902 3.4300000668
 4953.0000000 4953.0000000 1.8999999762 3.5699999332 3.1400001049
 4954.0000000 4954.0000000 3.6500000954 2.7300000191 2.7999999523
 4955.0000000 4955.0000000 6.1500000954 2.3399999142 2.4500000477
 4956.0000000 4956.0000000 7.5500001907 2.0000000000 2.1600000858
 4957.0000000 4957.0000000 7.8499999046 1.7300000191 1.9099999666
 4958.0000000 4958.0000000 7.8200001717 1.4600000381 1.6799999475
 4959.0000000 4959.0000000 8.0299997330 1.3099999428 1.5499999523
 4960.0000000 4960.0000000 8.7399997711 1.1699999571 1.4199999571
 4961.0000000 4961.0000000 9.7100000381 1.1100000143 1.2899999619
 4962.0000000 4962.0000000 10.260000229 1.1399999857 1.2400000095
 4963.0000000 4963.0000000 10.479999542 1.1599999666 1.2200000286
 4964.0000000 4964.0000000 10.710000038 1.2200000286 1.2300000191
 4965.0000000 4965.0000000 10.859999657 1.2799999714 1.2999999523
 4966.0000000 4966.0000000 10.989999771 1.3500000238 1.3600000143
 4967.0000000 4967.0000000 11.109999657 1.4199999571 1.4299999475
 4968.0000000 4968.0000000 11.270000458 1.5299999714 1.5299999714
 4969.0000000 4969.0000000 10.810000420 1.6399999857 1.6299999952
 4970.0000000 4970.0000000 10.130000114 1.7599999905 1.6699999571
 4971.0000000 4971.0000000 9.5000000000 1.6299999952 1.5399999619
 4972.0000000 4972.0000000 8.8699998856 1.4800000191 1.4500000477
 4973.0000000 4973.0000000 8.3299999237 1.5000000000 1.3600000143
 4974.0000000 4974.0000000 7.9699997902 1.5700000525 1.4800000191
 4975.0000000 4975.0000000 7.5999999046 1.6699999571 1.6000000238
 4976.0000000 4976.0000000 7.2800002098 1.7699999809 1.6599999666
 4977.0000000 4977.0000000 7.2699999809 1.8300000429 1.7200000286
 4978.0000000 4978.0000000 7.4000000954 1.8700000048 1.6299999952
 4979.0000000 4979.0000000 7.9200000763 1.9099999666 1.4700000286
 4980.0000000 4980.0000000 8.4499998093 1.8200000525 1.2999999523
 4981.0000000 4981.0000000 9.0100002289 1.7000000477 1.1299999952
 4982.0000000 4982.0000000 9.6599998474 1.5900000334 1.1699999571
 4983.0000000 4983.0000000 10.310000420 1.4700000286 1.2000000477
 4984.0000000 4984.0000000 10.899999619 1.3600000143 1.2400000095
 4985.0000000 4985.0000000 11.000000000 1.2899999619 1.1799999475
 4986.0000000 4986.0000000 11.100000381 1.2599999905 1.1299999952
 4987.0000000 4987.0000000 11.189999580 1.2200000286 1.1100000143
 4988.0000000 4988.0000000 11.250000000 1.1900000572 1.0800000429
 4989.0000000 4989.0000000 11.130000114 1.1699999571 1.0599999428
 4990.0000000 4990.0000000 11.010000229 1.1699999571 1.0700000525
 4991.0000000 4991.0000000 10.890000343 1.1699999571 1.0900000334
 4992.0000000 4992.0000000 10.770000458 1.1699999571 1.1100000143
 4993.0000000 4993.0000000 10.649999619 1.2300000191 1.1699999571
 4994.0000000 4994.0000000 10.539999962 1.2999999523 1.2200000286
 4995.0000000 4995.0000000 10.310000420 1.3700000048 1.2799999714
 4996.0000000 4996.0000000 10.069999695 1.4400000572 1.3300000429
 4997.0000000 4997.0000000 9.8299999237 1.5199999809 1.3899999857
 4998.0000000 4998.0000000 9.6700000763 1.6200000048 1.3899999857
 4999.0000000 4999.0000000 9.6400003433 1.7100000381 1.3099999428
 5000.0000000 5000.0000000 9.7299995422 1.8099999428 1.2400000095
 5001.0000000 5001.0000000 10.079999924 1.8300000429 1.2799999714
 5002.0000000 5002.0000000 10.430000305 1.8600000143 1.3200000525
 5003.0000000 5003.0000000 10.779999733 1.8500000238 1.3700000048
 5004.0000000 5004.0000000 10.569999695 1.7699999809 1.4299999475
 5005.0000000 5005.0000000 10.189999580 1.9800000191 1.4800000191
 5006.0000000 5006.0000000 9.8000001907 2.1500000954 1.5000000000
 5007.0000000 5007.0000000 9.3599996567 2.2100000381 1.5099999905
 5008.0000000 5008.0000000 8.9099998474 2.1800000668 1.5199999809
 5009.0000000 5009.0000000 8.5299997330 2.1099998951 1.4600000381
 5010.0000000 5010.0000000 8.3000001907 2.0299999714 1.3799999952
 5011.0000000 5011.0000000 8.1300001144 2.0499999523 1.3400000334
 5012.0000000 5012.0000000 7.9499998093 2.1400001049 1.3700000048
 5013.0000000 5013.0000000 7.7500000000 2.0599999428 1.4700000286
 5014.0000000 5014.0000000 7.5399999619 1.9800000191 1.5700000525
 5015.0000000 5015.0000000 8.3100004196 1.9199999571 1.6599999666
 5016.0000000 5016.0000000 8.8100004196 2.0099999905 1.7200000286
 5017.0000000 5017.0000000 8.6999998093 2.0199999809 1.6399999857
 5018.0000000 5018.0000000 8.3299999237 1.8999999762 1.5599999428
 5019.0000000 5019.0000000 7.9499998093 1.7500000000 1.5499999523
 5020.0000000 5020.0000000 7.6700000763 1.5900000334 1.5800000429
 5021.0000000 5021.0000000 7.8400001526 1.4900000095 1.6399999857
 5022.0000000 5022.0000000 8.3800001144 1.6900000572 1.7500000000
 5023.0000000 5023.0000000 8.9200000763 1.8700000048 1.8600000143
 5024.0000000 5024.0000000 9.3999996185 1.9800000191 1.9900000095
 5025.0000000 5025.0000000 9.8199996948 1.9299999475 2.1199998856
 5026.0000000 5026.0000000 10.119999886 1.9099999666 2.2799999714
 5027.0000000 5027.0000000 9.9399995804 1.9199999571 2.4400000572
 5028.0000000 5028.0000000 9.7700004578 1.9199999571 2.5299999714
 5029.0000000 5029.0000000 9.4300003052 1.9600000381 2.5699999332
 5030.0000000 5030.0000000 8.9300003052 2.0499999523 2.3900001049
 5031.0000000 5031.0000000 8.4300003052 1.8999999762 2.1300001144
 5032.0000000 5032.0000000 8.3900003433 1.6900000572 1.8999999762
 5033.0000000 5033.0000000 8.4399995804 1.5299999714 1.6699999571
 5034.0000000 5034.0000000 8.8199996948 1.3899999857 1.4500000477
 5035.0000000 5035.0000000 9.1999998093 1.2599999905 1.3099999428
 5036.0000000 5036.0000000 9.5799999237 1.1799999475 1.2000000477
 5037.0000000 5037.0000000 9.8999996185 1.1499999762 1.0900000334
 5038.0000000 5038.0000000 10.159999847 1.1299999952 1.0499999523
 5039.0000000 5039.0000000 10.420000076 1.1299999952 1.0399999619
 5040.0000000 5040.0000000 10.670000076 1.1799999475 1.0399999619
 5041.0000000 5041.0000000 10.930000305 1.2400000095 1.0800000429
 5042.0000000 5042.0000000 11.100000381 1.2899999619 1.1299999952
 5043.0000000 5043.0000000 11.260000229 1.3300000429 1.1699999571
 5044.0000000 5044.0000000 11.420000076 1.3600000143 1.2100000381
 5045.0000000 5045.0000000 11.590000153 1.3799999952 1.2200000286
 5046.0000000 5046.0000000 11.760000229 1.4099999666 1.2300000191
 5047.0000000 5047.0000000 11.930000305 1.4299999475 1.2400000095
 5048.0000000 5048.0000000 12.100000381 1.3600000143 1.2500000000
 5049.0000000 5049.0000000 12.289999962 1.2999999523 1.2699999809
 5050.0000000 5050.0000000 12.489999771 1.2300000191 1.2500000000
 5051.0000000 5051.0000000 12.640000343 1.1799999475 1.2200000286
 5052.0000000 5052.0000000 12.590000153 1.1699999571 1.1900000572
 5053.0000000 5053.0000000 12.550000191 1.1599999666 1.1699999571
 5054.0000000 5054.0000000 11.810000420 1.1799999475 1.2000000477
 5055.0000000 5055.0000000 11.050000191 1.3200000525 1.2899999619
 5056.0000000 5056.0000000 10.000000000 1.4700000286 1.3700000048
 5057.0000000 5057.0000000 8.9499998093 1.6399999857 1.4400000572
 5058.0000000 5058.0000000 8.1700000763 1.8099999428 1.5000000000
 5059.0000000 5059.0000000 7.6100001335 1.9299999475 1.5599999428
 5060.0000000 5060.0000000 7.2899999619 2.0199999809 1.6000000238
 5061.0000000 5061.0000000 7.3800001144 2.1099998951 1.5900000334
 5062.0000000 5062.0000000 7.4600000381 2.1400001049 1.5700000525
 5063.0000000 5063.0000000 7.5399999619 2.1400001049 1.5599999428
 5064.0000000 5064.0000000 7.8099999428 2.1300001144 1.5399999619
 5065.0000000 5065.0000000 8.2100000381 2.1199998856 1.4700000286
 5066.0000000 5066.0000000 8.6099996567 2.0399999619 1.3999999762
 5067.0000000 5067.0000000 9.0100002289 1.9600000381 1.3400000334
 5068.0000000 5068.0000000 9.3800001144 1.8799999952 1.3200000525
 5069.0000000 5069.0000000 9.7600002289 1.7699999809 1.3300000429
 5070.0000000 5070.0000000 10.100000381 1.6499999762 1.3300000429
 5071.0000000 5071.0000000 10.250000000 1.5299999714 1.4400000572
 5072.0000000 5072.0000000 10.390000343 1.5499999523 1.5700000525
 5073.0000000 5073.0000000 10.500000000 1.6000000238 1.6900000572
