# LAS format log file from PETREL
# Project units are specified as depth units
#==================================================================
~Version information
VERS.   2.0:
WRAP.   NO:
#==================================================================
~Well
STRT .m      3000.0000000 :
STOP .m      7750.0000000 :
STEP .m     1.00000000 :
NULL .        -999.250000 :
COMP.           : COMPANY
WELL.  WELL_2   : WELL
FLD.            : FIELD
LOC.            : LOCATION
SRVC.           : SERVICE COMPANY
DATE.  2023-03-20 17:52:46   : Log Export Date {yyyy-MM-dd HH:mm:ss}
PROV.           : PROVINCE
UWI.   WELL_2   : UNIQUE WELL ID
API.            : API NUMBER
#==================================================================
~Curve
DEPT .m                   : DEPTH
Depth .m                  : Depth
SP .mV                    : SP
SN .ohm.m                 : SN
LN .ohm.m                 : LN
LAT .ohm.m                : LAT
~Parameter
#==================================================================
~Ascii
# ...
 7386.0000000 7386.0000000 -2.619999886 1.5099999905 1.1499999762 1.1499999762
 7387.0000000 7387.0000000 -2.809999943 1.5299999714 1.1399999857 1.1399999857
 7388.0000000 7388.0000000 -2.700000048 1.5299999714 1.1299999952 1.1299999952
 7389.0000000 7389.0000000 -3.049999952 1.5199999809 1.1299999952 1.1299999952
 7390.0000000 7390.0000000 -2.839999914 1.4900000095 1.1200000048 1.1200000048
 7391.0000000 7391.0000000 -2.869999886 1.4500000477 1.1000000238 1.1000000238
 7392.0000000 7392.0000000 -3.279999971 1.4099999666 1.0800000429 1.0800000429
 7393.0000000 7393.0000000 -3.150000095 1.3500000238 1.0499999523 1.0499999523
 7394.0000000 7394.0000000 -2.779999971 1.2799999714 1.0399999619 1.0399999619
 7395.0000000 7395.0000000 -2.190000057 1.2200000286 1.0599999428 1.0599999428
 7396.0000000 7396.0000000 -1.720000029 1.1799999475 1.0900000334 1.0900000334
 7397.0000000 7397.0000000 -1.429999948 1.1499999762 1.1499999762 1.1499999762
 7398.0000000 7398.0000000 -1.240000010 1.1699999571 1.1900000572 1.1900000572
 7399.0000000 7399.0000000 -1.110000014 1.2200000286 1.2000000477 1.2000000477
 7400.0000000 7400.0000000 -2.329999924 1.2599999905 1.3600000143 1.3600000143
 7401.0000000 7401.0000000 -2.440000057 1.2599999905 1.3899999857 1.3899999857
 7402.0000000 7402.0000000 -2.380000114 1.2799999714 1.3899999857 1.3899999857
 7403.0000000 7403.0000000 -2.519999981 1.3200000525 1.3799999952 1.3799999952
 7404.0000000 7404.0000000 -2.950000048 1.4099999666 1.3700000048 1.3700000048
 7405.0000000 7405.0000000 -4.690000057 1.5800000429 1.4299999475 1.4299999475
 7406.0000000 7406.0000000 -6.559999943 2.0799999237 1.5399999619 1.5399999619
 7407.0000000 7407.0000000 -7.730000019 2.7699999809 1.6399999857 1.6399999857
 7408.0000000 7408.0000000 -8.149999619 3.1400001049 1.7400000095 1.7400000095
 7409.0000000 7409.0000000 -8.520000458 3.3800001144 1.8500000238 1.8500000238
 7410.0000000 7410.0000000 -7.650000095 3.5599999428 1.9900000095 1.9900000095
 7411.0000000 7411.0000000 -7.059999943 3.2000000477 2.0599999428 2.0599999428
 7412.0000000 7412.0000000 -6.610000134 2.7599999905 2.0000000000 2.0000000000
 7413.0000000 7413.0000000 -6.099999905 2.4000000954 1.9199999571 1.9199999571
 7414.0000000 7414.0000000 -5.429999828 2.0599999428 1.8200000525 1.8200000525
 7415.0000000 7415.0000000 -4.170000076 1.8099999428 1.6900000572 1.6900000572
 7416.0000000 7416.0000000 -3.150000095 1.5599999428 1.5700000525 1.5700000525
 7417.0000000 7417.0000000 -2.190000057 1.3799999952 1.4500000477 1.4500000477
 7418.0000000 7418.0000000 -1.610000014 1.3099999428 1.3899999857 1.3899999857
 7419.0000000 7419.0000000 -1.490000010 1.2599999905 1.3600000143 1.3600000143
 7420.0000000 7420.0000000 -1.370000005 1.2500000000 1.3500000238 1.3500000238
 7421.0000000 7421.0000000 -0.800000012 1.2599999905 1.3500000238 1.3500000238
 7422.0000000 7422.0000000 -0.219999999 1.2899999619 1.3799999952 1.3799999952
 7423.0000000 7423.0000000 -0.090000004 1.3500000238 1.4099999666 1.4099999666
 7424.0000000 7424.0000000 -0.259999990 1.3999999762 1.4400000572 1.4400000572
 7425.0000000 7425.0000000 -0.519999981 1.4500000477 1.4800000191 1.4800000191
 7426.0000000 7426.0000000 -0.790000021 1.5000000000 1.5399999619 1.5399999619
 7427.0000000 7427.0000000 -1.059999943 1.6000000238 1.6200000048 1.6200000048
 7428.0000000 7428.0000000 -1.330000043 1.7100000381 1.7200000286 1.7200000286
 7429.0000000 7429.0000000 -1.720000029 1.9199999571 1.8300000429 1.8300000429
 7430.0000000 7430.0000000 -5.789999962 2.3699998856 1.8200000525 1.8200000525
 7431.0000000 7431.0000000 -8.890000343 3.5099999905 1.8099999428 1.8099999428
 7432.0000000 7432.0000000 -11.50000000 4.9400000572 2.0099999905 2.0099999905
 7433.0000000 7433.0000000 -16.63999939 5.9099998474 2.2599999905 2.2599999905
 7434.0000000 7434.0000000 -21.28000069 5.7100000381 2.5399999619 2.5399999619
 7435.0000000 7435.0000000 -23.35000038 5.0599999428 2.9200000763 2.9200000763
 7436.0000000 7436.0000000 -24.92000008 4.4499998093 3.4300000668 3.4300000668
 7437.0000000 7437.0000000 -25.78000069 3.8199999332 3.5799999237 3.5799999237
 7438.0000000 7438.0000000 -26.12999916 3.6199998856 3.5599999428 3.5599999428
 7439.0000000 7439.0000000 -26.07999992 3.5699999332 3.2899999619 3.2899999619
 7440.0000000 7440.0000000 -26.04000092 3.5499999523 3.1099998951 3.1099998951
 7441.0000000 7441.0000000 -26.03000069 3.5199999809 2.9600000381 2.9600000381
 7442.0000000 7442.0000000 -26.02000046 3.4500000477 2.8599998951 2.8599998951
 7443.0000000 7443.0000000 -26.06999969 3.4000000954 2.8199999332 2.8199999332
 7444.0000000 7444.0000000 -26.12000084 3.3299999237 2.8099999428 2.8099999428
 7445.0000000 7445.0000000 -26.15999985 3.2699999809 2.8299999237 2.8299999237
 7446.0000000 7446.0000000 -26.11000061 3.2699999809 2.8399999142 2.8399999142
 7447.0000000 7447.0000000 -25.92000008 3.3900001049 2.8199999332 2.8199999332
 7448.0000000 7448.0000000 -25.78000069 3.5299999714 2.7799999714 2.7799999714
 7449.0000000 7449.0000000 -26.01000023 3.6500000954 2.7200000286 2.7200000286
 7450.0000000 7450.0000000 -26.46999931 3.7200000286 2.7000000477 2.7000000477
 7451.0000000 7451.0000000 -26.23999977 3.7799999714 2.6700000763 2.6700000763
 7452.0000000 7452.0000000 -26.12000084 3.7300000191 2.6500000954 2.6500000954
 7453.0000000 7453.0000000 -26.04999924 3.5999999046 2.6400001049 2.6400001049
 7454.0000000 7454.0000000 -26.23999977 3.4300000668 2.7100000381 2.7100000381
 7455.0000000 7455.0000000 -26.53000069 3.3900001049 2.8499999046 2.8499999046
 7456.0000000 7456.0000000 -26.84000015 3.3900001049 2.8900001049 2.8900001049
 7457.0000000 7457.0000000 -26.96999931 3.5399999619 2.8599998951 2.8599998951
 7458.0000000 7458.0000000 -27.07999992 3.5599999428 2.8299999237 2.8299999237
 7459.0000000 7459.0000000 -27.20999908 3.4400000572 2.8199999332 2.8199999332
 7460.0000000 7460.0000000 -27.34000015 3.1900000572 2.8900001049 2.8900001049
 7461.0000000 7461.0000000 -27.32999992 3.0899999142 3.0399999619 3.0399999619
 7462.0000000 7462.0000000 -27.21999931 3.1199998856 3.0699999332 3.0699999332
 7463.0000000 7463.0000000 -26.79999924 3.2899999619 3.0299999714 3.0299999714
 7464.0000000 7464.0000000 -26.38999939 3.5899999142 3.0000000000 3.0000000000
 7465.0000000 7465.0000000 -25.94000053 4.0700001717 3.0099999905 3.0099999905
 7466.0000000 7466.0000000 -25.47999954 4.4600000381 3.0899999142 3.0899999142
 7467.0000000 7467.0000000 -25.29000092 4.3299999237 3.2000000477 3.2000000477
 7468.0000000 7468.0000000 -25.00000000 4.1399998665 3.3399999142 3.3399999142
 7469.0000000 7469.0000000 -24.27000046 4.1100001335 3.4300000668 3.4300000668
 7470.0000000 7470.0000000 -22.94000053 4.6599998474 3.4200000763 3.4200000763
 7471.0000000 7471.0000000 -20.02000046 4.9400000572 3.3900001049 3.3900001049
 7472.0000000 7472.0000000 -18.21999931 4.7699999809 3.5299999714 3.5299999714
 7473.0000000 7473.0000000 -17.37000084 4.6700000763 4.0000000000 4.0000000000
 7474.0000000 7474.0000000 -16.51000023 4.6300001144 4.1900000572 4.1900000572
 7475.0000000 7475.0000000 -16.63999939 4.6300001144 4.2899999619 4.2899999619
 7476.0000000 7476.0000000 -16.80999947 4.7199997902 4.2399997711 4.2399997711
 7477.0000000 7477.0000000 -16.82999992 4.7899999619 4.1999998093 4.1999998093
 7478.0000000 7478.0000000 -16.87000084 4.7699999809 4.1700000763 4.1700000763
 7479.0000000 7479.0000000 -17.01000023 4.7399997711 4.1300001144 4.1300001144
 7480.0000000 7480.0000000 -18.61000061 4.6900000572 4.0599999428 4.0599999428
 7481.0000000 7481.0000000 -20.57999992 4.6100001335 4.0100002289 4.0100002289
 7482.0000000 7482.0000000 -20.11000061 4.3299999237 4.0000000000 4.0000000000
 7483.0000000 7483.0000000 -19.63999939 4.0700001717 4.0000000000 4.0000000000
 7484.0000000 7484.0000000 -18.17000008 4.0300002098 4.0500001907 4.0500001907
 7485.0000000 7485.0000000 -16.51000023 4.1100001335 3.9800000191 3.9800000191
 7486.0000000 7486.0000000 -16.71999931 4.3099999428 3.8699998856 3.8699998856
 7487.0000000 7487.0000000 -18.11000061 4.7500000000 3.0099999905 3.0099999905
