# LAS format log file from PETREL
# Project units are specified as depth units
#==================================================================
~Version information
VERS.   2.0:
WRAP.   NO:
#==================================================================
~Well
STRT .m      4561.0000000 :
STOP .m      7034.0000000 :
STEP .m     1.00000000 :
NULL .        -999.250000 :
COMP.           : COMPANY
WELL.  WELL_5   : WELL
FLD.            : FIELD
LOC.            : LOCATION
SRVC.           : SERVICE COMPANY
DATE.  2023-03-20 17:52:46   : Log Export Date {yyyy-MM-dd HH:mm:ss}
PROV.           : PROVINCE
UWI.   WELL_5   : UNIQUE WELL ID
API.            : API NUMBER
#==================================================================
~Curve
DEPT .m                   : DEPTH
Depth .m                  : Depth
SN .ohm.m                 : SN
ILD .ohm.m                : ILD
~Parameter
#==================================================================
~Ascii
# ...
 5769.0000000 5769.0000000 1.7500000000 1.4400000572
 5770.0000000 5770.0000000 1.8700000048 1.5700000525
 5771.0000000 5771.0000000 2.0199999809 1.7300000191
 5772.0000000 5772.0000000 2.1400001049 1.7999999523
 5773.0000000 5773.0000000 2.2500000000 1.8500000238
 5774.0000000 5774.0000000 2.3599998951 2.0299999714
 5775.0000000 5775.0000000 2.5000000000 2.1800000668
 5776.0000000 5776.0000000 2.7300000191 2.3199999332
 5777.0000000 5777.0000000 2.9100000858 2.4100000858
 5778.0000000 5778.0000000 2.9500000477 2.3499999046
 5779.0000000 5779.0000000 2.8099999428 2.1900000572
 5780.0000000 5780.0000000 2.6099998951 2.0699999332
 5781.0000000 5781.0000000 2.4800000191 2.0000000000
 5782.0000000 5782.0000000 2.4500000477 2.0199999809
 5783.0000000 5783.0000000 2.5099999905 2.0799999237
 5784.0000000 5784.0000000 2.5999999046 2.1199998856
 5785.0000000 5785.0000000 2.5199999809 1.8899999857
 5786.0000000 5786.0000000 2.1199998856 1.6499999762
 5787.0000000 5787.0000000 1.8200000525 1.4600000381
 5788.0000000 5788.0000000 1.6900000572 1.2899999619
 5789.0000000 5789.0000000 1.6699999571 1.2699999809
 5790.0000000 5790.0000000 1.6699999571 1.3200000525
 5791.0000000 5791.0000000 1.6599999666 1.3500000238
 5792.0000000 5792.0000000 1.6599999666 1.3700000048
 5793.0000000 5793.0000000 1.6699999571 1.3799999952
 5794.0000000 5794.0000000 1.6699999571 1.3600000143
 5795.0000000 5795.0000000 1.6599999666 1.3099999428
 5796.0000000 5796.0000000 1.6799999475 1.3300000429
 5797.0000000 5797.0000000 1.7799999714 1.4900000095
 5798.0000000 5798.0000000 1.9700000286 1.6599999666
 5799.0000000 5799.0000000 2.4200000763 1.9600000381
 5800.0000000 5800.0000000 2.9100000858 2.2699999809
 5801.0000000 5801.0000000 3.0899999142 2.3699998856
 5802.0000000 5802.0000000 2.7300000191 2.2200000286
 5803.0000000 5803.0000000 2.5499999523 2.1300001144
 5804.0000000 5804.0000000 2.6300001144 2.1900000572
 5805.0000000 5805.0000000 3.0299999714 2.4700000286
 5806.0000000 5806.0000000 3.5499999523 3.1099998951
 5807.0000000 5807.0000000 4.1100001335 3.7000000477
 5808.0000000 5808.0000000 3.9800000191 3.5000000000
 5809.0000000 5809.0000000 3.2599999905 2.7999999523
 5810.0000000 5810.0000000 2.7599999905 2.3099999428
 5811.0000000 5811.0000000 2.4000000954 1.8700000048
 5812.0000000 5812.0000000 2.0999999046 1.5700000525
 5813.0000000 5813.0000000 1.8200000525 1.4199999571
 5814.0000000 5814.0000000 1.6699999571 1.3400000334
 5815.0000000 5815.0000000 1.6299999952 1.2999999523
 5816.0000000 5816.0000000 1.6499999762 1.3400000334
 5817.0000000 5817.0000000 1.7000000477 1.3700000048
 5818.0000000 5818.0000000 1.7100000381 1.4199999571
 5819.0000000 5819.0000000 1.6499999762 1.4199999571
 5820.0000000 5820.0000000 1.6000000238 1.3099999428
 5821.0000000 5821.0000000 1.5800000429 1.2699999809
 5822.0000000 5822.0000000 1.5399999619 1.2699999809
 5823.0000000 5823.0000000 1.5299999714 1.2400000095
 5824.0000000 5824.0000000 1.5399999619 1.1900000572
 5825.0000000 5825.0000000 1.5199999809 1.1399999857
 5826.0000000 5826.0000000 1.4400000572 1.1000000238
 5827.0000000 5827.0000000 1.3999999762 1.1100000143
 5828.0000000 5828.0000000 1.4099999666 1.2200000286
 5829.0000000 5829.0000000 1.5399999619 1.4099999666
 5830.0000000 5830.0000000 1.8300000429 1.5800000429
 5831.0000000 5831.0000000 2.0999999046 1.7699999809
 5832.0000000 5832.0000000 2.2200000286 1.8899999857
 5833.0000000 5833.0000000 2.2899999619 1.9500000477
 5834.0000000 5834.0000000 2.3199999332 2.0299999714
 5835.0000000 5835.0000000 2.4400000572 2.1300001144
 5836.0000000 5836.0000000 2.6199998856 2.2400000095
 5837.0000000 5837.0000000 2.6900000572 2.3299999237
 5838.0000000 5838.0000000 2.5899999142 2.0199999809
 5839.0000000 5839.0000000 2.2899999619 1.7500000000
 5840.0000000 5840.0000000 1.9800000191 1.4600000381
 5841.0000000 5841.0000000 1.7799999714 1.3600000143
 5842.0000000 5842.0000000 1.7100000381 1.3099999428
 5843.0000000 5843.0000000 1.6900000572 1.3099999428
 5844.0000000 5844.0000000 1.6900000572 1.3200000525
 5845.0000000 5845.0000000 1.6799999475 1.3600000143
 5846.0000000 5846.0000000 1.7000000477 1.4400000572
 5847.0000000 5847.0000000 1.8600000143 1.7400000095
 5848.0000000 5848.0000000 2.1800000668 2.0499999523
 5849.0000000 5849.0000000 2.5099999905 2.2200000286
 5850.0000000 5850.0000000 2.6900000572 2.2200000286
 5851.0000000 5851.0000000 2.5199999809 2.1500000954
 5852.0000000 5852.0000000 2.4000000954 2.0299999714
 5853.0000000 5853.0000000 2.3699998856 1.8899999857
 5854.0000000 5854.0000000 2.4100000858 1.8500000238
 5855.0000000 5855.0000000 2.4200000763 1.8999999762
 5856.0000000 5856.0000000 2.4600000381 1.9800000191
 5857.0000000 5857.0000000 2.7699999809 2.1300001144
 5858.0000000 5858.0000000 3.2200000286 2.3499999046
 5859.0000000 5859.0000000 3.7300000191 2.6300001144
 5860.0000000 5860.0000000 3.7300000191 2.8599998951
 5861.0000000 5861.0000000 3.6800000668 2.9100000858
 5862.0000000 5862.0000000 3.7599999905 2.7799999714
 5863.0000000 5863.0000000 3.8299999237 2.7100000381
 5864.0000000 5864.0000000 3.9200000763 2.7200000286
 5865.0000000 5865.0000000 4.1700000763 2.7599999905
 5866.0000000 5866.0000000 4.6300001144 2.8599998951
 5867.0000000 5867.0000000 4.9200000763 3.0999999046
 5868.0000000 5868.0000000 4.8400001526 3.1800000668
 5869.0000000 5869.0000000 4.0999999046 2.7400000095
 5870.0000000 5870.0000000 3.0299999714 2.3099999428
 5871.0000000 5871.0000000 2.4300000668 2.0399999619
 5872.0000000 5872.0000000 2.2799999714 1.9099999666
 5873.0000000 5873.0000000 2.2799999714 1.7799999714
 5874.0000000 5874.0000000 2.1700000763 1.6299999952
 5875.0000000 5875.0000000 1.9199999571 1.5499999523
 5876.0000000 5876.0000000 1.7200000286 1.3600000143
 5877.0000000 5877.0000000 1.6799999475 1.2400000095
 5878.0000000 5878.0000000 1.7300000191 1.2599999905
 5879.0000000 5879.0000000 1.8400000334 1.3500000238
 5880.0000000 5880.0000000 1.9800000191 1.5199999809
 5881.0000000 5881.0000000 2.2400000095 1.7899999619
 5882.0000000 5882.0000000 2.6099998951 2.0599999428
 5883.0000000 5883.0000000 3.0999999046 2.4600000381
 5884.0000000 5884.0000000 3.3800001144 2.7599999905
 5885.0000000 5885.0000000 3.3199999332 2.8599998951
 5886.0000000 5886.0000000 3.0899999142 2.7599999905
 5887.0000000 5887.0000000 2.7599999905 2.4000000954
 5888.0000000 5888.0000000 2.4700000286 1.9900000095
 5889.0000000 5889.0000000 2.2000000477 1.7899999619
 5890.0000000 5890.0000000 2.1500000954 1.7100000381
 5891.0000000 5891.0000000 2.0899999142 1.6799999475
 5892.0000000 5892.0000000 2.1300001144 1.7300000191
 5893.0000000 5893.0000000 2.2300000191 1.8200000525
 5894.0000000 5894.0000000 2.3599998951 1.9299999475
 5895.0000000 5895.0000000 2.5499999523 2.0699999332
 5896.0000000 5896.0000000 2.8099999428 2.2799999714
 5897.0000000 5897.0000000 3.1900000572 2.4300000668
 5898.0000000 5898.0000000 3.6600000858 2.5799999237
 5899.0000000 5899.0000000 4.1599998474 2.6700000763
 5900.0000000 5900.0000000 4.7199997902 2.7000000477
 5901.0000000 5901.0000000 4.9800000191 2.5799999237
 5902.0000000 5902.0000000 4.8200001717 2.3599998951
 5903.0000000 5903.0000000 4.2899999619 2.0799999237
 5904.0000000 5904.0000000 3.9700000286 1.8899999857
 5905.0000000 5905.0000000 3.8199999332 1.7899999619
 5906.0000000 5906.0000000 3.8800001144 1.7300000191
 5907.0000000 5907.0000000 3.9600000381 1.7200000286
 5908.0000000 5908.0000000 4.0199999809 1.7400000095
 5909.0000000 5909.0000000 4.0599999428 1.7799999714
 5910.0000000 5910.0000000 4.3099999428 1.8200000525
 5911.0000000 5911.0000000 4.6700000763 1.8700000048
 5912.0000000 5912.0000000 4.7699999809 1.9099999666
 5913.0000000 5913.0000000 4.6100001335 1.9099999666
 5914.0000000 5914.0000000 4.1199998856 1.9099999666
 5915.0000000 5915.0000000 3.6900000572 1.9900000095
 5916.0000000 5916.0000000 3.4700000286 2.0799999237
 5917.0000000 5917.0000000 3.3699998856 2.1199998856
 5918.0000000 5918.0000000 3.2100000381 2.0499999523
 5919.0000000 5919.0000000 2.7500000000 1.9099999666
