# LAS format log file from PETREL
# Project units are specified as depth units
#==================================================================
~Version information
VERS.   2.0:
WRAP.   NO:
#==================================================================
~Well
STRT .m      4650.0000000 :
STOP .m      7300.0000000 :
STEP .m     1.00000000 :
NULL .        -999.250000 :
COMP.           : COMPANY
WELL.  WELL_6   : WELL
FLD.            : FIELD
LOC.            : LOCATION
SRVC.           : SERVICE COMPANY
DATE.  2023-03-20 17:52:46   : Log Export Date {yyyy-MM-dd HH:mm:ss}
PROV.           : PROVINCE
UWI.   WELL_6   : UNIQUE WELL ID
API.            : API NUMBER
#==================================================================
~Curve
DEPT .m                   : DEPTH
Depth .m                  : Depth
GR .gAPI                  : GR
SP .mV                    : SP
RT .ohm.m                 : RT
~Parameter
#==================================================================
~Ascii
 4650.0000000 4650.0000000 108.62999725 -6.250000000 1.1799999475
 4651.0000000 4651.0000000 107.76999664 -6.150000095 1.1799999475
 4652.0000000 4652.0000000 100.23999786 -5.920000076 1.1799999475
 4653.0000000 4653.0000000 96.069999695 -5.079999924 1.1900000572
 4654.0000000 4654.0000000 96.569999695 -4.159999847 1.2200000286
 4655.0000000 4655.0000000 89.410003662 -3.369999886 1.2899999619
 4656.0000000 4656.0000000 86.830001831 -4.550000191 1.3600000143
 4657.0000000 4657.0000000 86.230003357 -4.010000229 1.4099999666
 4658.0000000 4658.0000000 88.059997559 -3.279999971 1.4600000381
 4659.0000000 4659.0000000 87.839996338 -3.440000057 1.5199999809
 4660.0000000 4660.0000000 88.180000305 -3.630000114 1.5499999523
 4661.0000000 4661.0000000 84.669998169 -3.079999924 1.5399999619
 4662.0000000 4662.0000000 91.199996948 -2.519999981 1.4600000381
 4663.0000000 4663.0000000 98.870002747 -2.940000057 1.3400000334
 4664.0000000 4664.0000000 98.790000916 -3.450000048 1.2300000191
 4665.0000000 4665.0000000 96.989997864 -3.430000067 1.1699999571
 4666.0000000 4666.0000000 94.800003052 -3.240000010 1.1399999857
 4667.0000000 4667.0000000 88.809997559 -3.269999981 1.1399999857
 4668.0000000 4668.0000000 81.260002136 -3.430000067 1.1799999475
 4669.0000000 4669.0000000 84.650001526 -3.369999886 1.2000000477
 4670.0000000 4670.0000000 85.629997253 -3.000000000 1.1900000572
 4671.0000000 4671.0000000 83.889999390 -2.750000000 1.1699999571
 4672.0000000 4672.0000000 85.569999695 -3.009999990 1.2000000477
 4673.0000000 4673.0000000 81.989997864 -3.150000095 1.2999999523
 4674.0000000 4674.0000000 78.180000305 -2.390000105 1.5199999809
 4675.0000000 4675.0000000 79.550003052 -0.959999979 1.8600000143
 4676.0000000 4676.0000000 80.730003357 0.0000000000 2.3900001049
 4677.0000000 4677.0000000 78.919998169 -0.319999993 2.5599999428
 4678.0000000 4678.0000000 77.650001526 -1.250000000 2.1099998951
 4679.0000000 4679.0000000 80.110000610 -1.820000052 1.7000000477
 4680.0000000 4680.0000000 88.580001831 -1.950000048 1.4500000477
 4681.0000000 4681.0000000 89.500000000 -3.059999943 1.3899999857
 4682.0000000 4682.0000000 85.940002441 -3.660000086 1.3799999952
 4683.0000000 4683.0000000 83.419998169 -3.490000010 1.3799999952
 4684.0000000 4684.0000000 81.470001221 -2.930000067 1.3500000238
 4685.0000000 4685.0000000 83.459999084 -3.019999981 1.2599999905
 4686.0000000 4686.0000000 89.989997864 -3.119999886 1.2400000095
 4687.0000000 4687.0000000 93.919998169 -2.619999886 1.2500000000
 4688.0000000 4688.0000000 99.940002441 -1.899999976 1.1699999571
 4689.0000000 4689.0000000 106.02999878 -1.750000000 1.0900000334
 4690.0000000 4690.0000000 101.86000061 -2.569999933 1.0399999619
 4691.0000000 4691.0000000 105.47000122 -3.490000010 1.0000000000
 4692.0000000 4692.0000000 111.98999786 -3.529999971 0.9900000095
 4693.0000000 4693.0000000 113.90000153 -4.400000095 1.0199999809
 4694.0000000 4694.0000000 117.79000092 -5.090000153 1.0299999714
 4695.0000000 4695.0000000 115.36000061 -5.400000095 1.0299999714
 4696.0000000 4696.0000000 113.34999847 -5.670000076 1.0499999523
 4697.0000000 4697.0000000 109.59999847 -5.539999962 1.0800000429
 4698.0000000 4698.0000000 102.15000153 -4.639999866 1.1200000048
 4699.0000000 4699.0000000 90.930000305 -3.329999924 1.1599999666
 4700.0000000 4700.0000000 79.610000610 -2.519999981 1.1799999475
 4701.0000000 4701.0000000 82.720001221 -1.899999976 1.2200000286
 4702.0000000 4702.0000000 86.800003052 -1.440000057 1.2500000000
 4703.0000000 4703.0000000 85.750000000 -1.490000010 1.2599999905
 4704.0000000 4704.0000000 86.199996948 -1.919999957 1.2899999619
 4705.0000000 4705.0000000 82.410003662 -2.289999962 1.3400000334
 4706.0000000 4706.0000000 80.760002136 -2.650000095 1.3700000048
 4707.0000000 4707.0000000 75.089996338 -2.859999895 1.3899999857
 4708.0000000 4708.0000000 77.410003662 -2.880000114 1.4099999666
 4709.0000000 4709.0000000 80.860000610 -2.019999981 1.4400000572
 4710.0000000 4710.0000000 75.510002136 -1.000000000 1.5099999905
 4711.0000000 4711.0000000 75.919998169 -0.579999983 1.6200000048
 4712.0000000 4712.0000000 78.269996643 -0.509999990 1.9199999571
 4713.0000000 4713.0000000 73.260002136 -0.569999993 1.8899999857
 4714.0000000 4714.0000000 68.599998474 -1.230000019 1.8799999952
 4715.0000000 4715.0000000 76.589996338 -1.450000048 2.0799999237
 4716.0000000 4716.0000000 82.400001526 -2.259999990 1.8200000525
 4717.0000000 4717.0000000 81.220001221 -3.319999933 1.6299999952
 4718.0000000 4718.0000000 83.610000610 -4.010000229 1.3600000143
 4719.0000000 4719.0000000 88.500000000 -4.130000114 1.2500000000
 4720.0000000 4720.0000000 88.400001526 -3.539999962 1.2000000477
 4721.0000000 4721.0000000 90.279998779 -2.579999924 1.1900000572
 4722.0000000 4722.0000000 92.209999084 -1.840000033 1.2100000381
 4723.0000000 4723.0000000 91.250000000 -1.409999967 1.2500000000
 4724.0000000 4724.0000000 96.449996948 -1.419999957 1.2899999619
 4725.0000000 4725.0000000 96.650001526 -1.570000052 1.3099999428
 4726.0000000 4726.0000000 90.809997559 -1.750000000 1.3200000525
 4727.0000000 4727.0000000 87.389999390 -1.799999952 1.3099999428
 4728.0000000 4728.0000000 85.980003357 -1.799999952 1.2899999619
 4729.0000000 4729.0000000 85.010002136 -1.820000052 1.2400000095
 4730.0000000 4730.0000000 86.389999390 -1.789999962 1.2100000381
 4731.0000000 4731.0000000 93.360000610 -1.519999981 1.1900000572
 4732.0000000 4732.0000000 83.470001221 -0.810000002 1.1599999666
 4733.0000000 4733.0000000 78.190002441 0.0900000036 1.1699999571
 4734.0000000 4734.0000000 72.500000000 1.0399999619 1.3099999428
 4735.0000000 4735.0000000 71.669998169 1.7300000191 1.2599999905
 4736.0000000 4736.0000000 80.610000610 1.6699999571 1.0299999714
 4737.0000000 4737.0000000 81.629997253 1.2400000095 0.8600000143
 4738.0000000 4738.0000000 77.150001526 1.0000000000 0.7799999714
 4739.0000000 4739.0000000 81.860000610 -0.079999998 0.7799999714
 4740.0000000 4740.0000000 86.900001526 -1.309999943 0.9100000262
 4741.0000000 4741.0000000 81.830001831 -2.309999943 1.1299999952
 4742.0000000 4742.0000000 82.900001526 -3.009999990 1.2500000000
 4743.0000000 4743.0000000 85.690002441 -3.009999990 1.3500000238
 4744.0000000 4744.0000000 89.110000610 -2.569999933 1.3899999857
 4745.0000000 4745.0000000 90.629997253 -2.029999971 1.3799999952
 4746.0000000 4746.0000000 82.680000305 -1.429999948 1.3799999952
 4747.0000000 4747.0000000 72.330001831 -1.049999952 1.3799999952
 4748.0000000 4748.0000000 78.150001526 -1.360000014 1.3899999857
 4749.0000000 4749.0000000 78.339996338 -1.379999995 1.3899999857
 4750.0000000 4750.0000000 74.709999084 -1.500000000 1.4600000381
 4751.0000000 4751.0000000 72.029998779 -2.170000076 1.6699999571
 4752.0000000 4752.0000000 72.489997864 -2.170000076 1.8999999762
 4753.0000000 4753.0000000 67.919998169 -2.349999905 2.0999999046
 4754.0000000 4754.0000000 66.419998169 -2.750000000 2.2599999905
 4755.0000000 4755.0000000 59.310001373 -3.579999924 2.4200000763
 4756.0000000 4756.0000000 58.380001068 -4.630000114 2.4900000095
 4757.0000000 4757.0000000 52.470001221 -8.060000420 2.5799999237
 4758.0000000 4758.0000000 44.889999390 -11.97000027 2.5299999714
 4759.0000000 4759.0000000 45.369998932 -13.60999966 2.4400000572
 4760.0000000 4760.0000000 51.779998779 -13.89999962 2.4400000572
 4761.0000000 4761.0000000 58.939998627 -13.14999962 2.5299999714
 4762.0000000 4762.0000000 65.319999695 -11.19999981 2.5000000000
 4763.0000000 4763.0000000 73.279998779 -8.380000114 2.2500000000
 4764.0000000 4764.0000000 85.680000305 -6.369999886 1.7200000286
 4765.0000000 4765.0000000 92.519996643 -5.070000172 1.3899999857
 4766.0000000 4766.0000000 96.330001831 -4.130000114 1.2100000381
 4767.0000000 4767.0000000 94.620002747 -3.000000000 1.1799999475
 4768.0000000 4768.0000000 84.720001221 -1.789999962 1.2200000286
 4769.0000000 4769.0000000 75.449996948 -0.889999986 1.5000000000
 4770.0000000 4770.0000000 77.389999390 -0.730000019 1.8500000238
 4771.0000000 4771.0000000 80.809997559 -1.279999971 2.0199999809
