# LAS format log file from PETREL
# Project units are specified as depth units
#==================================================================
~Version information
VERS.   2.0:
WRAP.   NO:
#==================================================================
~Well
STRT .m      3000.0000000 :
STOP .m      7750.0000000 :
STEP .m     1.00000000 :
NULL .        -999.250000 :
COMP.           : COMPANY
WELL.  WELL_2   : WELL
FLD.            : FIELD
LOC.            : LOCATION
SRVC.           : SERVICE COMPANY
DATE.  2023-03-20 17:52:46   : Log Export Date {yyyy-MM-dd HH:mm:ss}
PROV.           : PROVINCE
UWI.   WELL_2   : UNIQUE WELL ID
API.            : API NUMBER
#==================================================================
~Curve
DEPT .m                   : DEPTH
Depth .m                  : Depth
SP .mV                    : SP
SN .ohm.m                 : SN
LN .ohm.m                 : LN
LAT .ohm.m                : LAT
~Parameter
#==================================================================
~Ascii
# ...
 3612.0000000 3612.0000000 3.4100000858 1.5099999905 1.4800000191 1.4800000191
 3613.0000000 3613.0000000 3.8699998856 1.4700000286 1.4700000286 1.4700000286
 3614.0000000 3614.0000000 4.0700001717 1.4400000572 1.4400000572 1.4400000572
 3615.0000000 3615.0000000 4.2300000191 1.3999999762 1.4099999666 1.4099999666
 3616.0000000 3616.0000000 4.2500000000 1.3400000334 1.3700000048 1.3700000048
 3617.0000000 3617.0000000 4.3099999428 1.2799999714 1.3300000429 1.3300000429
 3618.0000000 3618.0000000 4.4800000191 1.2300000191 1.2899999619 1.2899999619
 3619.0000000 3619.0000000 4.6399998665 1.1799999475 1.2500000000 1.2500000000
 3620.0000000 3620.0000000 5.0799999237 1.1399999857 1.2100000381 1.2100000381
 3621.0000000 3621.0000000 5.0700001717 1.1000000238 1.1799999475 1.1799999475
 3622.0000000 3622.0000000 4.7199997902 1.0800000429 1.1699999571 1.1699999571
 3623.0000000 3623.0000000 4.0900001526 1.0700000525 1.1599999666 1.1599999666
 3624.0000000 3624.0000000 3.3199999332 1.0599999428 1.1399999857 1.1399999857
 3625.0000000 3625.0000000 2.8900001049 1.0700000525 1.0900000334 1.0900000334
 3626.0000000 3626.0000000 2.5799999237 1.0800000429 1.0499999523 1.0499999523
 3627.0000000 3627.0000000 2.4500000477 1.1100000143 1.0299999714 1.0299999714
 3628.0000000 3628.0000000 2.5099999905 1.1499999762 1.0199999809 1.0199999809
 3629.0000000 3629.0000000 2.0499999523 1.1699999571 1.0199999809 1.0199999809
 3630.0000000 3630.0000000 1.5900000334 1.1799999475 1.0199999809 1.0199999809
 3631.0000000 3631.0000000 2.1099998951 1.1900000572 1.0299999714 1.0299999714
 3632.0000000 3632.0000000 2.7000000477 1.1900000572 1.0399999619 1.0399999619
 3633.0000000 3633.0000000 3.6300001144 1.1900000572 1.0599999428 1.0599999428
 3634.0000000 3634.0000000 4.3699998856 1.2300000191 1.0900000334 1.0900000334
 3635.0000000 3635.0000000 3.7000000477 1.2500000000 1.1299999952 1.1299999952
 3636.0000000 3636.0000000 3.2899999619 1.2599999905 1.1599999666 1.1599999666
 3637.0000000 3637.0000000 3.2000000477 1.2500000000 1.1900000572 1.1900000572
 3638.0000000 3638.0000000 3.2400000095 1.2100000381 1.2200000286 1.2200000286
 3639.0000000 3639.0000000 3.4100000858 1.1699999571 1.2400000095 1.2400000095
 3640.0000000 3640.0000000 3.3299999237 1.1399999857 1.2500000000 1.2500000000
 3641.0000000 3641.0000000 2.7999999523 1.1499999762 1.2599999905 1.2599999905
 3642.0000000 3642.0000000 0.9200000167 1.1799999475 1.2699999809 1.2699999809
 3643.0000000 3643.0000000 -0.990000010 1.2599999905 1.2699999809 1.2699999809
 3644.0000000 3644.0000000 -2.369999886 1.3600000143 1.2599999905 1.2599999905
 3645.0000000 3645.0000000 -2.880000114 1.4299999475 1.2400000095 1.2400000095
 3646.0000000 3646.0000000 -2.799999952 1.4600000381 1.2500000000 1.2500000000
 3647.0000000 3647.0000000 -2.519999981 1.4800000191 1.2799999714 1.2799999714
 3648.0000000 3648.0000000 -2.250000000 1.4800000191 1.3200000525 1.3200000525
 3649.0000000 3649.0000000 -1.970000029 1.4500000477 1.3500000238 1.3500000238
 3650.0000000 3650.0000000 -1.820000052 1.4099999666 1.3700000048 1.3700000048
 3651.0000000 3651.0000000 -2.230000019 1.3500000238 1.3899999857 1.3899999857
 3652.0000000 3652.0000000 -2.700000048 1.3400000334 1.3899999857 1.3899999857
 3653.0000000 3653.0000000 -3.549999952 1.3700000048 1.3799999952 1.3799999952
 3654.0000000 3654.0000000 -4.829999924 1.4099999666 1.3600000143 1.3600000143
 3655.0000000 3655.0000000 -6.159999847 1.4600000381 1.3400000334 1.3400000334
 3656.0000000 3656.0000000 -8.260000229 1.5599999428 1.2999999523 1.2999999523
 3657.0000000 3657.0000000 -11.02999973 1.6100000143 1.2599999905 1.2599999905
 3658.0000000 3658.0000000 -12.53999996 1.5900000334 1.2400000095 1.2400000095
 3659.0000000 3659.0000000 -12.23999977 1.4299999475 1.2200000286 1.2200000286
 3660.0000000 3660.0000000 -10.46000004 1.2999999523 1.2100000381 1.2100000381
 3661.0000000 3661.0000000 -8.930000305 1.2899999619 1.2300000191 1.2300000191
 3662.0000000 3662.0000000 -5.570000172 1.3099999428 1.2599999905 1.2599999905
 3663.0000000 3663.0000000 -3.880000114 1.3500000238 1.3200000525 1.3200000525
 3664.0000000 3664.0000000 -2.180000067 1.3799999952 1.3700000048 1.3700000048
 3665.0000000 3665.0000000 -1.279999971 1.4099999666 1.4099999666 1.4099999666
 3666.0000000 3666.0000000 -0.790000021 1.4299999475 1.4400000572 1.4400000572
 3667.0000000 3667.0000000 0.0299999993 1.4500000477 1.4600000381 1.4600000381
 3668.0000000 3668.0000000 0.6299999952 1.4500000477 1.4800000191 1.4800000191
 3669.0000000 3669.0000000 1.2799999714 1.4500000477 1.4800000191 1.4800000191
 3670.0000000 3670.0000000 1.9400000572 1.4700000286 1.4900000095 1.4900000095
 3671.0000000 3671.0000000 1.7100000381 1.4800000191 1.4900000095 1.4900000095
 3672.0000000 3672.0000000 1.3300000429 1.5199999809 1.5000000000 1.5000000000
 3673.0000000 3673.0000000 1.1399999857 1.5399999619 1.5199999809 1.5199999809
 3674.0000000 3674.0000000 1.1200000048 1.5599999428 1.5299999714 1.5299999714
 3675.0000000 3675.0000000 1.1100000143 1.5700000525 1.5399999619 1.5399999619
 3676.0000000 3676.0000000 1.0299999714 1.5599999428 1.5399999619 1.5399999619
 3677.0000000 3677.0000000 0.8799999952 1.5399999619 1.5499999523 1.5499999523
 3678.0000000 3678.0000000 0.5099999905 1.5299999714 1.5399999619 1.5399999619
 3679.0000000 3679.0000000 -0.140000001 1.5099999905 1.5199999809 1.5199999809
 3680.0000000 3680.0000000 0.3199999928 1.5099999905 1.5099999905 1.5099999905
 3681.0000000 3681.0000000 0.8799999952 1.5099999905 1.4900000095 1.4900000095
 3682.0000000 3682.0000000 1.3600000143 1.5099999905 1.4700000286 1.4700000286
 3683.0000000 3683.0000000 1.6499999762 1.5000000000 1.4500000477 1.4500000477
 3684.0000000 3684.0000000 1.7500000000 1.4900000095 1.4400000572 1.4400000572
 3685.0000000 3685.0000000 1.8200000525 1.4800000191 1.4500000477 1.4500000477
 3686.0000000 3686.0000000 2.6400001049 1.4700000286 1.4700000286 1.4700000286
 3687.0000000 3687.0000000 3.3299999237 1.4600000381 1.4900000095 1.4900000095
 3688.0000000 3688.0000000 3.7699999809 1.4500000477 1.5000000000 1.5000000000
 3689.0000000 3689.0000000 3.8800001144 1.4400000572 1.5000000000 1.5000000000
 3690.0000000 3690.0000000 3.5199999809 1.4099999666 1.4900000095 1.4900000095
 3691.0000000 3691.0000000 3.4000000954 1.3899999857 1.4800000191 1.4800000191
 3692.0000000 3692.0000000 3.6300001144 1.4099999666 1.4500000477 1.4500000477
 3693.0000000 3693.0000000 3.8800001144 1.4299999475 1.4500000477 1.4500000477
 3694.0000000 3694.0000000 3.7300000191 1.4600000381 1.4600000381 1.4600000381
 3695.0000000 3695.0000000 3.3900001049 1.4900000095 1.4800000191 1.4800000191
 3696.0000000 3696.0000000 3.0899999142 1.5199999809 1.5099999905 1.5099999905
 3697.0000000 3697.0000000 2.9200000763 1.5399999619 1.5399999619 1.5399999619
 3698.0000000 3698.0000000 2.7799999714 1.5700000525 1.5800000429 1.5800000429
 3699.0000000 3699.0000000 2.5799999237 1.6000000238 1.6000000238 1.6000000238
 3700.0000000 3700.0000000 2.4700000286 1.6000000238 1.6100000143 1.6100000143
 3701.0000000 3701.0000000 2.6400001049 1.6000000238 1.6000000238 1.6000000238
 3702.0000000 3702.0000000 2.8399999142 1.5700000525 1.5599999428 1.5599999428
 3703.0000000 3703.0000000 2.9700000286 1.5800000429 1.5900000334 1.5900000334
 3704.0000000 3704.0000000 2.7699999809 1.6000000238 1.6299999952 1.6299999952
 3705.0000000 3705.0000000 2.5299999714 1.6299999952 1.6599999666 1.6599999666
 3706.0000000 3706.0000000 2.6199998856 1.6399999857 1.7000000477 1.7000000477
 3707.0000000 3707.0000000 2.7100000381 1.6399999857 1.6900000572 1.6900000572
 3708.0000000 3708.0000000 2.5099999905 1.6299999952 1.6699999571 1.6699999571
 3709.0000000 3709.0000000 2.1900000572 1.6100000143 1.6499999762 1.6499999762
 3710.0000000 3710.0000000 1.9900000095 1.6200000048 1.6299999952 1.6299999952
 3711.0000000 3711.0000000 1.9700000286 1.6399999857 1.6299999952 1.6299999952
 3712.0000000 3712.0000000 2.0199999809 1.6299999952 1.6399999857 1.6399999857
 3713.0000000 3713.0000000 2.0899999142 1.6000000238 1.6100000143 1.6100000143
