# LAS format log file from PETREL
# Project units are specified as depth units
#==================================================================
~Version information
VERS.   2.0:
WRAP.   NO:
#==================================================================
~Well
STRT .m      4561.0000000 :
STOP .m      7034.0000000 :
STEP .m     1.00000000 :
NULL .        -999.250000 :
COMP.           : COMPANY
WELL.  WELL_5   : WELL
FLD.            : FIELD
LOC.            : LOCATION
SRVC.           : SERVICE COMPANY
DATE.  2023-03-20 17:52:46   : Log Export Date {yyyy-MM-dd HH:mm:ss}
PROV.           : PROVINCE
UWI.   WELL_5   : UNIQUE WELL ID
API.            : API NUMBER
#==================================================================
~Curve
DEPT .m                   : DEPTH
Depth .m                  : Depth
SN .ohm.m                 : SN
ILD .ohm.m                : ILD
~Parameter
#==================================================================
~Ascii
# ...
 4712.0000000 4712.0000000 1.2799999714 1.1900000572
 4713.0000000 4713.0000000 1.2999999523 1.2300000191
 4714.0000000 4714.0000000 1.3600000143 1.2699999809
 4715.0000000 4715.0000000 1.3999999762 1.2699999809
 4716.0000000 4716.0000000 1.4199999571 1.2899999619
 4717.0000000 4717.0000000 1.4299999475 1.3400000334
 4718.0000000 4718.0000000 1.4400000572 1.4299999475
 4719.0000000 4719.0000000 1.4600000381 1.3600000143
 4720.0000000 4720.0000000 1.4299999475 1.1900000572
 4721.0000000 4721.0000000 1.2899999619 1.0199999809
 4722.0000000 4722.0000000 1.1499999762 0.9499999881
 4723.0000000 4723.0000000 1.1000000238 0.8899999857
 4724.0000000 4724.0000000 1.1599999666 0.9599999785
 4725.0000000 4725.0000000 1.2699999809 1.0700000525
 4726.0000000 4726.0000000 1.3300000429 1.2000000477
 4727.0000000 4727.0000000 1.3500000238 1.2400000095
 4728.0000000 4728.0000000 1.3700000048 1.2500000000
 4729.0000000 4729.0000000 1.3799999952 1.2500000000
 4730.0000000 4730.0000000 1.3899999857 1.2599999905
 4731.0000000 4731.0000000 1.4099999666 1.2899999619
 4732.0000000 4732.0000000 1.4400000572 1.3400000334
 4733.0000000 4733.0000000 1.4800000191 1.4199999571
 4734.0000000 4734.0000000 1.5499999523 1.4900000095
 4735.0000000 4735.0000000 1.6499999762 1.6100000143
 4736.0000000 4736.0000000 1.7500000000 1.7699999809
 4737.0000000 4737.0000000 1.8400000334 1.8200000525
 4738.0000000 4738.0000000 1.8300000429 1.6799999475
 4739.0000000 4739.0000000 1.7000000477 1.4700000286
 4740.0000000 4740.0000000 1.5099999905 1.3300000429
 4741.0000000 4741.0000000 1.3999999762 1.2100000381
 4742.0000000 4742.0000000 1.3799999952 1.1699999571
 4743.0000000 4743.0000000 1.4099999666 1.2200000286
 4744.0000000 4744.0000000 1.4600000381 1.2899999619
 4745.0000000 4745.0000000 1.5099999905 1.3700000048
 4746.0000000 4746.0000000 1.5499999523 1.5000000000
 4747.0000000 4747.0000000 1.6100000143 1.6200000048
 4748.0000000 4748.0000000 1.7599999905 1.7999999523
 4749.0000000 4749.0000000 2.0000000000 1.9500000477
 4750.0000000 4750.0000000 2.1400001049 2.0099999905
 4751.0000000 4751.0000000 2.2000000477 2.0099999905
 4752.0000000 4752.0000000 2.2599999905 2.0799999237
 4753.0000000 4753.0000000 2.4200000763 2.2400000095
 4754.0000000 4754.0000000 2.6500000954 2.3800001144
 4755.0000000 4755.0000000 2.8499999046 2.4600000381
 4756.0000000 4756.0000000 2.8800001144 2.5199999809
 4757.0000000 4757.0000000 2.8099999428 2.5699999332
 4758.0000000 4758.0000000 2.8299999237 2.5899999142
 4759.0000000 4759.0000000 3.1099998951 2.6400001049
 4760.0000000 4760.0000000 3.3800001144 2.6500000954
 4761.0000000 4761.0000000 3.3399999142 2.5699999332
 4762.0000000 4762.0000000 3.0899999142 2.2200000286
 4763.0000000 4763.0000000 2.8099999428 2.0599999428
 4764.0000000 4764.0000000 2.5399999619 2.0000000000
 4765.0000000 4765.0000000 2.3499999046 1.8500000238
 4766.0000000 4766.0000000 2.1900000572 1.6200000048
 4767.0000000 4767.0000000 2.0599999428 1.5099999905
 4768.0000000 4768.0000000 1.9500000477 1.5199999809
 4769.0000000 4769.0000000 2.1800000668 1.6200000048
 4770.0000000 4770.0000000 3.2500000000 1.8899999857
 4771.0000000 4771.0000000 4.0700001717 2.4700000286
 4772.0000000 4772.0000000 5.1199998856 2.8499999046
 4773.0000000 4773.0000000 5.2100000381 2.9500000477
 4774.0000000 4774.0000000 4.8099999428 2.7200000286
 4775.0000000 4775.0000000 4.0999999046 2.3900001049
 4776.0000000 4776.0000000 3.2899999619 2.1400001049
 4777.0000000 4777.0000000 2.4100000858 1.9600000381
 4778.0000000 4778.0000000 2.2999999523 1.8200000525
 4779.0000000 4779.0000000 2.1700000763 1.6900000572
 4780.0000000 4780.0000000 2.1199998856 1.7599999905
 4781.0000000 4781.0000000 2.1300001144 1.8400000334
 4782.0000000 4782.0000000 2.1600000858 1.8899999857
 4783.0000000 4783.0000000 2.1900000572 1.9099999666
 4784.0000000 4784.0000000 2.2000000477 1.9199999571
 4785.0000000 4785.0000000 2.2000000477 1.8999999762
 4786.0000000 4786.0000000 2.1800000668 1.8700000048
 4787.0000000 4787.0000000 2.1600000858 1.8200000525
 4788.0000000 4788.0000000 2.1300001144 1.7599999905
 4789.0000000 4789.0000000 2.0999999046 1.6900000572
 4790.0000000 4790.0000000 2.0899999142 1.7500000000
 4791.0000000 4791.0000000 2.1300001144 1.8799999952
 4792.0000000 4792.0000000 2.3099999428 2.0099999905
 4793.0000000 4793.0000000 2.5099999905 2.1700000763
 4794.0000000 4794.0000000 2.7000000477 2.3900001049
 4795.0000000 4795.0000000 2.8199999332 2.5699999332
 4796.0000000 4796.0000000 2.9100000858 2.6199998856
 4797.0000000 4797.0000000 2.9900000095 2.6800000668
 4798.0000000 4798.0000000 3.1300001144 2.7300000191
 4799.0000000 4799.0000000 3.4300000668 2.7400000095
 4800.0000000 4800.0000000 3.8199999332 2.7599999905
 4801.0000000 4801.0000000 3.9900000095 2.7500000000
 4802.0000000 4802.0000000 4.0100002289 2.6900000572
 4803.0000000 4803.0000000 4.0199999809 2.5899999142
 4804.0000000 4804.0000000 3.9700000286 2.5199999809
 4805.0000000 4805.0000000 3.7599999905 2.4600000381
 4806.0000000 4806.0000000 3.4800000191 2.4100000858
 4807.0000000 4807.0000000 3.3099999428 2.3299999237
 4808.0000000 4808.0000000 3.1700000763 2.2500000000
 4809.0000000 4809.0000000 3.0499999523 2.1600000858
 4810.0000000 4810.0000000 3.1300001144 2.1300001144
 4811.0000000 4811.0000000 3.3499999046 2.2400000095
 4812.0000000 4812.0000000 3.7300000191 2.2999999523
 4813.0000000 4813.0000000 3.7300000191 2.1700000763
 4814.0000000 4814.0000000 2.9200000763 2.1600000858
 4815.0000000 4815.0000000 2.8800001144 2.1300001144
 4816.0000000 4816.0000000 3.2999999523 2.1199998856
 4817.0000000 4817.0000000 3.8399999142 2.2899999619
 4818.0000000 4818.0000000 3.7300000191 2.0799999237
 4819.0000000 4819.0000000 2.5799999237 1.7599999905
 4820.0000000 4820.0000000 1.8700000048 1.5299999714
 4821.0000000 4821.0000000 1.5599999428 1.2799999714
 4822.0000000 4822.0000000 1.4400000572 1.1200000048
 4823.0000000 4823.0000000 1.4199999571 1.0800000429
 4824.0000000 4824.0000000 1.4099999666 1.1100000143
 4825.0000000 4825.0000000 1.4199999571 1.1399999857
 4826.0000000 4826.0000000 1.4900000095 1.2000000477
 4827.0000000 4827.0000000 1.6000000238 1.2899999619
 4828.0000000 4828.0000000 1.7500000000 1.4199999571
 4829.0000000 4829.0000000 1.9400000572 1.5199999809
 4830.0000000 4830.0000000 2.1099998951 1.5399999619
 4831.0000000 4831.0000000 2.2200000286 1.4800000191
 4832.0000000 4832.0000000 2.2599999905 1.4199999571
 4833.0000000 4833.0000000 2.2400000095 1.3799999952
 4834.0000000 4834.0000000 2.2300000191 1.3500000238
 4835.0000000 4835.0000000 2.2400000095 1.3400000334
 4836.0000000 4836.0000000 2.2200000286 1.3600000143
 4837.0000000 4837.0000000 2.2599999905 1.3899999857
 4838.0000000 4838.0000000 2.3900001049 1.4500000477
 4839.0000000 4839.0000000 2.4600000381 1.6100000143
 4840.0000000 4840.0000000 2.6300001144 1.7899999619
 4841.0000000 4841.0000000 2.8499999046 1.8099999428
 4842.0000000 4842.0000000 2.9300000668 1.7400000095
 4843.0000000 4843.0000000 2.7000000477 1.6699999571
 4844.0000000 4844.0000000 2.5799999237 1.6200000048
 4845.0000000 4845.0000000 2.5099999905 1.6100000143
 4846.0000000 4846.0000000 2.3399999142 1.6900000572
 4847.0000000 4847.0000000 2.2599999905 1.7799999714
 4848.0000000 4848.0000000 2.1800000668 1.7599999905
 4849.0000000 4849.0000000 2.0599999428 1.6499999762
 4850.0000000 4850.0000000 1.8999999762 1.5299999714
 4851.0000000 4851.0000000 1.8099999428 1.5000000000
 4852.0000000 4852.0000000 1.7599999905 1.5399999619
 4853.0000000 4853.0000000 1.8799999952 1.6100000143
 4854.0000000 4854.0000000 1.9600000381 1.6100000143
 4855.0000000 4855.0000000 1.8300000429 1.5299999714
 4856.0000000 4856.0000000 1.7100000381 1.3999999762
 4857.0000000 4857.0000000 1.5000000000 1.1699999571
 4858.0000000 4858.0000000 1.4299999475 1.1100000143
 4859.0000000 4859.0000000 1.4099999666 1.1499999762
 4860.0000000 4860.0000000 1.4600000381 1.2300000191
 4861.0000000 4861.0000000 1.5199999809 1.3400000334
 4862.0000000 4862.0000000 1.6000000238 1.4400000572
