# LAS format log file from PETREL
# Project units are specified as depth units
#==================================================================
~Version information
VERS.   2.0:
WRAP.   NO:
#==================================================================
~Well
STRT .m      4650.0000000 :
STOP .m      7300.0000000 :
STEP .m     1.00000000 :
NULL .        -999.250000 :
COMP.           : COMPANY
WELL.  WELL_6   : WELL
FLD.            : FIELD
LOC.            : LOCATION
SRVC.           : SERVICE COMPANY
DATE.  2023-03-20 17:52:46   : Log Export Date {yyyy-MM-dd HH:mm:ss}
PROV.           : PROVINCE
UWI.   WELL_6   : UNIQUE WELL ID
API.            : API NUMBER
#==================================================================
~Curve
DEPT .m                   : DEPTH
Depth .m                  : Depth
GR .gAPI                  : GR
SP .mV                    : SP
RT .ohm.m                 : RT
~Parameter
#==================================================================
~Ascii
# ...
 5016.0000000 5016.0000000 85.410003662 -1.700000048 1.3700000048
 5017.0000000 5017.0000000 89.730003357 -1.659999967 1.0199999809
 5018.0000000 5018.0000000 90.010002136 -1.730000019 0.8799999952
 5019.0000000 5019.0000000 98.089996338 -1.639999986 0.8299999833
 5020.0000000 5020.0000000 91.919998169 -0.159999996 0.8600000143
 5021.0000000 5021.0000000 85.769996643 0.0099999998 0.9399999976
 5022.0000000 5022.0000000 90.400001526 -0.980000019 1.0900000334
 5023.0000000 5023.0000000 93.199996948 -2.119999886 1.2200000286
 5024.0000000 5024.0000000 95.160003662 -2.519999981 1.3400000334
 5025.0000000 5025.0000000 90.559997559 -1.789999962 1.5299999714
 5026.0000000 5026.0000000 80.300003052 -2.539999962 1.5800000429
 5027.0000000 5027.0000000 77.629997253 -3.529999971 1.7200000286
 5028.0000000 5028.0000000 79.540000916 -2.970000029 1.8999999762
 5029.0000000 5029.0000000 82.510002136 -3.519999981 1.9600000381
 5030.0000000 5030.0000000 84.239997864 -2.910000086 2.0899999142
 5031.0000000 5031.0000000 83.150001526 -1.580000043 2.2899999619
 5032.0000000 5032.0000000 82.000000000 -2.009999990 2.3699998856
 5033.0000000 5033.0000000 86.150001526 -1.600000024 2.4800000191
 5034.0000000 5034.0000000 87.519996643 -1.909999967 2.0799999237
 5035.0000000 5035.0000000 82.730003357 -1.929999948 2.0199999809
 5036.0000000 5036.0000000 81.360000610 -0.970000029 1.9900000095
 5037.0000000 5037.0000000 84.720001221 -1.539999962 2.1400001049
 5038.0000000 5038.0000000 85.040000916 -2.690000057 1.8600000143
 5039.0000000 5039.0000000 84.239997864 -3.690000057 1.7999999523
 5040.0000000 5040.0000000 91.379997253 -4.489999771 1.7000000477
 5041.0000000 5041.0000000 94.980003357 -3.559999943 1.5800000429
 5042.0000000 5042.0000000 95.230003357 -2.440000057 1.4700000286
 5043.0000000 5043.0000000 98.279998779 -2.059999943 1.4400000572
 5044.0000000 5044.0000000 103.66999817 -2.250000000 1.4600000381
 5045.0000000 5045.0000000 104.05999756 -2.319999933 1.5700000525
 5046.0000000 5046.0000000 90.309997559 -2.119999886 1.8200000525
 5047.0000000 5047.0000000 86.730003357 -1.220000029 2.2100000381
 5048.0000000 5048.0000000 88.269996643 -1.120000005 2.1400001049
 5049.0000000 5049.0000000 89.830001831 -2.619999886 2.2500000000
 5050.0000000 5050.0000000 90.959999084 -3.809999943 2.2000000477
 5051.0000000 5051.0000000 85.669998169 -3.859999895 2.0099999905
 5052.0000000 5052.0000000 88.470001221 -3.069999933 1.7899999619
 5053.0000000 5053.0000000 91.449996948 -2.519999981 1.5800000429
 5054.0000000 5054.0000000 95.180000305 -2.769999981 1.4600000381
 5055.0000000 5055.0000000 95.379997253 -2.910000086 1.3899999857
 5056.0000000 5056.0000000 91.410003662 -2.299999952 1.5199999809
 5057.0000000 5057.0000000 90.349998474 -2.680000067 1.6200000048
 5058.0000000 5058.0000000 101.30999756 -2.450000048 1.6200000048
 5059.0000000 5059.0000000 104.47000122 -2.450000048 1.4500000477
 5060.0000000 5060.0000000 109.76999664 -3.829999924 1.2999999523
 5061.0000000 5061.0000000 113.47000122 -4.619999886 1.1900000572
 5062.0000000 5062.0000000 116.29000092 -4.860000134 1.1200000048
 5063.0000000 5063.0000000 109.56999969 -4.340000153 1.1000000238
 5064.0000000 5064.0000000 107.04000092 -3.279999971 1.1100000143
 5065.0000000 5065.0000000 110.62000275 -3.710000038 1.1399999857
 5066.0000000 5066.0000000 101.83999634 -3.700000048 1.2200000286
 5067.0000000 5067.0000000 93.629997253 -2.920000076 1.3600000143
 5068.0000000 5068.0000000 91.089996338 -2.269999981 1.5800000429
 5069.0000000 5069.0000000 93.790000916 -1.889999986 1.8200000525
 5070.0000000 5070.0000000 91.330001831 -2.140000105 1.8500000238
 5071.0000000 5071.0000000 96.959999084 -3.130000114 1.8200000525
 5072.0000000 5072.0000000 100.50000000 -4.139999866 1.7799999714
 5073.0000000 5073.0000000 106.65000153 -4.500000000 1.7400000095
 5074.0000000 5074.0000000 118.84999847 -2.440000057 1.6200000048
 5075.0000000 5075.0000000 142.38000488 -2.309999943 1.5000000000
 5076.0000000 5076.0000000 127.68000031 -2.599999905 1.3300000429
 5077.0000000 5077.0000000 105.63999939 -2.640000105 1.2400000095
 5078.0000000 5078.0000000 90.790000916 -1.620000005 1.2400000095
 5079.0000000 5079.0000000 84.080001831 -0.029999999 1.2999999523
 5080.0000000 5080.0000000 87.529998779 0.8500000238 1.3600000143
 5081.0000000 5081.0000000 82.209999084 0.6999999881 1.2799999714
 5082.0000000 5082.0000000 80.769996643 -0.070000000 1.2899999619
 5083.0000000 5083.0000000 81.879997253 -1.309999943 1.2899999619
 5084.0000000 5084.0000000 75.660003662 -1.720000029 1.0800000429
 5085.0000000 5085.0000000 81.269996643 -1.159999967 1.0399999619
 5086.0000000 5086.0000000 88.489997864 -1.879999995 1.0399999619
 5087.0000000 5087.0000000 90.919998169 -3.640000105 1.2100000381
 5088.0000000 5088.0000000 89.400001526 -4.949999809 1.4299999475
 5089.0000000 5089.0000000 86.580001831 -5.699999809 1.6900000572
 5090.0000000 5090.0000000 86.480003357 -5.550000191 1.9099999666
 5091.0000000 5091.0000000 83.389999390 -4.860000134 2.0899999142
 5092.0000000 5092.0000000 81.779998779 -6.260000229 2.2699999809
 5093.0000000 5093.0000000 80.339996338 -6.829999924 2.4100000858
 5094.0000000 5094.0000000 77.190002441 -7.500000000 2.5399999619
 5095.0000000 5095.0000000 71.989997864 -7.860000134 2.7200000286
 5096.0000000 5096.0000000 73.430000305 -6.820000172 2.9500000477
 5097.0000000 5097.0000000 72.150001526 -6.119999886 3.0799999237
 5098.0000000 5098.0000000 69.459999084 -6.889999866 3.1099998951
 5099.0000000 5099.0000000 70.500000000 -7.269999981 3.1199998856
 5100.0000000 5100.0000000 67.730003357 -6.869999886 3.1199998856
 5101.0000000 5101.0000000 61.599998474 -7.000000000 3.1300001144
 5102.0000000 5102.0000000 62.159999847 -8.079999924 3.2699999809
 5103.0000000 5103.0000000 62.529998779 -9.449999809 3.6800000668
 5104.0000000 5104.0000000 53.630001068 -10.60999966 4.8400001526
 5105.0000000 5105.0000000 46.959999084 -11.90999985 5.9400000572
 5106.0000000 5106.0000000 56.439998627 -13.39000034 9.9600000381
 5107.0000000 5107.0000000 63.520000458 -14.64000034 7.2699999809
 5108.0000000 5108.0000000 60.970001221 -15.89999962 5.5999999046
 5109.0000000 5109.0000000 58.110000610 -17.88999939 4.7600002289
 5110.0000000 5110.0000000 60.380001068 -18.70000076 4.3299999237
 5111.0000000 5111.0000000 60.270000458 -19.43000031 4.2699999809
 5112.0000000 5112.0000000 60.250000000 -19.20999908 4.3299999237
 5113.0000000 5113.0000000 62.509998322 -18.45000076 4.2699999809
 5114.0000000 5114.0000000 62.130001068 -18.01000023 3.8299999237
 5115.0000000 5115.0000000 63.869998932 -21.04999924 3.6900000572
 5116.0000000 5116.0000000 64.360000610 -22.35000038 3.5799999237
 5117.0000000 5117.0000000 64.400001526 -22.90999985 3.2400000095
 5118.0000000 5118.0000000 75.470001221 -23.52000046 2.8499999046
 5119.0000000 5119.0000000 79.419998169 -24.72999954 2.5999999046
 5120.0000000 5120.0000000 68.620002747 -26.71999931 2.4200000763
 5121.0000000 5121.0000000 59.650001526 -26.71999931 2.3900001049
 5122.0000000 5122.0000000 58.169998169 -23.45000076 2.5699999332
 5123.0000000 5123.0000000 63.139999390 -16.71999931 2.8699998856
 5124.0000000 5124.0000000 83.989997864 -9.859999657 2.3199999332
 5125.0000000 5125.0000000 101.12000275 -6.489999771 1.7699999809
 5126.0000000 5126.0000000 105.09999847 -4.960000038 1.3899999857
 5127.0000000 5127.0000000 100.90000153 -4.179999828 1.2699999809
 5128.0000000 5128.0000000 102.33999634 -3.750000000 1.2300000191
 5129.0000000 5129.0000000 94.459999084 -3.420000076 1.2799999714
 5130.0000000 5130.0000000 92.180000305 -2.990000010 1.5000000000
 5131.0000000 5131.0000000 93.959999084 -2.230000019 1.8400000334
 5132.0000000 5132.0000000 95.629997253 -2.779999971 2.1600000858
 5133.0000000 5133.0000000 99.089996338 -2.980000019 2.2699999809
 5134.0000000 5134.0000000 97.519996643 -2.009999990 2.0399999619
 5135.0000000 5135.0000000 98.790000916 -1.090000033 1.7000000477
 5136.0000000 5136.0000000 99.300003052 -0.400000006 1.4600000381
 5137.0000000 5137.0000000 99.860000610 -1.019999981 1.3700000048
