# LAS format log file from PETREL
# Project units are specified as depth units
#==================================================================
~Version information
VERS.   2.0:
WRAP.   NO:
#==================================================================
~Well
STRT .m      4450.0000000 :
STOP .m      7050.0000000 :
STEP .m     1.00000000 :
NULL .        -999.250000 :
COMP.           : COMPANY
WELL.  WELL_4   : WELL
FLD.            : FIELD
LOC.            : LOCATION
SRVC.           : SERVICE COMPANY
DATE.  2023-03-20 17:52:46   : Log Export Date {yyyy-MM-dd HH:mm:ss}
PROV.           : PROVINCE
UWI.   WELL_4   : UNIQUE WELL ID
API.            : API NUMBER
#==================================================================
~Curve
DEPT .m                   : DEPTH
Depth .m                  : Depth
SP .mV                    : SP
SN .ohm.m                 : SN
LN .ohm.m                 : LN
LAT .ohm.m                : LAT
~Parameter
#==================================================================
~Ascii
# ...
 6490.0000000 6490.0000000 -7.050000191 1.6499999762 1.8400000334 2.4700000286
 6491.0000000 6491.0000000 -7.219999790 1.5800000429 1.8099999428 2.4500000477
 6492.0000000 6492.0000000 -7.230000019 1.5700000525 1.7799999714 2.3800001144
 6493.0000000 6493.0000000 -7.110000134 1.6699999571 1.7500000000 2.2799999714
 6494.0000000 6494.0000000 -6.909999847 1.7500000000 1.7300000191 2.2000000477
 6495.0000000 6495.0000000 -6.829999924 1.7999999523 1.7100000381 2.2400000095
 6496.0000000 6496.0000000 -6.929999828 1.8099999428 1.7000000477 2.2999999523
 6497.0000000 6497.0000000 -6.909999847 1.7599999905 1.7200000286 2.3299999237
 6498.0000000 6498.0000000 -6.849999905 1.7400000095 1.7899999619 2.3099999428
 6499.0000000 6499.0000000 -7.309999943 1.8899999857 1.8400000334 2.2500000000
 6500.0000000 6500.0000000 -8.319999695 2.1300001144 1.8099999428 2.2300000191
 6501.0000000 6501.0000000 -9.119999886 2.3299999237 1.7400000095 2.3800001144
 6502.0000000 6502.0000000 -9.329999924 2.3699998856 1.6399999857 2.6199998856
 6503.0000000 6503.0000000 -9.270000458 2.2699999809 1.5900000334 2.7200000286
 6504.0000000 6504.0000000 -9.020000458 2.0799999237 1.6000000238 2.7000000477
 6505.0000000 6505.0000000 -8.310000420 1.7999999523 1.6699999571 2.4900000095
 6506.0000000 6506.0000000 -7.010000229 1.5599999428 1.7699999809 2.0199999809
 6507.0000000 6507.0000000 -6.150000095 1.4299999475 1.8899999857 1.6399999857
 6508.0000000 6508.0000000 -5.780000210 1.3700000048 2.0099999905 1.3600000143
 6509.0000000 6509.0000000 -7.030000210 1.4500000477 2.0899999142 1.2400000095
 6510.0000000 6510.0000000 -9.930000305 1.6699999571 2.1500000954 1.2200000286
 6511.0000000 6511.0000000 -13.17000008 2.0999999046 2.2100000381 1.2799999714
 6512.0000000 6512.0000000 -16.30999947 2.8099999428 2.3599998951 1.3999999762
 6513.0000000 6513.0000000 -20.59000015 3.3399999142 2.6099998951 1.6100000143
 6514.0000000 6514.0000000 -22.86000061 4.0100002289 2.8699998856 1.9500000477
 6515.0000000 6515.0000000 -23.95000076 4.7500000000 3.0499999523 2.4900000095
 6516.0000000 6516.0000000 -23.72999954 5.5000000000 3.2100000381 3.0099999905
 6517.0000000 6517.0000000 -22.64999962 5.8299999237 3.2300000191 3.4500000477
 6518.0000000 6518.0000000 -20.95000076 5.7899999619 3.0799999237 3.7699999809
 6519.0000000 6519.0000000 -18.09000015 5.4400000572 2.7899999619 4.1700000763
 6520.0000000 6520.0000000 -15.88000011 4.5500001907 2.4000000954 4.4200000763
 6521.0000000 6521.0000000 -13.32999992 3.6199998856 2.0599999428 4.3000001907
 6522.0000000 6522.0000000 -11.52999973 2.9000000954 1.8099999428 3.8699998856
 6523.0000000 6523.0000000 -10.03999996 2.2100000381 1.5599999428 3.4600000381
 6524.0000000 6524.0000000 -8.460000038 1.6299999952 1.3799999952 3.0199999809
 6525.0000000 6525.0000000 -7.250000000 1.2300000191 1.3099999428 2.5299999714
 6526.0000000 6526.0000000 -6.579999924 1.0599999428 1.2599999905 1.9900000095
 6527.0000000 6527.0000000 -6.260000229 0.9900000095 1.2200000286 1.5099999905
 6528.0000000 6528.0000000 -5.809999943 0.9800000191 1.1900000572 1.2100000381
 6529.0000000 6529.0000000 -5.380000114 1.0399999619 1.1599999666 1.0199999809
 6530.0000000 6530.0000000 -5.320000172 1.0800000429 1.1499999762 0.9499999881
 6531.0000000 6531.0000000 -5.780000210 1.0900000334 1.1299999952 0.9700000286
 6532.0000000 6532.0000000 -6.420000076 1.1100000143 1.1100000143 1.0099999905
 6533.0000000 6533.0000000 -6.880000114 1.1299999952 1.0900000334 1.0800000429
 6534.0000000 6534.0000000 -7.369999886 1.1499999762 1.0299999714 1.1699999571
 6535.0000000 6535.0000000 -8.220000267 1.2200000286 0.9900000095 1.3300000429
 6536.0000000 6536.0000000 -8.989999771 1.2699999809 0.9499999881 1.6499999762
 6537.0000000 6537.0000000 -8.979999542 1.2699999809 0.9300000072 1.8600000143
 6538.0000000 6538.0000000 -9.060000420 1.2999999523 0.9399999976 1.8400000334
 6539.0000000 6539.0000000 -9.500000000 1.3600000143 0.9700000286 1.7500000000
 6540.0000000 6540.0000000 -9.739999771 1.4299999475 1.0199999809 1.8099999428
 6541.0000000 6541.0000000 -9.810000420 1.4600000381 1.0199999809 1.8600000143
 6542.0000000 6542.0000000 -9.770000458 1.4400000572 1.0399999619 1.7899999619
 6543.0000000 6543.0000000 -9.649999619 1.3799999952 1.1000000238 1.6599999666
 6544.0000000 6544.0000000 -9.430000305 1.3400000334 1.1399999857 1.5399999619
 6545.0000000 6545.0000000 -9.300000191 1.3500000238 1.1200000048 1.4400000572
 6546.0000000 6546.0000000 -9.250000000 1.3899999857 0.9900000095 1.4199999571
 6547.0000000 6547.0000000 -9.300000191 1.4500000477 0.8600000143 1.6200000048
 6548.0000000 6548.0000000 -9.380000114 1.4800000191 0.7900000215 2.0499999523
 6549.0000000 6549.0000000 -9.300000191 1.4400000572 0.8100000024 2.1600000858
 6550.0000000 6550.0000000 -9.060000420 1.4299999475 0.8600000143 1.9099999666
 6551.0000000 6551.0000000 -8.680000305 1.3300000429 1.0099999905 1.3600000143
 6552.0000000 6552.0000000 -7.909999847 1.2500000000 1.2400000095 1.0599999428
 6553.0000000 6553.0000000 -7.340000153 1.2300000191 1.3799999952 0.8500000238
 6554.0000000 6554.0000000 -7.760000229 1.3600000143 1.4199999571 0.7400000095
 6555.0000000 6555.0000000 -9.140000343 1.7100000381 1.3799999952 0.7200000286
 6556.0000000 6556.0000000 -10.31000042 2.2599999905 1.3099999428 0.8399999738
 6557.0000000 6557.0000000 -10.73999977 2.7000000477 1.2200000286 1.1000000238
 6558.0000000 6558.0000000 -10.47000027 2.6300001144 1.2100000381 1.2300000191
 6559.0000000 6559.0000000 -9.380000114 2.1800000668 1.2999999523 1.2400000095
 6560.0000000 6560.0000000 -7.469999790 1.6000000238 1.4800000191 1.1699999571
 6561.0000000 6561.0000000 -6.090000153 1.2999999523 1.6399999857 0.9300000072
 6562.0000000 6562.0000000 -5.690000057 1.2699999809 1.6499999762 0.7300000191
 6563.0000000 6563.0000000 -6.130000114 1.3899999857 1.5800000429 0.6899999976
 6564.0000000 6564.0000000 -6.829999924 1.6000000238 1.4500000477 0.8000000119
 6565.0000000 6565.0000000 -7.090000153 1.7699999809 1.4199999571 0.9499999881
 6566.0000000 6566.0000000 -7.340000153 1.8400000334 1.4800000191 1.0900000334
 6567.0000000 6567.0000000 -7.699999809 1.7899999619 1.6299999952 1.1399999857
 6568.0000000 6568.0000000 -8.260000229 1.8300000429 1.8400000334 1.1599999666
 6569.0000000 6569.0000000 -9.109999657 2.0399999619 1.9299999475 1.2000000477
 6570.0000000 6570.0000000 -9.739999771 2.3900001049 1.8400000334 1.2799999714
 6571.0000000 6571.0000000 -10.14999962 2.6300001144 1.7699999809 1.4600000381
 6572.0000000 6572.0000000 -10.06000042 2.6700000763 1.8500000238 1.6900000572
 6573.0000000 6573.0000000 -9.220000267 2.5099999905 2.0099999905 1.7400000095
 6574.0000000 6574.0000000 -8.420000076 2.3199999332 2.2100000381 1.5499999523
 6575.0000000 6575.0000000 -8.090000153 2.2100000381 2.4500000477 1.3500000238
 6576.0000000 6576.0000000 -8.560000420 2.1900000572 2.5599999428 1.2899999619
 6577.0000000 6577.0000000 -9.520000458 2.4400000572 2.5299999714 1.3999999762
 6578.0000000 6578.0000000 -10.80000019 2.7899999619 2.4500000477 1.5599999428
 6579.0000000 6579.0000000 -12.11999989 3.0699999332 2.4800000191 1.7100000381
 6580.0000000 6580.0000000 -13.35999966 3.3800001144 2.5999999046 1.8300000429
 6581.0000000 6581.0000000 -14.73999977 3.5899999142 2.8099999428 1.9199999571
 6582.0000000 6582.0000000 -16.23999977 3.7300000191 3.0599999428 1.9800000191
 6583.0000000 6583.0000000 -18.45999908 3.9100000858 3.3900001049 2.0299999714
 6584.0000000 6584.0000000 -20.70999908 4.1500000954 3.6500000954 2.1199998856
 6585.0000000 6585.0000000 -21.87999916 4.4099998474 3.9000000954 2.3900001049
 6586.0000000 6586.0000000 -22.29000092 4.6599998474 4.0199999809 2.7100000381
 6587.0000000 6587.0000000 -22.02000046 4.9000000954 4.0000000000 3.0000000000
 6588.0000000 6588.0000000 -20.53000069 5.0500001907 3.3599998951 3.3299999237
 6589.0000000 6589.0000000 -18.00000000 4.8800001144 2.3499999046 4.2699999809
 6590.0000000 6590.0000000 -15.77000046 4.2699999809 1.9099999666 5.5700001717
 6591.0000000 6591.0000000 -13.47000027 3.0799999237 1.8500000238 6.4800000191
