# LAS format log file from PETREL
# Project units are specified as depth units
#==================================================================
~Version information
VERS.   2.0:
WRAP.   NO:
#==================================================================
~Well
STRT .m      3000.0000000 :
STOP .m      7750.0000000 :
STEP .m     1.00000000 :
NULL .        -999.250000 :
COMP.           : COMPANY
WELL.  WELL_2   : WELL
FLD.            : FIELD
LOC.            : LOCATION
SRVC.           : SERVICE COMPANY
DATE.  2023-03-20 17:52:46   : Log Export Date {yyyy-MM-dd HH:mm:ss}
PROV.           : PROVINCE
UWI.   WELL_2   : UNIQUE WELL ID
API.            : API NUMBER
#==================================================================
~Curve
DEPT .m                   : DEPTH
Depth .m                  : Depth
SP .mV                    : SP
SN .ohm.m                 : SN
LN .ohm.m                 : LN
LAT .ohm.m                : LAT
~Parameter
#==================================================================
~Ascii
# ...
 3918.0000000 3918.0000000 2.4100000858 1.4600000381 1.4800000191 1.4800000191
 3919.0000000 3919.0000000 2.3800001144 1.5000000000 1.5099999905 1.5099999905
 3920.0000000 3920.0000000 4.6900000572 1.5499999523 1.5499999523 1.5499999523
 3921.0000000 3921.0000000 5.2300000191 1.6200000048 1.6100000143 1.6100000143
 3922.0000000 3922.0000000 5.3099999428 1.6699999571 1.6900000572 1.6900000572
 3923.0000000 3923.0000000 5.2399997711 1.7300000191 1.7500000000 1.7500000000
 3924.0000000 3924.0000000 5.0500001907 1.7799999714 1.7699999809 1.7699999809
 3925.0000000 3925.0000000 4.8299999237 1.7500000000 1.7400000095 1.7400000095
 3926.0000000 3926.0000000 4.1599998474 1.7300000191 1.7000000477 1.7000000477
 3927.0000000 3927.0000000 3.8399999142 1.6799999475 1.6499999762 1.6499999762
 3928.0000000 3928.0000000 3.9600000381 1.6299999952 1.6000000238 1.6000000238
 3929.0000000 3929.0000000 4.5799999237 1.5499999523 1.5399999619 1.5399999619
 3930.0000000 3930.0000000 3.7500000000 1.5000000000 1.4600000381 1.4600000381
 3931.0000000 3931.0000000 2.9500000477 1.5700000525 1.3099999428 1.3099999428
 3932.0000000 3932.0000000 2.4100000858 1.6200000048 1.2400000095 1.2400000095
 3933.0000000 3933.0000000 0.8399999738 1.6599999666 1.2400000095 1.2400000095
 3934.0000000 3934.0000000 -0.750000000 1.6900000572 1.3999999762 1.3999999762
 3935.0000000 3935.0000000 -2.000000000 1.7500000000 1.7200000286 1.7200000286
 3936.0000000 3936.0000000 -2.910000086 1.8400000334 1.8300000429 1.8300000429
 3937.0000000 3937.0000000 -3.400000095 1.9800000191 1.9299999475 1.9299999475
 3938.0000000 3938.0000000 -3.619999886 2.1400001049 2.0499999523 2.0499999523
 3939.0000000 3939.0000000 -3.380000114 2.2899999619 2.1900000572 2.1900000572
 3940.0000000 3940.0000000 -2.819999933 2.3800001144 2.3099999428 2.3099999428
 3941.0000000 3941.0000000 -1.990000010 2.4400000572 2.4200000763 2.4200000763
 3942.0000000 3942.0000000 -1.539999962 2.5000000000 2.5099999905 2.5099999905
 3943.0000000 3943.0000000 -1.190000057 2.5599999428 2.5799999237 2.5799999237
 3944.0000000 3944.0000000 -1.179999948 2.6800000668 2.6400001049 2.6400001049
 3945.0000000 3945.0000000 -2.069999933 2.8299999237 2.5999999046 2.5999999046
 3946.0000000 3946.0000000 -2.819999933 2.9000000954 2.5299999714 2.5299999714
 3947.0000000 3947.0000000 -3.200000048 2.8800001144 2.4300000668 2.4300000668
 3948.0000000 3948.0000000 -2.599999905 2.6900000572 2.3199999332 2.3199999332
 3949.0000000 3949.0000000 -0.479999989 2.2799999714 2.2100000381 2.2100000381
 3950.0000000 3950.0000000 0.0500000007 2.0499999523 2.0999999046 2.0999999046
 3951.0000000 3951.0000000 0.3300000131 2.0000000000 1.9700000286 1.9700000286
 3952.0000000 3952.0000000 0.4699999988 1.9900000095 1.7799999714 1.7799999714
 3953.0000000 3953.0000000 1.1399999857 1.9600000381 1.7300000191 1.7300000191
 3954.0000000 3954.0000000 1.4099999666 1.9199999571 1.7200000286 1.7200000286
 3955.0000000 3955.0000000 1.4900000095 1.9400000572 1.7300000191 1.7300000191
 3956.0000000 3956.0000000 1.3500000238 1.9700000286 1.7400000095 1.7400000095
 3957.0000000 3957.0000000 1.2000000477 2.0000000000 1.7599999905 1.7599999905
 3958.0000000 3958.0000000 1.1599999666 2.0099999905 1.7899999619 1.7899999619
 3959.0000000 3959.0000000 1.0000000000 2.0099999905 1.8099999428 1.8099999428
 3960.0000000 3960.0000000 0.5699999928 1.9900000095 1.8200000525 1.8200000525
 3961.0000000 3961.0000000 0.3000000119 1.9500000477 1.8300000429 1.8300000429
 3962.0000000 3962.0000000 0.1700000018 1.8799999952 1.8400000334 1.8400000334
 3963.0000000 3963.0000000 0.0900000036 1.7999999523 1.8400000334 1.8400000334
 3964.0000000 3964.0000000 0.0399999991 1.7699999809 1.8500000238 1.8500000238
 3965.0000000 3965.0000000 -0.020000000 1.7400000095 1.8400000334 1.8400000334
 3966.0000000 3966.0000000 -0.079999998 1.7100000381 1.8300000429 1.8300000429
 3967.0000000 3967.0000000 0.0000000000 1.7000000477 1.8099999428 1.8099999428
 3968.0000000 3968.0000000 0.0599999987 1.7000000477 1.7799999714 1.7799999714
 3969.0000000 3969.0000000 0.0700000003 1.7000000477 1.7400000095 1.7400000095
 3970.0000000 3970.0000000 0.0500000007 1.6900000572 1.7000000477 1.7000000477
 3971.0000000 3971.0000000 -0.050000001 1.6900000572 1.6699999571 1.6699999571
 3972.0000000 3972.0000000 -0.150000006 1.6799999475 1.6599999666 1.6599999666
 3973.0000000 3973.0000000 -0.250000000 1.6699999571 1.6599999666 1.6599999666
 3974.0000000 3974.0000000 -0.330000013 1.6499999762 1.6599999666 1.6599999666
 3975.0000000 3975.0000000 -0.379999995 1.6200000048 1.6499999762 1.6499999762
 3976.0000000 3976.0000000 -0.409999996 1.5900000334 1.6399999857 1.6399999857
 3977.0000000 3977.0000000 -0.460000008 1.5700000525 1.6499999762 1.6499999762
 3978.0000000 3978.0000000 -0.579999983 1.6200000048 1.6699999571 1.6699999571
 3979.0000000 3979.0000000 -0.910000026 1.6699999571 1.7200000286 1.7200000286
 3980.0000000 3980.0000000 -1.440000057 1.7300000191 1.7799999714 1.7799999714
 3981.0000000 3981.0000000 -1.740000010 1.7999999523 1.8500000238 1.8500000238
 3982.0000000 3982.0000000 -2.119999886 1.8799999952 1.9199999571 1.9199999571
 3983.0000000 3983.0000000 -2.529999971 2.0099999905 1.9900000095 1.9900000095
 3984.0000000 3984.0000000 -2.890000105 2.2100000381 2.0299999714 2.0299999714
 3985.0000000 3985.0000000 -3.259999990 2.3499999046 2.0899999142 2.0899999142
 3986.0000000 3986.0000000 -3.430000067 2.4400000572 2.1400001049 2.1400001049
 3987.0000000 3987.0000000 -3.509999990 2.5000000000 2.1800000668 2.1800000668
 3988.0000000 3988.0000000 -3.589999914 2.5199999809 2.2100000381 2.2100000381
 3989.0000000 3989.0000000 -3.700000048 2.5000000000 2.2200000286 2.2200000286
 3990.0000000 3990.0000000 -3.859999895 2.4400000572 2.2100000381 2.2100000381
 3991.0000000 3991.0000000 -3.720000029 2.2899999619 2.1500000954 2.1500000954
 3992.0000000 3992.0000000 -3.490000010 2.0299999714 2.0000000000 2.0000000000
 3993.0000000 3993.0000000 -3.069999933 1.8799999952 1.8400000334 1.8400000334
 3994.0000000 3994.0000000 -2.430000067 1.7899999619 1.7899999619 1.7899999619
 3995.0000000 3995.0000000 -1.470000029 1.7100000381 1.7400000095 1.7400000095
 3996.0000000 3996.0000000 -0.800000012 1.6299999952 1.5900000334 1.5900000334
 3997.0000000 3997.0000000 -0.270000011 1.5199999809 1.4700000286 1.4700000286
 3998.0000000 3998.0000000 0.0399999991 1.4099999666 1.4199999571 1.4199999571
 3999.0000000 3999.0000000 -0.129999995 1.3899999857 1.4299999475 1.4299999475
 4000.0000000 4000.0000000 0.0700000003 1.2300000191 1.2999999523 1.2999999523
 4001.0000000 4001.0000000 0.3400000036 1.0900000334 1.1399999857 1.1399999857
 4002.0000000 4002.0000000 1.0299999714 1.0199999809 1.0399999619 1.0399999619
 4003.0000000 4003.0000000 1.4500000477 0.9700000286 1.0000000000 1.0000000000
 4004.0000000 4004.0000000 1.0000000000 0.9499999881 1.0000000000 1.0000000000
 4005.0000000 4005.0000000 0.5299999714 0.9800000191 1.0099999905 1.0099999905
 4006.0000000 4006.0000000 0.0599999987 1.0299999714 1.0299999714 1.0299999714
 4007.0000000 4007.0000000 -0.409999996 1.0599999428 1.0599999428 1.0599999428
 4008.0000000 4008.0000000 -0.930000007 1.0399999619 1.0700000525 1.0700000525
 4009.0000000 4009.0000000 -1.350000024 1.0099999905 1.0700000525 1.0700000525
 4010.0000000 4010.0000000 -1.220000029 0.9900000095 1.0099999905 1.0099999905
 4011.0000000 4011.0000000 -0.990000010 0.9700000286 0.9700000286 0.9700000286
 4012.0000000 4012.0000000 -1.139999986 0.9700000286 0.9399999976 0.9399999976
 4013.0000000 4013.0000000 -1.519999981 0.9599999785 0.9399999976 0.9399999976
 4014.0000000 4014.0000000 -1.820000052 0.9800000191 0.9399999976 0.9399999976
 4015.0000000 4015.0000000 -1.850000024 0.9900000095 0.9399999976 0.9399999976
 4016.0000000 4016.0000000 -1.769999981 0.9900000095 0.9800000191 0.9800000191
 4017.0000000 4017.0000000 -1.620000005 0.9800000191 1.0099999905 1.0099999905
 4018.0000000 4018.0000000 -1.450000048 0.9800000191 1.0399999619 1.0399999619
 4019.0000000 4019.0000000 -1.330000043 0.9800000191 1.0599999428 1.0599999428
