# LAS format log file from PETREL
# Project units are specified as depth units
#==================================================================
~Version information
VERS.   2.0:
WRAP.   NO:
#==================================================================
~Well
STRT .m      4561.0000000 :
STOP .m      7034.0000000 :
STEP .m     1.00000000 :
NULL .        -999.250000 :
COMP.           : COMPANY
WELL.  WELL_5   : WELL
FLD.            : FIELD
LOC.            : LOCATION
SRVC.           : SERVICE COMPANY
DATE.  2023-03-20 17:52:46   : Log Export Date {yyyy-MM-dd HH:mm:ss}
PROV.           : PROVINCE
UWI.   WELL_5   : UNIQUE WELL ID
API.            : API NUMBER
#==================================================================
~Curve
DEPT .m                   : DEPTH
Depth .m                  : Depth
SN .ohm.m                 : SN
ILD .ohm.m                : ILD
~Parameter
#==================================================================
~Ascii
# ...
 5014.0000000 5014.0000000 2.0399999619 1.7999999523
 5015.0000000 5015.0000000 1.9800000191 1.7400000095
 5016.0000000 5016.0000000 1.9800000191 1.7400000095
 5017.0000000 5017.0000000 2.0000000000 1.8099999428
 5018.0000000 5018.0000000 2.1099998951 1.8600000143
 5019.0000000 5019.0000000 2.1400001049 1.9099999666
 5020.0000000 5020.0000000 2.1400001049 1.8300000429
 5021.0000000 5021.0000000 2.0000000000 1.6599999666
 5022.0000000 5022.0000000 1.8500000238 1.5800000429
 5023.0000000 5023.0000000 1.7699999809 1.5499999523
 5024.0000000 5024.0000000 1.8099999428 1.6100000143
 5025.0000000 5025.0000000 1.9500000477 1.7699999809
 5026.0000000 5026.0000000 2.1600000858 1.9400000572
 5027.0000000 5027.0000000 2.3900001049 2.1099998951
 5028.0000000 5028.0000000 2.5799999237 2.2899999619
 5029.0000000 5029.0000000 2.7899999619 2.4700000286
 5030.0000000 5030.0000000 3.0399999619 2.3699998856
 5031.0000000 5031.0000000 3.3299999237 2.2500000000
 5032.0000000 5032.0000000 3.4500000477 2.1700000763
 5033.0000000 5033.0000000 3.2100000381 2.0699999332
 5034.0000000 5034.0000000 2.9000000954 1.7999999523
 5035.0000000 5035.0000000 2.1700000763 1.5099999905
 5036.0000000 5036.0000000 1.6200000048 1.2400000095
 5037.0000000 5037.0000000 1.3899999857 1.1000000238
 5038.0000000 5038.0000000 1.2899999619 1.0900000334
 5039.0000000 5039.0000000 1.2699999809 1.1100000143
 5040.0000000 5040.0000000 1.2799999714 1.1299999952
 5041.0000000 5041.0000000 1.2999999523 1.1499999762
 5042.0000000 5042.0000000 1.2899999619 1.1000000238
 5043.0000000 5043.0000000 1.2300000191 1.0499999523
 5044.0000000 5044.0000000 1.2000000477 1.0299999714
 5045.0000000 5045.0000000 1.2000000477 1.0299999714
 5046.0000000 5046.0000000 1.2200000286 1.0599999428
 5047.0000000 5047.0000000 1.2799999714 1.1100000143
 5048.0000000 5048.0000000 1.3400000334 1.1900000572
 5049.0000000 5049.0000000 1.4400000572 1.2999999523
 5050.0000000 5050.0000000 1.5299999714 1.3600000143
 5051.0000000 5051.0000000 1.5800000429 1.3999999762
 5052.0000000 5052.0000000 1.5599999428 1.4400000572
 5053.0000000 5053.0000000 1.5099999905 1.3700000048
 5054.0000000 5054.0000000 1.4400000572 1.2300000191
 5055.0000000 5055.0000000 1.3700000048 1.1399999857
 5056.0000000 5056.0000000 1.2999999523 1.0299999714
 5057.0000000 5057.0000000 1.2500000000 0.9599999785
 5058.0000000 5058.0000000 1.2100000381 0.9499999881
 5059.0000000 5059.0000000 1.2000000477 1.0299999714
 5060.0000000 5060.0000000 1.2599999905 1.1000000238
 5061.0000000 5061.0000000 1.4299999475 1.2400000095
 5062.0000000 5062.0000000 1.6299999952 1.4500000477
 5063.0000000 5063.0000000 1.8099999428 1.6699999571
 5064.0000000 5064.0000000 1.9700000286 1.8400000334
 5065.0000000 5065.0000000 2.1300001144 1.9400000572
 5066.0000000 5066.0000000 2.2400000095 2.0499999523
 5067.0000000 5067.0000000 2.3499999046 2.1500000954
 5068.0000000 5068.0000000 2.4300000668 2.1800000668
 5069.0000000 5069.0000000 2.5099999905 2.2000000477
 5070.0000000 5070.0000000 2.5499999523 2.2200000286
 5071.0000000 5071.0000000 2.6099998951 2.2699999809
 5072.0000000 5072.0000000 2.7200000286 2.3499999046
 5073.0000000 5073.0000000 2.9900000095 2.6199998856
 5074.0000000 5074.0000000 3.4200000763 3.4300000668
 5075.0000000 5075.0000000 4.5000000000 4.3899998665
 5076.0000000 5076.0000000 5.8299999237 5.3200001717
 5077.0000000 5077.0000000 6.6599998474 5.7500000000
 5078.0000000 5078.0000000 6.6100001335 5.9800000191
 5079.0000000 5079.0000000 6.4400000572 5.9499998093
 5080.0000000 5080.0000000 6.9899997711 5.4000000954
 5081.0000000 5081.0000000 7.4000000954 4.8200001717
 5082.0000000 5082.0000000 6.4899997711 4.2600002289
 5083.0000000 5083.0000000 5.2800002098 3.7100000381
 5084.0000000 5084.0000000 4.5500001907 2.9800000191
 5085.0000000 5085.0000000 4.0100002289 2.3399999142
 5086.0000000 5086.0000000 3.5000000000 2.1300001144
 5087.0000000 5087.0000000 3.3099999428 1.9299999475
 5088.0000000 5088.0000000 3.8199999332 1.7999999523
 5089.0000000 5089.0000000 4.2199997902 1.8099999428
 5090.0000000 5090.0000000 4.0000000000 1.8400000334
 5091.0000000 5091.0000000 3.7300000191 1.7799999714
 5092.0000000 5092.0000000 3.2899999619 1.7200000286
 5093.0000000 5093.0000000 2.8199999332 1.7100000381
 5094.0000000 5094.0000000 2.7000000477 1.7999999523
 5095.0000000 5095.0000000 3.2400000095 1.9099999666
 5096.0000000 5096.0000000 4.1399998665 2.0599999428
 5097.0000000 5097.0000000 4.7300000191 1.9700000286
 5098.0000000 5098.0000000 3.4200000763 1.7100000381
 5099.0000000 5099.0000000 2.3099999428 1.5700000525
 5100.0000000 5100.0000000 2.1500000954 1.5099999905
 5101.0000000 5101.0000000 2.3399999142 1.7400000095
 5102.0000000 5102.0000000 2.7799999714 2.1400001049
 5103.0000000 5103.0000000 3.1900000572 2.8199999332
 5104.0000000 5104.0000000 3.4100000858 3.1700000763
 5105.0000000 5105.0000000 3.2300000191 2.8399999142
 5106.0000000 5106.0000000 3.1099998951 2.7200000286
 5107.0000000 5107.0000000 2.9500000477 2.6199998856
 5108.0000000 5108.0000000 2.7699999809 2.3599998951
 5109.0000000 5109.0000000 2.5199999809 1.9900000095
 5110.0000000 5110.0000000 2.2100000381 1.6399999857
 5111.0000000 5111.0000000 1.8700000048 1.3999999762
 5112.0000000 5112.0000000 1.6000000238 1.2799999714
 5113.0000000 5113.0000000 1.4500000477 1.1699999571
 5114.0000000 5114.0000000 1.3999999762 1.1399999857
 5115.0000000 5115.0000000 1.3799999952 1.1699999571
 5116.0000000 5116.0000000 1.4199999571 1.2200000286
 5117.0000000 5117.0000000 1.4600000381 1.2799999714
 5118.0000000 5118.0000000 1.4900000095 1.3600000143
 5119.0000000 5119.0000000 1.4900000095 1.3899999857
 5120.0000000 5120.0000000 1.4600000381 1.3600000143
 5121.0000000 5121.0000000 1.4099999666 1.2500000000
 5122.0000000 5122.0000000 1.3500000238 1.1200000048
 5123.0000000 5123.0000000 1.2799999714 1.0299999714
 5124.0000000 5124.0000000 1.2500000000 1.0000000000
 5125.0000000 5125.0000000 1.2599999905 1.0199999809
 5126.0000000 5126.0000000 1.2699999809 1.0800000429
 5127.0000000 5127.0000000 1.2799999714 1.1299999952
 5128.0000000 5128.0000000 1.3099999428 1.1599999666
 5129.0000000 5129.0000000 1.3400000334 1.1799999475
 5130.0000000 5130.0000000 1.3300000429 1.1799999475
 5131.0000000 5131.0000000 1.3099999428 1.1499999762
 5132.0000000 5132.0000000 1.2899999619 1.1200000048
 5133.0000000 5133.0000000 1.2899999619 1.1100000143
 5134.0000000 5134.0000000 1.2699999809 1.1299999952
 5135.0000000 5135.0000000 1.2899999619 1.1499999762
 5136.0000000 5136.0000000 1.3300000429 1.1699999571
 5137.0000000 5137.0000000 1.3700000048 1.2200000286
 5138.0000000 5138.0000000 1.4199999571 1.2999999523
 5139.0000000 5139.0000000 1.5000000000 1.4299999475
 5140.0000000 5140.0000000 1.5900000334 1.5299999714
 5141.0000000 5141.0000000 1.7000000477 1.6000000238
 5142.0000000 5142.0000000 1.7599999905 1.6399999857
 5143.0000000 5143.0000000 1.7599999905 1.6499999762
 5144.0000000 5144.0000000 1.7599999905 1.6499999762
 5145.0000000 5145.0000000 1.7400000095 1.6200000048
 5146.0000000 5146.0000000 1.7100000381 1.5800000429
 5147.0000000 5147.0000000 1.6299999952 1.4400000572
 5148.0000000 5148.0000000 1.5199999809 1.2799999714
 5149.0000000 5149.0000000 1.3999999762 1.1799999475
 5150.0000000 5150.0000000 1.3200000525 1.1299999952
 5151.0000000 5151.0000000 1.3300000429 1.1100000143
 5152.0000000 5152.0000000 1.3500000238 1.1299999952
 5153.0000000 5153.0000000 1.3700000048 1.1599999666
 5154.0000000 5154.0000000 1.3799999952 1.1900000572
 5155.0000000 5155.0000000 1.3700000048 1.1900000572
 5156.0000000 5156.0000000 1.3600000143 1.2000000477
 5157.0000000 5157.0000000 1.4299999475 1.2699999809
 5158.0000000 5158.0000000 1.5000000000 1.3899999857
 5159.0000000 5159.0000000 1.5900000334 1.5000000000
 5160.0000000 5160.0000000 1.7000000477 1.5900000334
 5161.0000000 5161.0000000 1.7899999619 1.6299999952
 5162.0000000 5162.0000000 1.7999999523 1.6100000143
 5163.0000000 5163.0000000 1.7400000095 1.5499999523
 5164.0000000 5164.0000000 1.7000000477 1.4800000191
