# LAS format log file from PETREL
# Project units are specified as depth units
#==================================================================
~Version information
VERS.   2.0:
WRAP.   NO:
#==================================================================
~Well
STRT .m      4450.0000000 :
STOP .m      7050.0000000 :
STEP .m     1.00000000 :
NULL .        -999.250000 :
COMP.           : COMPANY
WELL.  WELL_4   : WELL
FLD.            : FIELD
LOC.            : LOCATION
SRVC.           : SERVICE COMPANY
DATE.  2023-03-20 17:52:46   : Log Export Date {yyyy-MM-dd HH:mm:ss}
PROV.           : PROVINCE
UWI.   WELL_4   : UNIQUE WELL ID
API.            : API NUMBER
#==================================================================
~Curve
DEPT .m                   : DEPTH
Depth .m                  : Depth
SP .mV                    : SP
SN .ohm.m                 : SN
LN .ohm.m                 : LN
LAT .ohm.m                : LAT
~Parameter
#==================================================================
~Ascii
# ...
 6694.0000000 6694.0000000 -12.25000000 2.2200000286 1.8700000048 0.5699999928
 6695.0000000 6695.0000000 -10.94999981 1.9299999475 1.9199999571 0.5600000024
 6696.0000000 6696.0000000 -10.11999989 1.7899999619 1.9600000381 0.6399999857
 6697.0000000 6697.0000000 -10.47000027 1.8600000143 1.9600000381 0.7099999785
 6698.0000000 6698.0000000 -11.57999992 2.0299999714 1.8999999762 0.7799999714
 6699.0000000 6699.0000000 -12.65999985 2.5499999523 1.7599999905 0.9800000191
 6700.0000000 6700.0000000 -13.14000034 2.8699998856 1.5199999809 1.4800000191
 6701.0000000 6701.0000000 -12.97999954 2.8599998951 1.2899999619 2.1099998951
 6702.0000000 6702.0000000 -12.18000031 2.4900000095 1.1599999666 3.3199999332
 6703.0000000 6703.0000000 -10.76000023 2.0499999523 1.2000000477 4.4299998283
 6704.0000000 6704.0000000 -9.779999733 1.6599999666 1.2699999809 4.0500001907
 6705.0000000 6705.0000000 -9.640000343 1.5099999905 1.3500000238 2.9100000858
 6706.0000000 6706.0000000 -9.810000420 1.4299999475 1.4299999475 1.9800000191
 6707.0000000 6707.0000000 -9.710000038 1.4299999475 1.4900000095 1.5599999428
 6708.0000000 6708.0000000 -8.819999695 1.4500000477 1.4600000381 1.3799999952
 6709.0000000 6709.0000000 -7.780000210 1.5499999523 1.3500000238 1.2899999619
 6710.0000000 6710.0000000 -7.210000038 1.7699999809 1.2400000095 1.3700000048
 6711.0000000 6711.0000000 -6.639999866 1.9700000286 1.2100000381 1.6599999666
 6712.0000000 6712.0000000 -5.570000172 1.8799999952 1.3200000525 1.7899999619
 6713.0000000 6713.0000000 -4.039999962 1.6000000238 1.4700000286 1.5199999809
 6714.0000000 6714.0000000 -3.559999943 1.4800000191 1.6200000048 1.1100000143
 6715.0000000 6715.0000000 -3.890000105 1.4900000095 1.6299999952 0.9900000095
 6716.0000000 6716.0000000 -4.309999943 1.5399999619 1.5299999714 1.0399999619
 6717.0000000 6717.0000000 -4.590000153 1.5900000334 1.4500000477 1.1499999762
 6718.0000000 6718.0000000 -4.750000000 1.6100000143 1.4099999666 1.2500000000
 6719.0000000 6719.0000000 -4.789999962 1.5900000334 1.4400000572 1.3799999952
 6720.0000000 6720.0000000 -4.679999828 1.5700000525 1.4700000286 1.4700000286
 6721.0000000 6721.0000000 -4.550000191 1.5800000429 1.4800000191 1.5700000525
 6722.0000000 6722.0000000 -4.380000114 1.6200000048 1.4600000381 1.6699999571
 6723.0000000 6723.0000000 -4.150000095 1.7100000381 1.3999999762 1.8099999428
 6724.0000000 6724.0000000 -4.079999924 1.7400000095 1.3600000143 1.9500000477
 6725.0000000 6725.0000000 -4.010000229 1.7300000191 1.3400000334 2.0099999905
 6726.0000000 6726.0000000 -3.869999886 1.6900000572 1.3500000238 1.9600000381
 6727.0000000 6727.0000000 -3.849999905 1.6299999952 1.3899999857 1.8400000334
 6728.0000000 6728.0000000 -3.970000029 1.5900000334 1.4400000572 1.6900000572
 6729.0000000 6729.0000000 -4.329999924 1.5299999714 1.4500000477 1.5700000525
 6730.0000000 6730.0000000 -4.750000000 1.5199999809 1.3999999762 1.5099999905
 6731.0000000 6731.0000000 -4.829999924 1.5299999714 1.3200000525 1.6000000238
 6732.0000000 6732.0000000 -4.329999924 1.5099999905 1.2500000000 1.6699999571
 6733.0000000 6733.0000000 -3.710000038 1.4099999666 1.2000000477 1.6299999952
 6734.0000000 6734.0000000 -3.220000029 1.1900000572 1.1799999475 1.4500000477
 6735.0000000 6735.0000000 -2.930000067 0.9499999881 1.2000000477 1.2300000191
 6736.0000000 6736.0000000 -2.910000086 0.8899999857 1.2300000191 1.0599999428
 6737.0000000 6737.0000000 -3.109999895 0.9399999976 1.2200000286 0.9499999881
 6738.0000000 6738.0000000 -3.490000010 1.0399999619 1.1900000572 0.9100000262
 6739.0000000 6739.0000000 -4.000000000 1.1900000572 1.1599999666 0.9599999785
 6740.0000000 6740.0000000 -4.570000172 1.3200000525 1.1799999475 1.0599999428
 6741.0000000 6741.0000000 -4.960000038 1.4099999666 1.2300000191 1.1699999571
 6742.0000000 6742.0000000 -5.250000000 1.5000000000 1.3099999428 1.2799999714
 6743.0000000 6743.0000000 -5.230000019 1.5900000334 1.4099999666 1.3600000143
 6744.0000000 6744.0000000 -5.150000095 1.6699999571 1.4900000095 1.4299999475
 6745.0000000 6745.0000000 -5.079999924 1.7500000000 1.5800000429 1.4900000095
 6746.0000000 6746.0000000 -5.059999943 1.8200000525 1.6499999762 1.5000000000
 6747.0000000 6747.0000000 -5.199999809 1.8999999762 1.7300000191 1.5199999809
 6748.0000000 6748.0000000 -5.570000172 1.9700000286 1.7899999619 1.5599999428
 6749.0000000 6749.0000000 -6.360000134 2.1199998856 1.8200000525 1.5399999619
 6750.0000000 6750.0000000 -7.809999943 2.2400000095 1.8200000525 1.5800000429
 6751.0000000 6751.0000000 -8.869999886 2.3399999142 1.8200000525 1.6499999762
 6752.0000000 6752.0000000 -9.310000420 2.4000000954 1.8200000525 1.7100000381
 6753.0000000 6753.0000000 -9.369999886 2.4500000477 1.8400000334 1.7200000286
 6754.0000000 6754.0000000 -9.250000000 2.5000000000 1.8200000525 1.6799999475
 6755.0000000 6755.0000000 -8.979999542 2.5599999428 1.7500000000 1.6399999857
 6756.0000000 6756.0000000 -8.619999886 2.5399999619 1.6799999475 1.6399999857
 6757.0000000 6757.0000000 -7.980000019 2.3900001049 1.6499999762 1.7000000477
 6758.0000000 6758.0000000 -7.219999790 2.1300001144 1.6200000048 1.7699999809
 6759.0000000 6759.0000000 -6.630000114 1.9299999475 1.5700000525 1.7100000381
 6760.0000000 6760.0000000 -6.469999790 1.7500000000 1.5299999714 1.6100000143
 6761.0000000 6761.0000000 -6.480000019 1.6000000238 1.4900000095 1.5700000525
 6762.0000000 6762.0000000 -6.260000229 1.4800000191 1.4500000477 1.5700000525
 6763.0000000 6763.0000000 -5.829999924 1.4199999571 1.4199999571 1.5099999905
 6764.0000000 6764.0000000 -5.670000076 1.4199999571 1.4099999666 1.4199999571
 6765.0000000 6765.0000000 -5.820000172 1.4199999571 1.3899999857 1.3600000143
 6766.0000000 6766.0000000 -6.250000000 1.4400000572 1.3999999762 1.3400000334
 6767.0000000 6767.0000000 -7.000000000 1.4800000191 1.4400000572 1.3700000048
 6768.0000000 6768.0000000 -7.469999790 1.5599999428 1.5099999905 1.3400000334
 6769.0000000 6769.0000000 -8.369999886 1.7300000191 1.6499999762 1.2599999905
 6770.0000000 6770.0000000 -9.939999580 2.0299999714 1.8099999428 1.2300000191
 6771.0000000 6771.0000000 -11.76000023 2.3599998951 1.8899999857 1.3200000525
 6772.0000000 6772.0000000 -14.47000027 2.8299999237 1.9900000095 1.6100000143
 6773.0000000 6773.0000000 -18.32999992 3.4800000191 2.2899999619 2.0199999809
 6774.0000000 6774.0000000 -21.15999985 4.2800002098 2.4500000477 2.3699998856
 6775.0000000 6775.0000000 -22.97999954 4.7699999809 2.7200000286 2.5299999714
 6776.0000000 6776.0000000 -23.51000023 5.0500001907 3.0899999142 2.5799999237
 6777.0000000 6777.0000000 -23.68000031 5.3200001717 3.1600000858 2.9200000763
 6778.0000000 6778.0000000 -23.92000008 5.0799999237 3.1700000763 3.0899999142
 6779.0000000 6779.0000000 -23.88999939 4.5399999619 3.1900000572 2.9300000668
 6780.0000000 6780.0000000 -23.04000092 4.2500000000 3.1600000858 2.6600000858
 6781.0000000 6781.0000000 -20.54999924 4.0399999619 2.4900000095 2.4200000763
 6782.0000000 6782.0000000 -16.67000008 3.7999999523 1.7300000191 2.5199999809
 6783.0000000 6783.0000000 -12.35000038 3.1099998951 1.6100000143 2.7599999905
 6784.0000000 6784.0000000 -8.710000038 2.0599999428 1.6599999666 2.8699998856
 6785.0000000 6785.0000000 -5.699999809 1.6699999571 1.7300000191 2.2999999523
 6786.0000000 6786.0000000 -4.570000172 1.5499999523 1.7799999714 1.4500000477
 6787.0000000 6787.0000000 -4.150000095 1.5199999809 1.7599999905 1.2300000191
 6788.0000000 6788.0000000 -4.130000114 1.5000000000 1.6900000572 1.1599999666
 6789.0000000 6789.0000000 -4.230000019 1.4099999666 1.6499999762 1.1000000238
 6790.0000000 6790.0000000 -4.309999943 1.3999999762 1.6499999762 1.0399999619
 6791.0000000 6791.0000000 -4.389999866 1.4800000191 1.6299999952 1.0399999619
 6792.0000000 6792.0000000 -4.469999790 1.5399999619 1.5800000429 1.2200000286
 6793.0000000 6793.0000000 -4.539999962 1.5499999523 1.5700000525 1.5099999905
 6794.0000000 6794.0000000 -4.690000057 1.5399999619 1.6399999857 1.6599999666
 6795.0000000 6795.0000000 -4.820000172 1.5599999428 1.7400000095 1.6599999666
