# LAS format log file from PETREL
# Project units are specified as depth units
#==================================================================
~Version information
VERS.   2.0:
WRAP.   NO:
#==================================================================
~Well
STRT .m      3000.0000000 :
STOP .m      7750.0000000 :
STEP .m     1.00000000 :
NULL .        -999.250000 :
COMP.           : COMPANY
WELL.  WELL_2   : WELL
FLD.            : FIELD
LOC.            : LOCATION
SRVC.           : SERVICE COMPANY
DATE.  2023-03-20 17:52:46   : Log Export Date {yyyy-MM-dd HH:mm:ss}
PROV.           : PROVINCE
UWI.   WELL_2   : UNIQUE WELL ID
API.            : API NUMBER
#==================================================================
~Curve
DEPT .m                   : DEPTH
Depth .m                  : Depth
SP .mV                    : SP
SN .ohm.m                 : SN
LN .ohm.m                 : LN
LAT .ohm.m                : LAT
~Parameter
#==================================================================
~Ascii
# ...
 6162.0000000 6162.0000000 -0.349999994 1.6399999857 1.6299999952 1.6299999952
 6163.0000000 6163.0000000 -0.379999995 1.7799999714 1.5900000334 1.5900000334
 6164.0000000 6164.0000000 -1.049999952 1.9400000572 1.5299999714 1.5299999714
 6165.0000000 6165.0000000 -2.279999971 2.1700000763 1.4500000477 1.4500000477
 6166.0000000 6166.0000000 -2.809999943 2.4400000572 1.2999999523 1.2999999523
 6167.0000000 6167.0000000 -2.400000095 2.4000000954 1.2999999523 1.2999999523
 6168.0000000 6168.0000000 -1.659999967 2.2500000000 1.3500000238 1.3500000238
 6169.0000000 6169.0000000 -1.129999995 2.0399999619 1.4299999475 1.4299999475
 6170.0000000 6170.0000000 -0.750000000 1.9099999666 1.5000000000 1.5000000000
 6171.0000000 6171.0000000 -0.319999993 1.7699999809 1.5499999523 1.5499999523
 6172.0000000 6172.0000000 -0.239999995 1.6699999571 1.6599999666 1.6599999666
 6173.0000000 6173.0000000 -0.370000005 1.6499999762 1.7000000477 1.7000000477
 6174.0000000 6174.0000000 -0.419999987 1.6100000143 1.6499999762 1.6499999762
 6175.0000000 6175.0000000 -0.430000007 1.5700000525 1.6299999952 1.6299999952
 6176.0000000 6176.0000000 -0.370000005 1.5800000429 1.6299999952 1.6299999952
 6177.0000000 6177.0000000 -0.289999992 1.5900000334 1.6299999952 1.6299999952
 6178.0000000 6178.0000000 -0.300000012 1.6299999952 1.6499999762 1.6499999762
 6179.0000000 6179.0000000 -0.689999998 1.7300000191 1.6900000572 1.6900000572
 6180.0000000 6180.0000000 -1.769999981 2.0000000000 1.7300000191 1.7300000191
 6181.0000000 6181.0000000 -3.269999981 2.4300000668 1.7200000286 1.7200000286
 6182.0000000 6182.0000000 -4.949999809 2.8499999046 1.7000000477 1.7000000477
 6183.0000000 6183.0000000 -5.869999886 3.0799999237 1.6699999571 1.6699999571
 6184.0000000 6184.0000000 -5.550000191 3.1300001144 1.6699999571 1.6699999571
 6185.0000000 6185.0000000 -4.619999886 2.9200000763 1.7100000381 1.7100000381
 6186.0000000 6186.0000000 -3.650000095 2.6600000858 1.7699999809 1.7699999809
 6187.0000000 6187.0000000 -2.809999943 2.3699998856 1.8600000143 1.8600000143
 6188.0000000 6188.0000000 -2.359999895 2.0099999905 1.9299999475 1.9299999475
 6189.0000000 6189.0000000 -1.980000019 1.6499999762 1.9800000191 1.9800000191
 6190.0000000 6190.0000000 -1.440000057 1.8600000143 2.0099999905 2.0099999905
 6191.0000000 6191.0000000 -2.130000114 2.0799999237 2.0199999809 2.0199999809
 6192.0000000 6192.0000000 -2.779999971 2.2500000000 2.0099999905 2.0099999905
 6193.0000000 6193.0000000 -3.549999952 2.4400000572 1.9900000095 1.9900000095
 6194.0000000 6194.0000000 -4.139999866 2.8299999237 1.8700000048 1.8700000048
 6195.0000000 6195.0000000 -4.599999905 3.0099999905 1.6799999475 1.6799999475
 6196.0000000 6196.0000000 -4.380000114 2.9600000381 1.6000000238 1.6000000238
 6197.0000000 6197.0000000 -3.529999971 2.5899999142 1.5099999905 1.5099999905
 6198.0000000 6198.0000000 -2.480000019 2.0199999809 1.4400000572 1.4400000572
 6199.0000000 6199.0000000 -1.230000019 1.7999999523 1.3799999952 1.3799999952
 6200.0000000 6200.0000000 0.1800000072 1.5800000429 1.3400000334 1.3400000334
 6201.0000000 6201.0000000 0.7799999714 1.3500000238 1.2999999523 1.2999999523
 6202.0000000 6202.0000000 0.6499999762 1.2500000000 1.2799999714 1.2799999714
 6203.0000000 6203.0000000 0.4900000095 1.2400000095 1.2699999809 1.2699999809
 6204.0000000 6204.0000000 0.3100000024 1.2300000191 1.2599999905 1.2599999905
 6205.0000000 6205.0000000 0.1400000006 1.2400000095 1.2699999809 1.2699999809
 6206.0000000 6206.0000000 0.0299999993 1.2699999809 1.2899999619 1.2899999619
 6207.0000000 6207.0000000 0.0199999996 1.3300000429 1.3400000334 1.3400000334
 6208.0000000 6208.0000000 0.1000000015 1.4500000477 1.3799999952 1.3799999952
 6209.0000000 6209.0000000 0.1000000015 1.5099999905 1.4299999475 1.4299999475
 6210.0000000 6210.0000000 -0.939999998 1.6399999857 1.4700000286 1.4700000286
 6211.0000000 6211.0000000 -1.769999981 1.7300000191 1.5099999905 1.5099999905
 6212.0000000 6212.0000000 -2.450000048 1.7999999523 1.5399999619 1.5399999619
 6213.0000000 6213.0000000 -2.779999971 1.8600000143 1.5399999619 1.5399999619
 6214.0000000 6214.0000000 -2.809999943 1.8999999762 1.5299999714 1.5299999714
 6215.0000000 6215.0000000 -2.940000057 1.9600000381 1.5399999619 1.5399999619
 6216.0000000 6216.0000000 -2.910000086 2.0299999714 1.5199999809 1.5199999809
 6217.0000000 6217.0000000 -2.720000029 2.0899999142 1.4900000095 1.4900000095
 6218.0000000 6218.0000000 -2.119999886 2.1300001144 1.4700000286 1.4700000286
 6219.0000000 6219.0000000 -1.090000033 2.0000000000 1.4900000095 1.4900000095
 6220.0000000 6220.0000000 -0.370000005 1.8500000238 1.5299999714 1.5299999714
 6221.0000000 6221.0000000 -0.059999999 1.8300000429 1.5700000525 1.5700000525
 6222.0000000 6222.0000000 -0.119999997 1.8700000048 1.5800000429 1.5800000429
 6223.0000000 6223.0000000 -0.800000012 1.9500000477 1.6000000238 1.6000000238
 6224.0000000 6224.0000000 -2.789999962 2.0999999046 1.8899999857 1.8899999857
 6225.0000000 6225.0000000 -4.440000057 2.5199999809 2.3699998856 2.3699998856
 6226.0000000 6226.0000000 -8.289999962 3.6900000572 3.2100000381 3.2100000381
 6227.0000000 6227.0000000 -9.449999809 5.1999998093 4.4699997902 4.4699997902
 6228.0000000 6228.0000000 -10.72999954 6.4499998093 5.7600002289 5.7600002289
 6229.0000000 6229.0000000 -13.28999996 7.7399997711 7.2399997711 7.2399997711
 6230.0000000 6230.0000000 -13.82999992 10.069999695 -99999.00000 -99999.00000
 6231.0000000 6231.0000000 -14.10999966 10.380000114 -99999.00000 -99999.00000
 6232.0000000 6232.0000000 -14.25000000 11.920000076 -99999.00000 -99999.00000
 6233.0000000 6233.0000000 -14.19999981 18.700000763 -99999.00000 -99999.00000
 6234.0000000 6234.0000000 -14.03999996 19.760000229 -99999.00000 -99999.00000
 6235.0000000 6235.0000000 -13.93999958 20.459999084 -99999.00000 -99999.00000
 6236.0000000 6236.0000000 -13.90999985 21.530000687 -99999.00000 -99999.00000
 6237.0000000 6237.0000000 -13.93999958 21.920000076 -99999.00000 -99999.00000
 6238.0000000 6238.0000000 -13.97000027 21.860000610 -99999.00000 -99999.00000
 6239.0000000 6239.0000000 -13.73999977 20.909999847 -99999.00000 -99999.00000
 6240.0000000 6240.0000000 -13.39999962 18.700000763 -99999.00000 -99999.00000
 6241.0000000 6241.0000000 -13.09000015 15.130000114 -99999.00000 -99999.00000
 6242.0000000 6242.0000000 -12.97999954 11.560000420 -99999.00000 -99999.00000
 6243.0000000 6243.0000000 -12.93999958 9.5399999619 -99999.00000 -99999.00000
 6244.0000000 6244.0000000 -12.85999966 8.9600000381 -99999.00000 -99999.00000
 6245.0000000 6245.0000000 -12.71000004 8.4200000763 -99999.00000 -99999.00000
 6246.0000000 6246.0000000 -12.55000019 8.4700002670 -99999.00000 -99999.00000
 6247.0000000 6247.0000000 -12.39000034 8.7799997330 -99999.00000 -99999.00000
 6248.0000000 6248.0000000 -12.39000034 9.1499996185 -99999.00000 -99999.00000
 6249.0000000 6249.0000000 -12.64999962 9.9799995422 -99999.00000 -99999.00000
 6250.0000000 6250.0000000 -12.93999958 9.9700002670 -99999.00000 -99999.00000
 6251.0000000 6251.0000000 -13.15999985 9.9700002670 -99999.00000 -99999.00000
 6252.0000000 6252.0000000 -13.14000034 9.8299999237 -99999.00000 -99999.00000
 6253.0000000 6253.0000000 -12.59000015 9.2700004578 8.9300003052 8.9300003052
 6254.0000000 6254.0000000 -11.60000038 8.4300003052 8.1000003815 8.1000003815
 6255.0000000 6255.0000000 -9.850000381 7.5599999428 7.4099998474 7.4099998474
 6256.0000000 6256.0000000 -7.289999962 4.3800001144 6.2500000000 6.2500000000
 6257.0000000 6257.0000000 -2.250000000 3.1800000668 3.6400001049 3.6400001049
 6258.0000000 6258.0000000 -0.709999979 1.9199999571 3.0999999046 3.0999999046
 6259.0000000 6259.0000000 0.0299999993 1.6299999952 2.9000000954 2.9000000954
 6260.0000000 6260.0000000 -1.129999995 1.9400000572 2.9000000954 2.9000000954
 6261.0000000 6261.0000000 -3.930000067 2.6900000572 2.9100000858 2.9100000858
 6262.0000000 6262.0000000 -5.699999809 4.0900001526 2.9500000477 2.9500000477
 6263.0000000 6263.0000000 -7.659999847 4.8899998665 2.9000000954 2.9000000954
