# LAS format log file from PETREL
# Project units are specified as depth units
#==================================================================
~Version information
VERS.   2.0:
WRAP.   NO:
#==================================================================
~Well
STRT .m      4450.0000000 :
STOP .m      7050.0000000 :
STEP .m     1.00000000 :
NULL .        -999.250000 :
COMP.           : COMPANY
WELL.  WELL_4   : WELL
FLD.            : FIELD
LOC.            : LOCATION
SRVC.           : SERVICE COMPANY
DATE.  2023-03-20 17:52:46   : Log Export Date {yyyy-MM-dd HH:mm:ss}
PROV.           : PROVINCE
UWI.   WELL_4   : UNIQUE WELL ID
API.            : API NUMBER
#==================================================================
~Curve
DEPT .m                   : DEPTH
Depth .m                  : Depth
SP .mV                    : SP
SN .ohm.m                 : SN
LN .ohm.m                 : LN
LAT .ohm.m                : LAT
~Parameter
#==================================================================
~Ascii
# ...
 6184.0000000 6184.0000000 -7.210000038 1.6200000048 1.3899999857 1.5499999523
 6185.0000000 6185.0000000 -7.039999962 1.5599999428 1.4199999571 1.6699999571
 6186.0000000 6186.0000000 -6.079999924 1.4099999666 1.4800000191 1.6399999857
 6187.0000000 6187.0000000 -5.550000191 1.3300000429 1.5499999523 1.4400000572
 6188.0000000 6188.0000000 -5.550000191 1.3200000525 1.6000000238 1.2599999905
 6189.0000000 6189.0000000 -5.710000038 1.3600000143 1.6200000048 1.1699999571
 6190.0000000 6190.0000000 -5.869999886 1.3799999952 1.6399999857 1.1499999762
 6191.0000000 6191.0000000 -6.239999771 1.4600000381 1.6299999952 1.1900000572
 6192.0000000 6192.0000000 -6.849999905 1.6200000048 1.5199999809 1.2799999714
 6193.0000000 6193.0000000 -7.969999790 1.8500000238 1.4199999571 1.4500000477
 6194.0000000 6194.0000000 -9.520000458 2.0099999905 1.4199999571 1.6699999571
 6195.0000000 6195.0000000 -9.859999657 1.9400000572 1.5000000000 1.7899999619
 6196.0000000 6196.0000000 -9.310000420 1.7599999905 1.7300000191 1.7200000286
 6197.0000000 6197.0000000 -8.079999924 1.6499999762 1.9400000572 1.4199999571
 6198.0000000 6198.0000000 -7.650000095 1.6799999475 1.9900000095 1.2200000286
 6199.0000000 6199.0000000 -7.699999809 1.8099999428 1.8799999952 1.1599999666
 6200.0000000 6200.0000000 -8.369999886 2.2000000477 1.7300000191 1.2799999714
 6201.0000000 6201.0000000 -9.520000458 2.5199999809 1.7000000477 1.5499999523
 6202.0000000 6202.0000000 -10.06999969 2.5099999905 1.7599999905 1.6799999475
 6203.0000000 6203.0000000 -10.00000000 2.2200000286 1.9199999571 1.6799999475
 6204.0000000 6204.0000000 -9.279999733 1.9400000572 2.1700000763 1.4600000381
 6205.0000000 6205.0000000 -9.029999733 1.8799999952 2.3699998856 1.2699999809
 6206.0000000 6206.0000000 -9.630000114 2.1700000763 2.5099999905 1.1699999571
 6207.0000000 6207.0000000 -11.76000023 2.7400000095 2.6199998856 1.1599999666
 6208.0000000 6208.0000000 -13.26000023 3.4200000763 2.8199999332 1.2999999523
 6209.0000000 6209.0000000 -14.32999992 4.0300002098 3.1800000668 1.5099999905
 6210.0000000 6210.0000000 -15.18999958 4.2899999619 3.5299999714 1.7699999809
 6211.0000000 6211.0000000 -15.73999977 4.3499999046 3.7000000477 1.9800000191
 6212.0000000 6212.0000000 -16.14999962 4.2899999619 3.5199999809 2.2100000381
 6213.0000000 6213.0000000 -16.59000015 4.1500000954 2.8900001049 2.6600000858
 6214.0000000 6214.0000000 -16.01000023 3.9000000954 2.3499999046 3.0699999332
 6215.0000000 6215.0000000 -13.43999958 3.4600000381 1.9800000191 3.2400000095
 6216.0000000 6216.0000000 -11.25000000 2.4500000477 1.8400000334 2.9800000191
 6217.0000000 6217.0000000 -8.699999809 1.8099999428 1.8300000429 2.5899999142
 6218.0000000 6218.0000000 -7.380000114 1.4700000286 1.8099999428 2.0799999237
 6219.0000000 6219.0000000 -6.840000153 1.3600000143 1.7699999809 1.5399999619
 6220.0000000 6220.0000000 -6.789999962 1.3300000429 1.7100000381 1.2100000381
 6221.0000000 6221.0000000 -6.940000057 1.3200000525 1.6499999762 1.1200000048
 6222.0000000 6222.0000000 -7.070000172 1.2999999523 1.5800000429 1.0700000525
 6223.0000000 6223.0000000 -7.079999924 1.2899999619 1.5299999714 1.0399999619
 6224.0000000 6224.0000000 -7.030000210 1.2999999523 1.4900000095 1.0099999905
 6225.0000000 6225.0000000 -7.079999924 1.3600000143 1.4500000477 1.0399999619
 6226.0000000 6226.0000000 -7.409999847 1.4400000572 1.4199999571 1.1699999571
 6227.0000000 6227.0000000 -7.699999809 1.4900000095 1.3999999762 1.3300000429
 6228.0000000 6228.0000000 -7.239999771 1.4400000572 1.4099999666 1.4299999475
 6229.0000000 6229.0000000 -6.789999962 1.3600000143 1.4700000286 1.4299999475
 6230.0000000 6230.0000000 -6.739999771 1.2899999619 1.5399999619 1.3899999857
 6231.0000000 6231.0000000 -6.320000172 1.2500000000 1.6499999762 1.2899999619
 6232.0000000 6232.0000000 -5.980000019 1.2400000095 1.7400000095 1.1799999475
 6233.0000000 6233.0000000 -6.110000134 1.2699999809 1.8400000334 1.0900000334
 6234.0000000 6234.0000000 -6.409999847 1.3999999762 1.9700000286 1.0299999714
 6235.0000000 6235.0000000 -7.150000095 1.6399999857 2.1199998856 1.0399999619
 6236.0000000 6236.0000000 -9.029999733 2.2899999619 2.2799999714 1.1299999952
 6237.0000000 6237.0000000 -11.23999977 3.3299999237 2.4500000477 1.3500000238
 6238.0000000 6238.0000000 -12.67000008 4.1100001335 2.7799999714 1.6299999952
 6239.0000000 6239.0000000 -13.48999977 4.5199999809 3.5999999046 1.7899999619
 6240.0000000 6240.0000000 -14.32999992 4.9400000572 4.5100002289 1.8600000143
 6241.0000000 6241.0000000 -15.80000019 5.5599999428 5.0399999619 1.9700000286
 6242.0000000 6242.0000000 -16.94000053 5.9899997711 5.1300001144 2.1400001049
 6243.0000000 6243.0000000 -17.37000084 6.0199999809 4.9299998283 2.3699998856
 6244.0000000 6244.0000000 -16.82999992 5.7899999619 4.7500000000 2.6199998856
 6245.0000000 6245.0000000 -15.22999954 5.1599998474 4.7699999809 2.8099999428
 6246.0000000 6246.0000000 -13.61999989 4.5100002289 4.8200001717 2.8399999142
 6247.0000000 6247.0000000 -12.89000034 4.1399998665 4.7800002098 2.5299999714
 6248.0000000 6248.0000000 -12.67000008 3.9900000095 4.9000000954 2.0899999142
 6249.0000000 6249.0000000 -12.55000019 3.9300000668 4.8699998856 1.8600000143
 6250.0000000 6250.0000000 -12.15999985 4.0399999619 4.6900000572 1.7500000000
 6251.0000000 6251.0000000 -12.43000031 4.5199999809 4.5300002098 1.7599999905
 6252.0000000 6252.0000000 -13.07999992 4.7899999619 4.3299999237 1.9199999571
 6253.0000000 6253.0000000 -13.25000000 4.6300001144 4.1199998856 2.1400001049
 6254.0000000 6254.0000000 -12.60000038 4.2100000381 4.1500000954 2.2100000381
 6255.0000000 6255.0000000 -12.10999966 3.8399999142 4.3099999428 2.3199999332
 6256.0000000 6256.0000000 -11.60999966 3.4700000286 4.5900001526 2.4800000191
 6257.0000000 6257.0000000 -10.75000000 3.2100000381 5.0000000000 2.3800001144
 6258.0000000 6258.0000000 -10.97999954 3.2899999619 5.4299998283 2.0399999619
 6259.0000000 6259.0000000 -12.60999966 3.9500000477 5.5900001526 1.9500000477
 6260.0000000 6260.0000000 -15.22999954 4.9099998474 5.8299999237 2.2899999619
 6261.0000000 6261.0000000 -18.05999947 6.3699998856 6.3400001526 2.9100000858
 6262.0000000 6262.0000000 -20.55999947 7.3800001144 7.1100001335 3.5899999142
 6263.0000000 6263.0000000 -21.42000008 7.9800000191 8.1599998474 4.4899997711
 6264.0000000 6264.0000000 -21.20999908 8.6300001144 9.4300003052 5.1799998283
 6265.0000000 6265.0000000 -20.95000076 9.0200004578 10.020000458 5.5500001907
 6266.0000000 6266.0000000 -21.45999908 9.0699996948 10.020000458 5.6799998283
 6267.0000000 6267.0000000 -22.50000000 8.9899997711 10.020000458 5.7699999809
 6268.0000000 6268.0000000 -23.80999947 9.0000000000 10.020000458 6.0500001907
 6269.0000000 6269.0000000 -24.60000038 9.4099998474 10.010000229 6.5100002289
 6270.0000000 6270.0000000 -25.09000015 9.9200000763 10.000000000 7.3099999428
 6271.0000000 6271.0000000 -25.27000046 9.9600000381 9.9799995422 8.1700000763
 6272.0000000 6272.0000000 -25.21999931 9.8699998856 9.9499998093 9.4799995422
 6273.0000000 6273.0000000 -24.80999947 8.9899997711 9.6000003815 10.100000381
 6274.0000000 6274.0000000 -23.69000053 8.0500001907 8.6099996567 9.9499998093
 6275.0000000 6275.0000000 -23.02000046 7.4200000763 7.4200000763 8.8999996185
 6276.0000000 6276.0000000 -21.93000031 6.5799999237 5.7699999809 7.9000000954
 6277.0000000 6277.0000000 -19.69000053 5.3600001335 4.7399997711 7.5500001907
 6278.0000000 6278.0000000 -16.48999977 4.0799999237 4.4499998093 7.1300001144
 6279.0000000 6279.0000000 -12.05000019 3.2599999905 4.2699999809 6.5100002289
 6280.0000000 6280.0000000 -9.539999962 2.7999999523 4.0599999428 5.1300001144
 6281.0000000 6281.0000000 -10.76000023 3.0799999237 3.7000000477 4.1399998665
 6282.0000000 6282.0000000 -11.78999996 3.5599999428 3.6300001144 4.1399998665
 6283.0000000 6283.0000000 -12.65999985 3.8599998951 3.6099998951 4.1900000572
 6284.0000000 6284.0000000 -13.43999958 4.0100002289 3.6700000763 4.2199997902
 6285.0000000 6285.0000000 -14.07999992 4.0999999046 3.6600000858 4.6300001144
