# LAS format log file from PETREL
# Project units are specified as depth units
#==================================================================
~Version information
VERS.   2.0:
WRAP.   NO:
#==================================================================
~Well
STRT .m      4561.0000000 :
STOP .m      7034.0000000 :
STEP .m     1.00000000 :
NULL .        -999.250000 :
COMP.           : COMPANY
WELL.  WELL_5   : WELL
FLD.            : FIELD
LOC.            : LOCATION
SRVC.           : SERVICE COMPANY
DATE.  2023-03-20 17:52:46   : Log Export Date {yyyy-MM-dd HH:mm:ss}
PROV.           : PROVINCE
UWI.   WELL_5   : UNIQUE WELL ID
API.            : API NUMBER
#==================================================================
~Curve
DEPT .m                   : DEPTH
Depth .m                  : Depth
SN .ohm.m                 : SN
ILD .ohm.m                : ILD
~Parameter
#==================================================================
~Ascii
# ...
 4863.0000000 4863.0000000 1.6299999952 1.5099999905
 4864.0000000 4864.0000000 1.6200000048 1.4600000381
 4865.0000000 4865.0000000 1.5399999619 1.3400000334
 4866.0000000 4866.0000000 1.4600000381 1.2200000286
 4867.0000000 4867.0000000 1.3700000048 1.1000000238
 4868.0000000 4868.0000000 1.2699999809 0.9900000095
 4869.0000000 4869.0000000 1.1900000572 0.9300000072
 4870.0000000 4870.0000000 1.1200000048 0.8899999857
 4871.0000000 4871.0000000 1.0800000429 0.8899999857
 4872.0000000 4872.0000000 1.0900000334 0.9300000072
 4873.0000000 4873.0000000 1.1200000048 1.0000000000
 4874.0000000 4874.0000000 1.1499999762 1.0599999428
 4875.0000000 4875.0000000 1.1799999475 1.0900000334
 4876.0000000 4876.0000000 1.2000000477 1.1100000143
 4877.0000000 4877.0000000 1.1900000572 1.1200000048
 4878.0000000 4878.0000000 1.2000000477 1.1299999952
 4879.0000000 4879.0000000 1.2200000286 1.1299999952
 4880.0000000 4880.0000000 1.2400000095 1.1299999952
 4881.0000000 4881.0000000 1.2100000381 1.1399999857
 4882.0000000 4882.0000000 1.2300000191 1.1699999571
 4883.0000000 4883.0000000 1.2799999714 1.2000000477
 4884.0000000 4884.0000000 1.3300000429 1.2500000000
 4885.0000000 4885.0000000 1.3700000048 1.2999999523
 4886.0000000 4886.0000000 1.4099999666 1.3400000334
 4887.0000000 4887.0000000 1.4700000286 1.3799999952
 4888.0000000 4888.0000000 1.5499999523 1.4199999571
 4889.0000000 4889.0000000 1.6100000143 1.4600000381
 4890.0000000 4890.0000000 1.6799999475 1.5099999905
 4891.0000000 4891.0000000 1.7100000381 1.5499999523
 4892.0000000 4892.0000000 1.7100000381 1.5599999428
 4893.0000000 4893.0000000 1.7300000191 1.5399999619
 4894.0000000 4894.0000000 1.8400000334 1.6299999952
 4895.0000000 4895.0000000 2.2000000477 1.7799999714
 4896.0000000 4896.0000000 2.6400001049 1.9400000572
 4897.0000000 4897.0000000 2.8800001144 2.0000000000
 4898.0000000 4898.0000000 2.7500000000 1.9700000286
 4899.0000000 4899.0000000 2.5099999905 1.8700000048
 4900.0000000 4900.0000000 2.4900000095 1.7300000191
 4901.0000000 4901.0000000 2.7599999905 1.7300000191
 4902.0000000 4902.0000000 3.0299999714 1.8099999428
 4903.0000000 4903.0000000 2.7799999714 1.7100000381
 4904.0000000 4904.0000000 2.2999999523 1.6399999857
 4905.0000000 4905.0000000 2.0399999619 1.7000000477
 4906.0000000 4906.0000000 1.9600000381 1.7500000000
 4907.0000000 4907.0000000 2.0599999428 1.8300000429
 4908.0000000 4908.0000000 2.1600000858 1.9700000286
 4909.0000000 4909.0000000 2.1199998856 2.0099999905
 4910.0000000 4910.0000000 1.9199999571 1.7500000000
 4911.0000000 4911.0000000 1.7000000477 1.5399999619
 4912.0000000 4912.0000000 1.5800000429 1.3999999762
 4913.0000000 4913.0000000 1.5199999809 1.3500000238
 4914.0000000 4914.0000000 1.4800000191 1.3600000143
 4915.0000000 4915.0000000 1.4700000286 1.3500000238
 4916.0000000 4916.0000000 1.4400000572 1.3200000525
 4917.0000000 4917.0000000 1.4099999666 1.3099999428
 4918.0000000 4918.0000000 1.4299999475 1.3099999428
 4919.0000000 4919.0000000 1.4600000381 1.3099999428
 4920.0000000 4920.0000000 1.4500000477 1.3200000525
 4921.0000000 4921.0000000 1.4400000572 1.2999999523
 4922.0000000 4922.0000000 1.4500000477 1.3200000525
 4923.0000000 4923.0000000 1.4800000191 1.3300000429
 4924.0000000 4924.0000000 1.5000000000 1.3300000429
 4925.0000000 4925.0000000 1.5000000000 1.3799999952
 4926.0000000 4926.0000000 1.5000000000 1.3999999762
 4927.0000000 4927.0000000 1.5000000000 1.3899999857
 4928.0000000 4928.0000000 1.4700000286 1.3600000143
 4929.0000000 4929.0000000 1.4299999475 1.2899999619
 4930.0000000 4930.0000000 1.3799999952 1.2200000286
 4931.0000000 4931.0000000 1.3600000143 1.1599999666
 4932.0000000 4932.0000000 1.3200000525 1.1100000143
 4933.0000000 4933.0000000 1.2899999619 1.0700000525
 4934.0000000 4934.0000000 1.2699999809 1.0800000429
 4935.0000000 4935.0000000 1.2599999905 1.1200000048
 4936.0000000 4936.0000000 1.3200000525 1.2100000381
 4937.0000000 4937.0000000 1.3999999762 1.3200000525
 4938.0000000 4938.0000000 1.4700000286 1.3999999762
 4939.0000000 4939.0000000 1.4900000095 1.4199999571
 4940.0000000 4940.0000000 1.4800000191 1.4099999666
 4941.0000000 4941.0000000 1.4400000572 1.3700000048
 4942.0000000 4942.0000000 1.3999999762 1.3099999428
 4943.0000000 4943.0000000 1.3500000238 1.2300000191
 4944.0000000 4944.0000000 1.2999999523 1.1799999475
 4945.0000000 4945.0000000 1.3099999428 1.1799999475
 4946.0000000 4946.0000000 1.3500000238 1.2400000095
 4947.0000000 4947.0000000 1.3999999762 1.3300000429
 4948.0000000 4948.0000000 1.4500000477 1.4299999475
 4949.0000000 4949.0000000 1.5000000000 1.4600000381
 4950.0000000 4950.0000000 1.5000000000 1.3999999762
 4951.0000000 4951.0000000 1.4199999571 1.3099999428
 4952.0000000 4952.0000000 1.3899999857 1.2599999905
 4953.0000000 4953.0000000 1.3600000143 1.2200000286
 4954.0000000 4954.0000000 1.3400000334 1.2300000191
 4955.0000000 4955.0000000 1.3400000334 1.2699999809
 4956.0000000 4956.0000000 1.3500000238 1.2999999523
 4957.0000000 4957.0000000 1.3799999952 1.2999999523
 4958.0000000 4958.0000000 1.4099999666 1.2599999905
 4959.0000000 4959.0000000 1.3500000238 1.1799999475
 4960.0000000 4960.0000000 1.2799999714 1.1000000238
 4961.0000000 4961.0000000 1.1900000572 1.0499999523
 4962.0000000 4962.0000000 1.1699999571 1.0199999809
 4963.0000000 4963.0000000 1.2400000095 1.0700000525
 4964.0000000 4964.0000000 1.3500000238 1.1799999475
 4965.0000000 4965.0000000 1.4700000286 1.3899999857
 4966.0000000 4966.0000000 1.7200000286 1.6399999857
 4967.0000000 4967.0000000 1.9500000477 1.9400000572
 4968.0000000 4968.0000000 2.0999999046 1.8999999762
 4969.0000000 4969.0000000 2.0799999237 1.6900000572
 4970.0000000 4970.0000000 1.8300000429 1.4400000572
 4971.0000000 4971.0000000 1.6299999952 1.2699999809
 4972.0000000 4972.0000000 1.4800000191 1.2300000191
 4973.0000000 4973.0000000 1.3899999857 1.2400000095
 4974.0000000 4974.0000000 1.4500000477 1.2599999905
 4975.0000000 4975.0000000 1.5199999809 1.3200000525
 4976.0000000 4976.0000000 1.5599999428 1.3899999857
 4977.0000000 4977.0000000 1.5800000429 1.4099999666
 4978.0000000 4978.0000000 1.6000000238 1.4500000477
 4979.0000000 4979.0000000 1.6299999952 1.5399999619
 4980.0000000 4980.0000000 1.6900000572 1.7100000381
 4981.0000000 4981.0000000 1.7799999714 1.8300000429
 4982.0000000 4982.0000000 1.9400000572 1.7999999523
 4983.0000000 4983.0000000 1.7500000000 1.6399999857
 4984.0000000 4984.0000000 1.5700000525 1.3099999428
 4985.0000000 4985.0000000 1.3899999857 1.1100000143
 4986.0000000 4986.0000000 1.2899999619 1.0399999619
 4987.0000000 4987.0000000 1.2200000286 1.0000000000
 4988.0000000 4988.0000000 1.1699999571 0.9599999785
 4989.0000000 4989.0000000 1.1699999571 0.9499999881
 4990.0000000 4990.0000000 1.1499999762 0.9399999976
 4991.0000000 4991.0000000 1.1200000048 0.9100000262
 4992.0000000 4992.0000000 1.0900000334 0.9100000262
 4993.0000000 4993.0000000 1.1200000048 1.0000000000
 4994.0000000 4994.0000000 1.2599999905 1.1799999475
 4995.0000000 4995.0000000 1.4600000381 1.3700000048
 4996.0000000 4996.0000000 1.5900000334 1.5199999809
 4997.0000000 4997.0000000 1.6399999857 1.6100000143
 4998.0000000 4998.0000000 1.6900000572 1.6900000572
 4999.0000000 4999.0000000 1.7500000000 1.6299999952
 5000.0000000 5000.0000000 1.7899999619 1.5800000429
 5001.0000000 5001.0000000 1.7599999905 1.5499999523
 5002.0000000 5002.0000000 1.7300000191 1.5599999428
 5003.0000000 5003.0000000 1.7400000095 1.6499999762
 5004.0000000 5004.0000000 1.8700000048 1.7699999809
 5005.0000000 5005.0000000 2.0899999142 1.8700000048
 5006.0000000 5006.0000000 2.2400000095 1.9199999571
 5007.0000000 5007.0000000 2.2300000191 1.8999999762
 5008.0000000 5008.0000000 2.0799999237 1.7899999619
 5009.0000000 5009.0000000 1.9900000095 1.7200000286
 5010.0000000 5010.0000000 1.9700000286 1.6900000572
 5011.0000000 5011.0000000 1.9800000191 1.7400000095
 5012.0000000 5012.0000000 1.9900000095 1.7599999905
 5013.0000000 5013.0000000 2.0399999619 1.7599999905
