# LAS format log file from PETREL
# Project units are specified as depth units
#==================================================================
~Version information
VERS.   2.0:
WRAP.   NO:
#==================================================================
~Well
STRT .m      3000.0000000 :
STOP .m      6457.0000000 :
STEP .m     1.00000000 :
NULL .        -999.250000 :
COMP.           : COMPANY
WELL.  WELL_1   : WELL
FLD.            : FIELD
LOC.            : LOCATION
SRVC.           : SERVICE COMPANY
DATE.  2023-03-20 17:52:46   : Log Export Date {yyyy-MM-dd HH:mm:ss}
PROV.           : PROVINCE
UWI.   WELL_1   : UNIQUE WELL ID
API.            : API NUMBER
#==================================================================
~Curve
DEPT .m                   : DEPTH
Depth .m                  : Depth
SP .mV                    : SP
SN .ohm.m                 : SN
LN .ohm.m                 : LN
~Parameter
#==================================================================
~Ascii
# ...
 4708.0000000 4708.0000000 10.439999580 1.1299999952 1.1200000048
 4709.0000000 4709.0000000 9.9399995804 1.1499999762 1.1100000143
 4710.0000000 4710.0000000 9.3599996567 1.1599999666 1.1000000238
 4711.0000000 4711.0000000 8.7899999619 1.1699999571 1.0900000334
 4712.0000000 4712.0000000 8.4700002670 1.1799999475 1.0700000525
 4713.0000000 4713.0000000 8.4700002670 1.2100000381 1.0499999523
 4714.0000000 4714.0000000 8.4700002670 1.2400000095 1.0299999714
 4715.0000000 4715.0000000 8.4700002670 1.2699999809 1.0099999905
 4716.0000000 4716.0000000 8.4799995422 1.3099999428 0.9700000286
 4717.0000000 4717.0000000 8.5100002289 1.3600000143 0.9300000072
 4718.0000000 4718.0000000 8.5299997330 1.3999999762 0.8899999857
 4719.0000000 4719.0000000 8.5699996948 1.4500000477 0.8399999738
 4720.0000000 4720.0000000 8.6700000763 1.4900000095 0.8299999833
 4721.0000000 4721.0000000 8.7799997330 1.5299999714 0.8700000048
 4722.0000000 4722.0000000 8.8800001144 1.5700000525 0.9100000262
 4723.0000000 4723.0000000 8.9899997711 1.6100000143 0.9499999881
 4724.0000000 4724.0000000 9.0200004578 1.6200000048 0.9800000191
 4725.0000000 4725.0000000 9.0299997330 1.6200000048 1.0000000000
 4726.0000000 4726.0000000 9.0500001907 1.6299999952 1.0099999905
 4727.0000000 4727.0000000 9.1199998856 1.6299999952 0.9700000286
 4728.0000000 4728.0000000 9.3199996948 1.6200000048 0.9300000072
 4729.0000000 4729.0000000 9.5299997330 1.6000000238 0.8899999857
 4730.0000000 4730.0000000 9.7299995422 1.5800000429 0.8999999762
 4731.0000000 4731.0000000 9.9399995804 1.5700000525 0.9300000072
 4732.0000000 4732.0000000 10.149999619 1.5000000000 0.9599999785
 4733.0000000 4733.0000000 10.359999657 1.4400000572 0.9900000095
 4734.0000000 4734.0000000 10.569999695 1.3700000048 1.0099999905
 4735.0000000 4735.0000000 10.630000114 1.3099999428 1.0299999714
 4736.0000000 4736.0000000 10.670000076 1.2999999523 1.0399999619
 4737.0000000 4737.0000000 10.699999809 1.2899999619 1.0499999523
 4738.0000000 4738.0000000 10.729999542 1.2799999714 1.0599999428
 4739.0000000 4739.0000000 10.750000000 1.3700000048 1.2000000477
 4740.0000000 4740.0000000 10.649999619 1.4800000191 1.3500000238
 4741.0000000 4741.0000000 10.550000191 1.6299999952 1.6499999762
 4742.0000000 4742.0000000 10.439999580 1.7999999523 1.9299999475
 4743.0000000 4743.0000000 10.289999962 2.0699999332 2.1800000668
 4744.0000000 4744.0000000 9.9399995804 2.3900001049 2.0699999332
 4745.0000000 4745.0000000 9.5900001526 2.5899999142 1.8999999762
 4746.0000000 4746.0000000 9.2500000000 2.3900001049 1.6900000572
 4747.0000000 4747.0000000 8.7500000000 2.1800000668 1.4900000095
 4748.0000000 4748.0000000 8.2299995422 2.0000000000 1.3099999428
 4749.0000000 4749.0000000 7.7600002289 1.8300000429 1.1499999762
 4750.0000000 4750.0000000 7.4099998474 1.6799999475 1.0900000334
 4751.0000000 4751.0000000 7.7899999619 1.5900000334 1.3500000238
 4752.0000000 4752.0000000 8.1800003052 1.4199999571 1.6100000143
 4753.0000000 4753.0000000 8.5100002289 1.5399999619 1.9800000191
 4754.0000000 4754.0000000 8.5399999619 1.8899999857 2.4000000954
 4755.0000000 4755.0000000 6.7199997902 2.5099999905 2.6900000572
 4756.0000000 4756.0000000 3.9300000668 3.3800001144 2.9000000954
 4757.0000000 4757.0000000 -0.209999993 4.1599998474 2.8099999428
 4758.0000000 4758.0000000 -5.380000114 5.5799999237 2.7200000286
 4759.0000000 4759.0000000 -9.909999847 6.7800002098 2.6199998856
 4760.0000000 4760.0000000 -12.51000023 6.9899997711 2.7000000477
 4761.0000000 4761.0000000 -14.35000038 7.1799998283 2.8699998856
 4762.0000000 4762.0000000 -14.89999962 7.3800001144 3.0399999619
 4763.0000000 4763.0000000 -14.44999981 7.5900001526 3.2100000381
 4764.0000000 4764.0000000 -12.68000031 6.8299999237 3.0899999142
 4765.0000000 4765.0000000 -8.079999924 5.2199997902 2.3399999142
 4766.0000000 4766.0000000 -3.289999962 4.2300000191 1.8300000429
 4767.0000000 4767.0000000 0.0599999987 3.7000000477 1.6000000238
 4768.0000000 4768.0000000 1.3099999428 3.3099999428 1.4700000286
 4769.0000000 4769.0000000 2.0899999142 3.0000000000 1.8899999857
 4770.0000000 4770.0000000 3.0299999714 3.5799999237 2.3499999046
 4771.0000000 4771.0000000 4.0000000000 4.3299999237 2.9600000381
 4772.0000000 4772.0000000 -3.539999962 4.3000001907 2.7799999714
 4773.0000000 4773.0000000 -7.199999809 3.9900000095 2.6199998856
 4774.0000000 4774.0000000 -6.800000191 3.5499999523 2.7000000477
 4775.0000000 4775.0000000 -5.639999866 3.4700000286 2.9100000858
 4776.0000000 4776.0000000 -4.579999924 3.5699999332 3.1300001144
 4777.0000000 4777.0000000 -3.740000010 3.5399999619 3.0499999523
 4778.0000000 4778.0000000 -1.850000024 3.2100000381 2.8599998951
 4779.0000000 4779.0000000 0.5000000000 2.8800001144 2.6700000763
 4780.0000000 4780.0000000 2.9300000668 2.5299999714 2.4800000191
 4781.0000000 4781.0000000 4.4400000572 2.2400000095 2.4800000191
 4782.0000000 4782.0000000 4.7800002098 3.2400000095 2.6099998951
 4783.0000000 4783.0000000 1.8899999857 4.8499999046 2.7799999714
 4784.0000000 4784.0000000 -1.460000038 5.6999998093 2.9600000381
 4785.0000000 4785.0000000 -5.929999828 6.1300001144 3.1500000954
 4786.0000000 4786.0000000 -9.310000420 5.3099999428 3.3599998951
 4787.0000000 4787.0000000 -7.150000095 4.3600001335 3.5699999332
 4788.0000000 4788.0000000 -4.980000019 3.3099999428 3.3900001049
 4789.0000000 4789.0000000 -1.860000014 2.8399999142 3.2000000477
 4790.0000000 4790.0000000 1.7899999619 2.4600000381 3.0199999809
 4791.0000000 4791.0000000 5.3800001144 2.7500000000 2.8399999142
 4792.0000000 4792.0000000 6.5799999237 3.1199998856 2.7400000095
 4793.0000000 4793.0000000 4.5599999428 3.2699999809 2.6800000668
 4794.0000000 4794.0000000 2.4200000763 3.4200000763 2.6500000954
 4795.0000000 4795.0000000 0.0000000000 3.6900000572 2.6600000858
 4796.0000000 4796.0000000 -2.150000095 3.9600000381 2.7000000477
 4797.0000000 4797.0000000 -4.159999847 4.3699998856 2.7799999714
 4798.0000000 4798.0000000 -5.760000229 4.7800002098 2.8499999046
 4799.0000000 4799.0000000 -7.340000153 5.0700001717 3.0000000000
 4800.0000000 4800.0000000 -8.859999657 5.1100001335 3.2100000381
 4801.0000000 4801.0000000 -10.35000038 5.1500000954 3.4300000668
 4802.0000000 4802.0000000 -11.43999958 5.1900000572 3.6600000858
 4803.0000000 4803.0000000 -12.52999973 4.9600000381 3.7599999905
 4804.0000000 4804.0000000 -13.57999992 4.7399997711 3.7400000095
 4805.0000000 4805.0000000 -13.22000027 4.4800000191 3.5299999714
 4806.0000000 4806.0000000 -9.680000305 4.1199998856 3.3299999237
 4807.0000000 4807.0000000 -7.730000019 3.7100000381 2.8599998951
 4808.0000000 4808.0000000 -6.070000172 3.1400001049 2.4100000858
 4809.0000000 4809.0000000 -4.909999847 2.5199999809 2.0299999714
 4810.0000000 4810.0000000 -3.809999943 2.3499999046 1.7799999714
 4811.0000000 4811.0000000 -2.710000038 2.8099999428 1.7200000286
 4812.0000000 4812.0000000 -3.349999905 3.4300000668 1.8700000048
 4813.0000000 4813.0000000 -5.400000095 4.0999999046 2.0199999809
 4814.0000000 4814.0000000 -7.460000038 3.9300000668 1.9600000381
 4815.0000000 4815.0000000 -9.020000458 3.5099999905 1.8200000525
 4816.0000000 4816.0000000 -10.35999966 3.1800000668 1.8099999428
 4817.0000000 4817.0000000 -10.93999958 3.4900000095 1.9500000477
 4818.0000000 4818.0000000 -11.48999977 4.0300002098 2.1199998856
 4819.0000000 4819.0000000 -9.939999580 4.2800002098 2.4300000668
 4820.0000000 4820.0000000 -3.460000038 3.8800001144 2.5599999428
 4821.0000000 4821.0000000 2.2999999523 3.0799999237 2.2799999714
 4822.0000000 4822.0000000 6.9600000381 2.3399999142 2.0299999714
 4823.0000000 4823.0000000 8.4899997711 1.7500000000 1.7799999714
 4824.0000000 4824.0000000 9.2299995422 1.6000000238 1.6399999857
 4825.0000000 4825.0000000 9.6400003433 1.4700000286 1.5099999905
 4826.0000000 4826.0000000 9.8000001907 1.4800000191 1.3899999857
 4827.0000000 4827.0000000 9.9399995804 1.5499999523 1.3899999857
 4828.0000000 4828.0000000 8.9700002670 1.6200000048 1.3899999857
 4829.0000000 4829.0000000 7.0399999619 2.0399999619 1.5000000000
