# LAS format log file from PETREL
# Project units are specified as depth units
#==================================================================
~Version information
VERS.   2.0:
WRAP.   NO:
#==================================================================
~Well
STRT .m      4650.0000000 :
STOP .m      7300.0000000 :
STEP .m     1.00000000 :
NULL .        -999.250000 :
COMP.           : COMPANY
WELL.  WELL_6   : WELL
FLD.            : FIELD
LOC.            : LOCATION
SRVC.           : SERVICE COMPANY
DATE.  2023-03-20 17:52:46   : Log Export Date {yyyy-MM-dd HH:mm:ss}
PROV.           : PROVINCE
UWI.   WELL_6   : UNIQUE WELL ID
API.            : API NUMBER
#==================================================================
~Curve
DEPT .m                   : DEPTH
Depth .m                  : Depth
GR .gAPI                  : GR
SP .mV                    : SP
RT .ohm.m                 : RT
~Parameter
#==================================================================
~Ascii
# ...
 6724.0000000 6724.0000000 102.76999664 -0.670000017 3.4200000763
 6725.0000000 6725.0000000 103.51000214 -0.430000007 2.3800001144
 6726.0000000 6726.0000000 105.93000031 -1.049999952 1.7799999714
 6727.0000000 6727.0000000 107.68000031 -1.539999962 1.3700000048
 6728.0000000 6728.0000000 106.37000275 -1.450000048 1.0299999714
 6729.0000000 6729.0000000 112.69999695 -0.879999995 0.8999999762
 6730.0000000 6730.0000000 113.38999939 0.0000000000 0.9100000262
 6731.0000000 6731.0000000 107.12999725 1.5800000429 0.9100000262
 6732.0000000 6732.0000000 106.47000122 0.5299999714 0.9499999881
 6733.0000000 6733.0000000 103.05000305 -0.439999998 1.1100000143
 6734.0000000 6734.0000000 116.01999664 -0.730000019 1.2300000191
 6735.0000000 6735.0000000 118.37999725 -0.769999981 1.2599999905
 6736.0000000 6736.0000000 107.45999908 -0.469999999 1.2599999905
 6737.0000000 6737.0000000 97.699996948 -2.400000095 1.2000000477
 6738.0000000 6738.0000000 90.059997559 -3.359999895 1.2599999905
 6739.0000000 6739.0000000 89.120002747 -3.470000029 1.6100000143
 6740.0000000 6740.0000000 97.760002136 -2.759999990 1.4800000191
 6741.0000000 6741.0000000 97.500000000 -1.480000019 1.2599999905
 6742.0000000 6742.0000000 98.760002136 -1.629999995 1.2000000477
 6743.0000000 6743.0000000 99.000000000 -1.440000057 1.2300000191
 6744.0000000 6744.0000000 100.01999664 -0.889999986 1.2799999714
 6745.0000000 6745.0000000 88.720001221 -0.800000012 1.3300000429
 6746.0000000 6746.0000000 84.569999695 -2.009999990 1.3200000525
 6747.0000000 6747.0000000 88.589996338 -2.960000038 1.3200000525
 6748.0000000 6748.0000000 89.180000305 -2.940000057 1.1499999762
 6749.0000000 6749.0000000 96.160003662 -2.589999914 0.9599999785
 6750.0000000 6750.0000000 102.30000305 -2.250000000 0.8100000024
 6751.0000000 6751.0000000 98.989997864 -2.250000000 0.7099999785
 6752.0000000 6752.0000000 98.519996643 -2.710000038 0.7200000286
 6753.0000000 6753.0000000 98.910003662 -3.170000076 0.8500000238
 6754.0000000 6754.0000000 102.30000305 -3.339999914 1.1799999475
 6755.0000000 6755.0000000 92.989997864 -5.010000229 1.9199999571
 6756.0000000 6756.0000000 80.660003662 -7.610000134 2.9700000286
 6757.0000000 6757.0000000 72.680000305 -8.630000114 4.3400001526
 6758.0000000 6758.0000000 99.370002747 -7.309999943 4.9800000191
 6759.0000000 6759.0000000 117.18000031 -4.460000038 2.4000000954
 6760.0000000 6760.0000000 115.29000092 -2.900000095 1.2500000000
 6761.0000000 6761.0000000 106.22000122 -3.809999943 1.0099999905
 6762.0000000 6762.0000000 104.16000366 -4.300000191 1.0599999428
 6763.0000000 6763.0000000 100.76999664 -4.039999962 1.5499999523
 6764.0000000 6764.0000000 100.19999695 -3.369999886 1.6100000143
 6765.0000000 6765.0000000 102.45999908 -2.299999952 1.3099999428
 6766.0000000 6766.0000000 104.30999756 -1.710000038 1.2300000191
 6767.0000000 6767.0000000 104.65000153 -2.930000067 1.1499999762
 6768.0000000 6768.0000000 100.55000305 -3.259999990 1.1100000143
 6769.0000000 6769.0000000 100.98999786 -3.319999933 1.0800000429
 6770.0000000 6770.0000000 102.83999634 -3.630000114 1.0499999523
 6771.0000000 6771.0000000 114.66999817 -4.219999790 1.0199999809
 6772.0000000 6772.0000000 140.53999329 -4.469999790 0.9100000262
 6773.0000000 6773.0000000 141.47000122 -4.150000095 0.9399999976
 6774.0000000 6774.0000000 139.77000427 -3.539999962 1.1200000048
 6775.0000000 6775.0000000 134.77999878 -2.980000019 1.7100000381
 6776.0000000 6776.0000000 118.79000092 -2.960000038 1.9500000477
 6777.0000000 6777.0000000 127.22000122 -3.490000010 2.7400000095
 6778.0000000 6778.0000000 130.19000244 -2.710000038 1.6699999571
 6779.0000000 6779.0000000 119.20999908 -2.720000029 1.4099999666
 6780.0000000 6780.0000000 113.76000214 -3.380000114 1.9199999571
 6781.0000000 6781.0000000 108.70999908 -3.369999886 2.8599998951
 6782.0000000 6782.0000000 108.52999878 -3.740000010 2.6500000954
 6783.0000000 6783.0000000 106.97000122 -3.960000038 2.5399999619
 6784.0000000 6784.0000000 99.730003357 -3.470000029 2.1300001144
 6785.0000000 6785.0000000 91.269996643 -3.619999886 2.2500000000
 6786.0000000 6786.0000000 94.720001221 -4.750000000 2.9200000763
 6787.0000000 6787.0000000 107.13999939 -4.719999790 3.9200000763
 6788.0000000 6788.0000000 100.97000122 -3.039999962 3.5499999523
 6789.0000000 6789.0000000 92.540000916 -3.630000114 3.3699998856
 6790.0000000 6790.0000000 122.29000092 -2.339999914 1.9099999666
 6791.0000000 6791.0000000 141.49000549 -1.779999971 1.2599999905
 6792.0000000 6792.0000000 110.56999969 -2.430000067 1.0599999428
 6793.0000000 6793.0000000 102.27999878 -3.359999895 1.1000000238
 6794.0000000 6794.0000000 130.89999390 -3.960000038 1.1100000143
 6795.0000000 6795.0000000 158.22000122 -3.029999971 1.0900000334
 6796.0000000 6796.0000000 163.75000000 -1.350000024 1.1299999952
 6797.0000000 6797.0000000 134.50000000 -0.379999995 1.0299999714
 6798.0000000 6798.0000000 101.47000122 0.0000000000 0.8600000143
 6799.0000000 6799.0000000 92.750000000 -0.159999996 0.8500000238
 6800.0000000 6800.0000000 95.589996338 -1.039999962 0.8999999762
 6801.0000000 6801.0000000 93.349998474 -1.809999943 1.0199999809
 6802.0000000 6802.0000000 86.970001221 -1.649999976 1.2999999523
 6803.0000000 6803.0000000 86.989997864 -3.490000010 1.6599999666
 6804.0000000 6804.0000000 79.160003662 -4.449999809 1.9900000095
 6805.0000000 6805.0000000 85.559997559 -3.759999990 2.3599998951
 6806.0000000 6806.0000000 89.660003662 -2.890000105 2.5399999619
 6807.0000000 6807.0000000 90.449996948 -2.670000076 2.5499999523
 6808.0000000 6808.0000000 95.290000916 -1.350000024 2.1500000954
 6809.0000000 6809.0000000 96.139999390 -2.180000067 1.8200000525
 6810.0000000 6810.0000000 107.12999725 -1.889999986 1.5399999619
 6811.0000000 6811.0000000 114.51000214 -0.930000007 1.2100000381
 6812.0000000 6812.0000000 109.23999786 -0.400000006 1.0399999619
 6813.0000000 6813.0000000 100.31999969 -0.579999983 0.9700000286
 6814.0000000 6814.0000000 111.41999817 -2.019999981 1.0599999428
 6815.0000000 6815.0000000 113.90000153 -2.519999981 0.8100000024
 6816.0000000 6816.0000000 106.11000061 -2.759999990 0.7300000191
 6817.0000000 6817.0000000 107.81999969 -2.059999943 0.7799999714
 6818.0000000 6818.0000000 108.00000000 -2.079999924 0.9200000167
 6819.0000000 6819.0000000 102.13999939 -3.519999981 1.2899999619
 6820.0000000 6820.0000000 101.29000092 -3.950000048 1.7300000191
 6821.0000000 6821.0000000 89.489997864 -2.740000010 2.1099998951
 6822.0000000 6822.0000000 87.019996643 -4.000000000 2.5399999619
 6823.0000000 6823.0000000 86.110000610 -3.009999990 2.3800001144
 6824.0000000 6824.0000000 85.419998169 -4.110000134 2.0199999809
 6825.0000000 6825.0000000 89.360000610 -5.469999790 1.8300000429
 6826.0000000 6826.0000000 90.269996643 -5.500000000 1.6900000572
 6827.0000000 6827.0000000 89.169998169 -4.619999886 1.9099999666
 6828.0000000 6828.0000000 94.180000305 -3.880000114 1.7300000191
 6829.0000000 6829.0000000 101.08999634 -4.360000134 1.8300000429
 6830.0000000 6830.0000000 101.59999847 -4.019999981 1.9299999475
 6831.0000000 6831.0000000 94.940002441 -2.990000010 2.1800000668
 6832.0000000 6832.0000000 94.900001526 -2.210000038 2.2100000381
 6833.0000000 6833.0000000 96.110000610 -2.710000038 1.8200000525
 6834.0000000 6834.0000000 90.889999390 -3.460000038 1.4700000286
 6835.0000000 6835.0000000 85.419998169 -4.010000229 1.3300000429
 6836.0000000 6836.0000000 90.440002441 -4.210000038 1.2999999523
 6837.0000000 6837.0000000 97.190002441 -4.000000000 1.3500000238
 6838.0000000 6838.0000000 97.089996338 -4.300000191 1.3200000525
 6839.0000000 6839.0000000 92.330001831 -4.949999809 1.3600000143
 6840.0000000 6840.0000000 95.059997559 -4.639999866 1.3500000238
 6841.0000000 6841.0000000 96.610000610 -3.140000105 1.4600000381
 6842.0000000 6842.0000000 95.959999084 -2.130000114 1.5900000334
 6843.0000000 6843.0000000 94.669998169 -1.889999986 1.7899999619
 6844.0000000 6844.0000000 93.949996948 -2.549999952 1.7699999809
 6845.0000000 6845.0000000 89.470001221 -3.420000076 1.5299999714
