# LAS format log file from PETREL
# Project units are specified as depth units
#==================================================================
~Version information
VERS.   2.0:
WRAP.   NO:
#==================================================================
~Well
STRT .m      3000.0000000 :
STOP .m      6457.0000000 :
STEP .m     1.00000000 :
NULL .        -999.250000 :
COMP.           : COMPANY
WELL.  WELL_1   : WELL
FLD.            : FIELD
LOC.            : LOCATION
SRVC.           : SERVICE COMPANY
DATE.  2023-03-20 17:52:46   : Log Export Date {yyyy-MM-dd HH:mm:ss}
PROV.           : PROVINCE
UWI.   WELL_1   : UNIQUE WELL ID
API.            : API NUMBER
#==================================================================
~Curve
DEPT .m                   : DEPTH
Depth .m                  : Depth
SP .mV                    : SP
SN .ohm.m                 : SN
LN .ohm.m                 : LN
~Parameter
#==================================================================
~Ascii
# ...
 5196.0000000 5196.0000000 9.3400001526 1.4400000572 1.4700000286
 5197.0000000 5197.0000000 9.7899999619 1.4600000381 1.4700000286
 5198.0000000 5198.0000000 10.170000076 1.4700000286 1.5000000000
 5199.0000000 5199.0000000 10.560000420 1.4900000095 1.5900000334
 5200.0000000 5200.0000000 10.899999619 1.6599999666 1.6799999475
 5201.0000000 5201.0000000 10.960000038 1.8300000429 1.7799999714
 5202.0000000 5202.0000000 11.000000000 2.0499999523 1.8999999762
 5203.0000000 5203.0000000 10.399999619 2.3299999237 2.0199999809
 5204.0000000 5204.0000000 9.8100004196 2.7300000191 2.0799999237
 5205.0000000 5205.0000000 9.1300001144 3.1300001144 2.1099998951
 5206.0000000 5206.0000000 8.8100004196 2.7300000191 2.2100000381
 5207.0000000 5207.0000000 8.8599996567 2.4700000286 2.5999999046
 5208.0000000 5208.0000000 8.7899999619 2.6400001049 2.1600000858
 5209.0000000 5209.0000000 8.3699998856 2.8099999428 1.9299999475
 5210.0000000 5210.0000000 8.2299995422 2.6700000763 1.8099999428
 5211.0000000 5211.0000000 8.6599998474 2.3199999332 1.8999999762
 5212.0000000 5212.0000000 9.7500000000 2.0099999905 1.9800000191
 5213.0000000 5213.0000000 10.399999619 2.0399999619 2.0699999332
 5214.0000000 5214.0000000 10.250000000 2.0699999332 2.1099998951
 5215.0000000 5215.0000000 10.189999580 2.0999999046 2.0899999142
 5216.0000000 5216.0000000 10.399999619 2.0899999142 2.0699999332
 5217.0000000 5217.0000000 10.729999542 2.0699999332 2.0499999523
 5218.0000000 5218.0000000 11.060000420 2.0499999523 1.9600000381
 5219.0000000 5219.0000000 11.069999695 2.0299999714 1.8700000048
 5220.0000000 5220.0000000 11.039999962 1.9800000191 1.7799999714
 5221.0000000 5221.0000000 10.880000114 1.9099999666 1.6900000572
 5222.0000000 5222.0000000 10.039999962 1.8500000238 1.6000000238
 5223.0000000 5223.0000000 9.2299995422 1.7799999714 1.5099999905
 5224.0000000 5224.0000000 8.5600004196 1.7000000477 1.4199999571
 5225.0000000 5225.0000000 9.0900001526 1.6200000048 1.3300000429
 5226.0000000 5226.0000000 9.4700002670 1.5399999619 1.2699999809
 5227.0000000 5227.0000000 9.8599996567 1.4700000286 1.2300000191
 5228.0000000 5228.0000000 10.250000000 1.4299999475 1.1799999475
 5229.0000000 5229.0000000 10.510000229 1.3899999857 1.1399999857
 5230.0000000 5230.0000000 10.750000000 1.3600000143 1.1900000572
 5231.0000000 5231.0000000 11.000000000 1.3999999762 1.2400000095
 5232.0000000 5232.0000000 10.930000305 1.4400000572 1.2999999523
 5233.0000000 5233.0000000 10.829999924 1.4800000191 1.4199999571
 5234.0000000 5234.0000000 10.729999542 1.6299999952 1.6000000238
 5235.0000000 5235.0000000 10.369999886 1.7699999809 1.7899999619
 5236.0000000 5236.0000000 10.000000000 1.9099999666 2.0099999905
 5237.0000000 5237.0000000 9.6199998856 2.1500000954 1.9199999571
 5238.0000000 5238.0000000 9.0699996948 2.3900001049 1.7799999714
 5239.0000000 5239.0000000 8.5299997330 2.5899999142 1.6599999666
 5240.0000000 5240.0000000 8.2500000000 2.6600000858 1.7100000381
 5241.0000000 5241.0000000 8.3299999237 2.5399999619 1.7500000000
 5242.0000000 5242.0000000 8.8500003815 2.4400000572 1.8200000525
 5243.0000000 5243.0000000 9.1099996567 2.3399999142 1.8799999952
 5244.0000000 5244.0000000 9.0200004578 2.2999999523 1.9600000381
 5245.0000000 5245.0000000 8.4300003052 2.4500000477 2.0499999523
 5246.0000000 5246.0000000 7.8499999046 2.5999999046 2.1300001144
 5247.0000000 5247.0000000 7.3800001144 2.9000000954 2.1199998856
 5248.0000000 5248.0000000 7.1700000763 3.0299999714 1.9600000381
 5249.0000000 5249.0000000 7.8000001907 2.7799999714 1.7699999809
 5250.0000000 5250.0000000 8.6700000763 2.3099999428 1.6100000143
 5251.0000000 5251.0000000 9.5200004578 1.8600000143 1.5499999523
 5252.0000000 5252.0000000 10.109999657 1.6900000572 1.6399999857
 5253.0000000 5253.0000000 10.319999695 1.7500000000 1.7300000191
 5254.0000000 5254.0000000 10.489999771 1.8200000525 1.8200000525
 5255.0000000 5255.0000000 10.329999924 1.9400000572 1.8700000048
 5256.0000000 5256.0000000 10.210000038 2.0599999428 1.8899999857
 5257.0000000 5257.0000000 10.159999847 2.2200000286 1.9099999666
 5258.0000000 5258.0000000 10.109999657 2.3699998856 1.8600000143
 5259.0000000 5259.0000000 10.060000420 2.2100000381 1.8099999428
 5260.0000000 5260.0000000 10.020000458 2.0399999619 1.7699999809
 5261.0000000 5261.0000000 10.000000000 1.7899999619 1.7300000191
 5262.0000000 5262.0000000 9.9899997711 1.6799999475 1.6799999475
 5263.0000000 5263.0000000 9.9700002670 1.6000000238 1.6699999571
 5264.0000000 5264.0000000 9.9300003052 1.5700000525 1.6799999475
 5265.0000000 5265.0000000 9.8999996185 1.6000000238 1.6799999475
 5266.0000000 5266.0000000 9.8400001526 1.6299999952 1.7100000381
 5267.0000000 5267.0000000 9.7700004578 1.7200000286 1.7599999905
 5268.0000000 5268.0000000 9.7100000381 1.8200000525 1.8099999428
 5269.0000000 5269.0000000 9.7799997330 1.9199999571 1.8500000238
 5270.0000000 5270.0000000 9.8699998856 2.0299999714 1.8600000143
 5271.0000000 5271.0000000 9.9600000381 2.0799999237 1.8799999952
 5272.0000000 5272.0000000 10.050000191 1.9199999571 1.8400000334
 5273.0000000 5273.0000000 10.170000076 1.8099999428 1.7899999619
 5274.0000000 5274.0000000 10.279999733 1.7899999619 1.7400000095
 5275.0000000 5275.0000000 10.399999619 1.8099999428 1.6799999475
 5276.0000000 5276.0000000 10.409999847 1.8400000334 1.6299999952
 5277.0000000 5277.0000000 10.300000191 1.9099999666 1.5800000429
 5278.0000000 5278.0000000 10.189999580 1.9900000095 1.5299999714
 5279.0000000 5279.0000000 9.8599996567 2.0599999428 1.4900000095
 5280.0000000 5280.0000000 9.5200004578 2.1199998856 1.4400000572
 5281.0000000 5281.0000000 9.2299995422 2.1900000572 1.4800000191
 5282.0000000 5282.0000000 9.1099996567 2.2400000095 1.5599999428
 5283.0000000 5283.0000000 9.1199998856 2.2300000191 1.7799999714
 5284.0000000 5284.0000000 9.1199998856 2.2200000286 2.0199999809
 5285.0000000 5285.0000000 8.9600000381 2.2699999809 2.3599998951
 5286.0000000 5286.0000000 8.6999998093 2.3900001049 2.5699999332
 5287.0000000 5287.0000000 8.0600004196 2.5999999046 2.5599999428
 5288.0000000 5288.0000000 7.3899998665 2.8299999237 2.4500000477
 5289.0000000 5289.0000000 6.4600000381 3.1500000954 2.3199999332
 5290.0000000 5290.0000000 5.8699998856 3.8299999237 2.0899999142
 5291.0000000 5291.0000000 5.8200001717 4.1999998093 1.8999999762
 5292.0000000 5292.0000000 6.1900000572 3.7899999619 1.9500000477
 5293.0000000 5293.0000000 6.6500000954 3.3900001049 1.9800000191
 5294.0000000 5294.0000000 6.1300001144 3.1800000668 1.9099999666
 5295.0000000 5295.0000000 5.4699997902 3.2599999905 1.8500000238
 5296.0000000 5296.0000000 4.9499998093 3.3299999237 1.7699999809
 5297.0000000 5297.0000000 4.9899997711 3.1800000668 1.6900000572
 5298.0000000 5298.0000000 5.6500000954 2.8800001144 1.6299999952
 5299.0000000 5299.0000000 6.6500000954 2.5499999523 1.6900000572
 5300.0000000 5300.0000000 7.7199997902 2.3299999237 1.7400000095
 5301.0000000 5301.0000000 9.0399999619 2.2300000191 1.8600000143
 5302.0000000 5302.0000000 9.6000003815 2.2100000381 2.1199998856
 5303.0000000 5303.0000000 9.7700004578 2.2100000381 2.3299999237
 5304.0000000 5304.0000000 9.6199998856 2.2100000381 2.4400000572
 5305.0000000 5305.0000000 9.4799995422 2.2999999523 2.5399999619
 5306.0000000 5306.0000000 9.3299999237 2.4000000954 2.6300001144
 5307.0000000 5307.0000000 9.0500001907 2.4900000095 2.7000000477
 5308.0000000 5308.0000000 8.8400001526 2.5199999809 2.7699999809
 5309.0000000 5309.0000000 8.7899999619 2.5399999619 2.8399999142
 5310.0000000 5310.0000000 8.8100004196 2.5199999809 2.9200000763
 5311.0000000 5311.0000000 9.0799999237 2.4900000095 2.9900000095
 5312.0000000 5312.0000000 9.3500003815 2.4400000572 2.8599998951
 5313.0000000 5313.0000000 9.5900001526 2.3099999428 2.5799999237
 5314.0000000 5314.0000000 9.7299995422 2.1800000668 2.2000000477
 5315.0000000 5315.0000000 9.6300001144 2.0199999809 1.8799999952
 5316.0000000 5316.0000000 9.3599996567 1.7999999523 1.6900000572
 5317.0000000 5317.0000000 8.9600000381 1.5700000525 1.5399999619
