# LAS format log file from PETREL
# Project units are specified as depth units
#==================================================================
~Version information
VERS.   2.0:
WRAP.   NO:
#==================================================================
~Well
STRT .m      4561.0000000 :
STOP .m      7034.0000000 :
STEP .m     1.00000000 :
NULL .        -999.250000 :
COMP.           : COMPANY
WELL.  WELL_5   : WELL
FLD.            : FIELD
LOC.            : LOCATION
SRVC.           : SERVICE COMPANY
DATE.  2023-03-20 17:52:46   : Log Export Date {yyyy-MM-dd HH:mm:ss}
PROV.           : PROVINCE
UWI.   WELL_5   : UNIQUE WELL ID
API.            : API NUMBER
#==================================================================
~Curve
DEPT .m                   : DEPTH
Depth .m                  : Depth
SN .ohm.m                 : SN
ILD .ohm.m                : ILD
~Parameter
#==================================================================
~Ascii
# ...
 5920.0000000 5920.0000000 2.2699999809 1.7500000000
 5921.0000000 5921.0000000 2.0299999714 1.6100000143
 5922.0000000 5922.0000000 1.9199999571 1.5199999809
 5923.0000000 5923.0000000 1.9099999666 1.5000000000
 5924.0000000 5924.0000000 2.0199999809 1.5399999619
 5925.0000000 5925.0000000 2.0799999237 1.6200000048
 5926.0000000 5926.0000000 2.2300000191 1.7899999619
 5927.0000000 5927.0000000 2.5199999809 2.0799999237
 5928.0000000 5928.0000000 2.8499999046 2.4000000954
 5929.0000000 5929.0000000 3.0499999523 2.6600000858
 5930.0000000 5930.0000000 3.1199998856 2.7000000477
 5931.0000000 5931.0000000 3.1700000763 2.6600000858
 5932.0000000 5932.0000000 3.2999999523 2.7400000095
 5933.0000000 5933.0000000 3.5499999523 2.8800001144
 5934.0000000 5934.0000000 3.8599998951 3.0099999905
 5935.0000000 5935.0000000 3.8099999428 3.0699999332
 5936.0000000 5936.0000000 3.6300001144 2.9400000572
 5937.0000000 5937.0000000 3.2899999619 2.6199998856
 5938.0000000 5938.0000000 2.8399999142 2.2000000477
 5939.0000000 5939.0000000 2.4100000858 1.8400000334
 5940.0000000 5940.0000000 2.0899999142 1.6000000238
 5941.0000000 5941.0000000 1.8999999762 1.4500000477
 5942.0000000 5942.0000000 1.8500000238 1.3999999762
 5943.0000000 5943.0000000 1.8799999952 1.5099999905
 5944.0000000 5944.0000000 2.0199999809 1.7400000095
 5945.0000000 5945.0000000 2.2000000477 2.0199999809
 5946.0000000 5946.0000000 2.3900001049 2.2599999905
 5947.0000000 5947.0000000 2.5099999905 2.3099999428
 5948.0000000 5948.0000000 2.5599999428 2.0000000000
 5949.0000000 5949.0000000 2.2799999714 1.6599999666
 5950.0000000 5950.0000000 1.9099999666 1.4299999475
 5951.0000000 5951.0000000 1.7000000477 1.3099999428
 5952.0000000 5952.0000000 1.6499999762 1.2999999523
 5953.0000000 5953.0000000 1.7300000191 1.4500000477
 5954.0000000 5954.0000000 1.8799999952 1.6299999952
 5955.0000000 5955.0000000 2.0499999523 1.6799999475
 5956.0000000 5956.0000000 2.0299999714 1.6399999857
 5957.0000000 5957.0000000 1.8999999762 1.5299999714
 5958.0000000 5958.0000000 1.8300000429 1.4099999666
 5959.0000000 5959.0000000 1.8400000334 1.4600000381
 5960.0000000 5960.0000000 2.0000000000 1.6100000143
 5961.0000000 5961.0000000 2.3299999237 1.8300000429
 5962.0000000 5962.0000000 2.7200000286 2.2300000191
 5963.0000000 5963.0000000 3.0899999142 2.8599998951
 5964.0000000 5964.0000000 3.5799999237 3.1300001144
 5965.0000000 5965.0000000 3.9500000477 3.2200000286
 5966.0000000 5966.0000000 4.0300002098 3.1800000668
 5967.0000000 5967.0000000 3.7699999809 3.0099999905
 5968.0000000 5968.0000000 3.5999999046 2.7799999714
 5969.0000000 5969.0000000 3.5699999332 2.5499999523
 5970.0000000 5970.0000000 3.4400000572 2.4400000572
 5971.0000000 5971.0000000 3.2300000191 2.5000000000
 5972.0000000 5972.0000000 3.1500000954 2.6400001049
 5973.0000000 5973.0000000 3.3499999046 2.5599999428
 5974.0000000 5974.0000000 3.3800001144 2.3399999142
 5975.0000000 5975.0000000 2.7599999905 2.0799999237
 5976.0000000 5976.0000000 2.1300001144 1.7899999619
 5977.0000000 5977.0000000 1.7799999714 1.5399999619
 5978.0000000 5978.0000000 1.7000000477 1.3300000429
 5979.0000000 5979.0000000 1.6299999952 1.2200000286
 5980.0000000 5980.0000000 1.5199999809 1.1599999666
 5981.0000000 5981.0000000 1.5099999905 1.1599999666
 5982.0000000 5982.0000000 1.5499999523 1.1900000572
 5983.0000000 5983.0000000 1.6200000048 1.2999999523
 5984.0000000 5984.0000000 1.7100000381 1.4299999475
 5985.0000000 5985.0000000 1.8700000048 1.6299999952
 5986.0000000 5986.0000000 2.1800000668 1.9199999571
 5987.0000000 5987.0000000 2.5399999619 2.1700000763
 5988.0000000 5988.0000000 2.9600000381 2.3800001144
 5989.0000000 5989.0000000 3.2599999905 2.6600000858
 5990.0000000 5990.0000000 3.2899999619 2.8399999142
 5991.0000000 5991.0000000 3.4300000668 2.9200000763
 5992.0000000 5992.0000000 3.5999999046 2.9000000954
 5993.0000000 5993.0000000 3.7500000000 2.9700000286
 5994.0000000 5994.0000000 3.7100000381 3.1500000954
 5995.0000000 5995.0000000 3.6199998856 3.1400001049
 5996.0000000 5996.0000000 3.4900000095 2.7799999714
 5997.0000000 5997.0000000 3.1199998856 2.2999999523
 5998.0000000 5998.0000000 2.5199999809 1.8099999428
 5999.0000000 5999.0000000 2.1199998856 1.6299999952
 6000.0000000 6000.0000000 1.9600000381 1.5700000525
 6001.0000000 6001.0000000 2.0199999809 1.6100000143
 6002.0000000 6002.0000000 2.0899999142 1.6900000572
 6003.0000000 6003.0000000 2.0599999428 1.7100000381
 6004.0000000 6004.0000000 2.0299999714 1.6599999666
 6005.0000000 6005.0000000 2.0699999332 1.6399999857
 6006.0000000 6006.0000000 2.1500000954 1.7000000477
 6007.0000000 6007.0000000 2.2100000381 1.8300000429
 6008.0000000 6008.0000000 2.3699998856 1.9700000286
 6009.0000000 6009.0000000 2.6700000763 2.1300001144
 6010.0000000 6010.0000000 2.9300000668 2.4300000668
 6011.0000000 6011.0000000 3.0599999428 2.6900000572
 6012.0000000 6012.0000000 3.1300001144 2.8199999332
 6013.0000000 6013.0000000 3.1099998951 2.8099999428
 6014.0000000 6014.0000000 2.9500000477 2.5599999428
 6015.0000000 6015.0000000 2.6800000668 1.9700000286
 6016.0000000 6016.0000000 2.3399999142 1.7200000286
 6017.0000000 6017.0000000 2.0299999714 1.5700000525
 6018.0000000 6018.0000000 1.9199999571 1.5199999809
 6019.0000000 6019.0000000 1.9500000477 1.6200000048
 6020.0000000 6020.0000000 2.0499999523 1.8799999952
 6021.0000000 6021.0000000 2.2799999714 2.0599999428
 6022.0000000 6022.0000000 2.3800001144 2.0499999523
 6023.0000000 6023.0000000 2.3699998856 1.8799999952
 6024.0000000 6024.0000000 2.0699999332 1.6699999571
 6025.0000000 6025.0000000 1.7999999523 1.5000000000
 6026.0000000 6026.0000000 1.6799999475 1.3600000143
 6027.0000000 6027.0000000 1.6299999952 1.2699999809
 6028.0000000 6028.0000000 1.6000000238 1.2200000286
 6029.0000000 6029.0000000 1.5800000429 1.2699999809
 6030.0000000 6030.0000000 1.6000000238 1.3799999952
 6031.0000000 6031.0000000 1.6599999666 1.5000000000
 6032.0000000 6032.0000000 1.7599999905 1.5700000525
 6033.0000000 6033.0000000 1.8200000525 1.6000000238
 6034.0000000 6034.0000000 1.8600000143 1.6499999762
 6035.0000000 6035.0000000 1.9600000381 1.7100000381
 6036.0000000 6036.0000000 2.1500000954 1.8400000334
 6037.0000000 6037.0000000 2.3499999046 2.0000000000
 6038.0000000 6038.0000000 2.4400000572 2.0899999142
 6039.0000000 6039.0000000 2.4200000763 2.0799999237
 6040.0000000 6040.0000000 2.3699998856 2.0099999905
 6041.0000000 6041.0000000 2.3699998856 1.9600000381
 6042.0000000 6042.0000000 2.3699998856 1.8899999857
 6043.0000000 6043.0000000 2.3099999428 1.7300000191
 6044.0000000 6044.0000000 2.0399999619 1.6200000048
 6045.0000000 6045.0000000 1.9600000381 1.4900000095
 6046.0000000 6046.0000000 1.9700000286 1.4700000286
 6047.0000000 6047.0000000 2.0199999809 1.5900000334
 6048.0000000 6048.0000000 2.1300001144 1.6900000572
 6049.0000000 6049.0000000 2.2799999714 1.7899999619
 6050.0000000 6050.0000000 2.3399999142 1.8600000143
 6051.0000000 6051.0000000 2.4200000763 1.9400000572
 6052.0000000 6052.0000000 2.6099998951 2.1300001144
 6053.0000000 6053.0000000 2.9300000668 2.5099999905
 6054.0000000 6054.0000000 3.4300000668 3.1700000763
 6055.0000000 6055.0000000 4.1700000763 3.8399999142
 6056.0000000 6056.0000000 4.7500000000 3.9800000191
 6057.0000000 6057.0000000 4.4899997711 2.8099999428
 6058.0000000 6058.0000000 2.6300001144 1.9099999666
 6059.0000000 6059.0000000 1.8300000429 1.3999999762
 6060.0000000 6060.0000000 1.5800000429 1.1499999762
 6061.0000000 6061.0000000 1.4800000191 1.0800000429
 6062.0000000 6062.0000000 1.4600000381 1.0900000334
 6063.0000000 6063.0000000 1.4700000286 1.1599999666
 6064.0000000 6064.0000000 1.5000000000 1.2500000000
 6065.0000000 6065.0000000 1.5399999619 1.3300000429
 6066.0000000 6066.0000000 1.6000000238 1.4099999666
 6067.0000000 6067.0000000 1.6900000572 1.4199999571
 6068.0000000 6068.0000000 1.7599999905 1.4099999666
 6069.0000000 6069.0000000 1.7699999809 1.4299999475
 6070.0000000 6070.0000000 1.8600000143 1.6000000238
