# LAS format log file from PETREL
# Project units are specified as depth units
#==================================================================
~Version information
VERS.   2.0:
WRAP.   NO:
#==================================================================
~Well
STRT .m      4450.0000000 :
STOP .m      7050.0000000 :
STEP .m     1.00000000 :
NULL .        -999.250000 :
COMP.           : COMPANY
WELL.  WELL_4   : WELL
FLD.            : FIELD
LOC.            : LOCATION
SRVC.           : SERVICE COMPANY
DATE.  2023-03-20 17:52:46   : Log Export Date {yyyy-MM-dd HH:mm:ss}
PROV.           : PROVINCE
UWI.   WELL_4   : UNIQUE WELL ID
API.            : API NUMBER
#==================================================================
~Curve
DEPT .m                   : DEPTH
Depth .m                  : Depth
SP .mV                    : SP
SN .ohm.m                 : SN
LN .ohm.m                 : LN
LAT .ohm.m                : LAT
~Parameter
#==================================================================
~Ascii
# ...
 4960.0000000 4960.0000000 -6.389999866 1.2300000191 1.2300000191 1.3400000334
 4961.0000000 4961.0000000 -6.500000000 1.1599999666 1.2000000477 1.4199999571
 4962.0000000 4962.0000000 -6.420000076 1.1200000048 1.2300000191 1.4700000286
 4963.0000000 4963.0000000 -6.130000114 1.1299999952 1.3400000334 1.4099999666
 4964.0000000 4964.0000000 -5.809999943 1.2200000286 1.4800000191 1.2599999905
 4965.0000000 4965.0000000 -5.710000038 1.3500000238 1.5900000334 1.1499999762
 4966.0000000 4966.0000000 -6.019999981 1.4700000286 1.6799999475 1.1200000048
 4967.0000000 4967.0000000 -6.030000210 1.6299999952 1.7300000191 1.1299999952
 4968.0000000 4968.0000000 -6.090000153 1.8500000238 1.7100000381 1.1499999762
 4969.0000000 4969.0000000 -7.010000229 2.0099999905 1.6200000048 1.2100000381
 4970.0000000 4970.0000000 -8.260000229 2.0699999332 1.5399999619 1.3799999952
 4971.0000000 4971.0000000 -8.659999847 1.9099999666 1.5000000000 1.4800000191
 4972.0000000 4972.0000000 -8.079999924 1.7100000381 1.5700000525 1.4500000477
 4973.0000000 4973.0000000 -7.650000095 1.5299999714 1.6299999952 1.2999999523
 4974.0000000 4974.0000000 -8.770000458 1.4700000286 1.6699999571 1.1200000048
 4975.0000000 4975.0000000 -10.81000042 1.5000000000 1.6399999857 1.0299999714
 4976.0000000 4976.0000000 -12.14999962 1.5700000525 1.6399999857 1.1200000048
 4977.0000000 4977.0000000 -11.92000008 1.6699999571 1.6399999857 1.2000000477
 4978.0000000 4978.0000000 -11.22999954 1.7599999905 1.6900000572 1.2000000477
 4979.0000000 4979.0000000 -9.739999771 1.7300000191 1.7400000095 1.2699999809
 4980.0000000 4980.0000000 -8.239999771 1.7699999809 1.6699999571 1.3999999762
 4981.0000000 4981.0000000 -6.960000038 1.8099999428 1.5900000334 1.5199999809
 4982.0000000 4982.0000000 -6.239999771 1.7699999809 1.5199999809 1.6200000048
 4983.0000000 4983.0000000 -5.800000191 1.6799999475 1.4800000191 1.7100000381
 4984.0000000 4984.0000000 -5.059999943 1.5299999714 1.4600000381 1.6799999475
 4985.0000000 4985.0000000 -4.090000153 1.3400000334 1.4500000477 1.5399999619
 4986.0000000 4986.0000000 -3.890000105 1.2100000381 1.4600000381 1.3400000334
 4987.0000000 4987.0000000 -4.079999924 1.1000000238 1.4400000572 1.1799999475
 4988.0000000 4988.0000000 -4.130000114 1.1100000143 1.3700000048 1.1599999666
 4989.0000000 4989.0000000 -4.030000210 1.0700000525 1.3099999428 1.1599999666
 4990.0000000 4990.0000000 -3.839999914 1.0099999905 1.3200000525 1.1599999666
 4991.0000000 4991.0000000 -3.630000114 1.0000000000 1.3400000334 1.1499999762
 4992.0000000 4992.0000000 -3.390000105 1.0299999714 1.3700000048 1.1399999857
 4993.0000000 4993.0000000 -3.769999981 1.1599999666 1.3899999857 1.1200000048
 4994.0000000 4994.0000000 -4.619999886 1.3500000238 1.4500000477 1.1299999952
 4995.0000000 4995.0000000 -4.969999790 1.5099999905 1.5299999714 1.2100000381
 4996.0000000 4996.0000000 -4.829999924 1.6399999857 1.6100000143 1.3400000334
 4997.0000000 4997.0000000 -4.719999790 1.7599999905 1.6900000572 1.4299999475
 4998.0000000 4998.0000000 -4.639999866 1.7999999523 1.7699999809 1.4299999475
 4999.0000000 4999.0000000 -4.869999886 1.7999999523 1.8300000429 1.4500000477
 5000.0000000 5000.0000000 -5.170000076 1.7599999905 1.8999999762 1.5299999714
 5001.0000000 5001.0000000 -5.079999924 1.7400000095 2.0199999809 1.5399999619
 5002.0000000 5002.0000000 -5.010000229 1.7699999809 2.1300001144 1.4199999571
 5003.0000000 5003.0000000 -5.489999771 1.9500000477 2.1500000954 1.3700000048
 5004.0000000 5004.0000000 -6.300000191 2.2200000286 2.1600000858 1.4500000477
 5005.0000000 5005.0000000 -7.110000134 2.4000000954 2.1400001049 1.5499999523
 5006.0000000 5006.0000000 -8.510000229 2.5099999905 2.1300001144 1.6100000143
 5007.0000000 5007.0000000 -9.609999657 2.5399999619 2.1099998951 1.6000000238
 5008.0000000 5008.0000000 -9.989999771 2.4600000381 2.0799999237 1.5800000429
 5009.0000000 5009.0000000 -9.840000153 2.3199999332 2.0799999237 1.5700000525
 5010.0000000 5010.0000000 -8.920000076 2.1199998856 2.0799999237 1.5499999523
 5011.0000000 5011.0000000 -7.230000019 1.9800000191 2.0899999142 1.5199999809
 5012.0000000 5012.0000000 -6.630000114 1.9800000191 2.0799999237 1.5000000000
 5013.0000000 5013.0000000 -6.940000057 1.9800000191 2.0000000000 1.5199999809
 5014.0000000 5014.0000000 -7.349999905 2.0299999714 1.9099999666 1.6599999666
 5015.0000000 5015.0000000 -7.400000095 2.0000000000 1.9099999666 1.8099999428
 5016.0000000 5016.0000000 -6.860000134 1.8600000143 1.9500000477 1.8700000048
 5017.0000000 5017.0000000 -5.929999828 1.7500000000 2.0599999428 1.7799999714
 5018.0000000 5018.0000000 -5.460000038 1.7400000095 2.1099998951 1.5800000429
 5019.0000000 5019.0000000 -5.739999771 1.8099999428 2.0599999428 1.5199999809
 5020.0000000 5020.0000000 -6.090000153 1.8600000143 1.9400000572 1.6299999952
 5021.0000000 5021.0000000 -6.269999981 1.8400000334 1.8200000525 1.8300000429
 5022.0000000 5022.0000000 -6.179999828 1.7799999714 1.7400000095 1.9900000095
 5023.0000000 5023.0000000 -6.019999981 1.6499999762 1.7500000000 2.0399999619
 5024.0000000 5024.0000000 -5.820000172 1.5299999714 1.7899999619 1.9800000191
 5025.0000000 5025.0000000 -5.639999866 1.4299999475 1.8300000429 1.8799999952
 5026.0000000 5026.0000000 -5.699999809 1.3899999857 1.8600000143 1.7100000381
 5027.0000000 5027.0000000 -6.130000114 1.3999999762 1.9099999666 1.6100000143
 5028.0000000 5028.0000000 -6.760000229 1.5000000000 1.9600000381 1.5399999619
 5029.0000000 5029.0000000 -7.250000000 1.6799999475 2.0099999905 1.5399999619
 5030.0000000 5030.0000000 -7.440000057 2.0099999905 2.0499999523 1.5800000429
 5031.0000000 5031.0000000 -7.349999905 2.2599999905 2.0299999714 1.7100000381
 5032.0000000 5032.0000000 -7.219999790 2.4400000572 1.9299999475 2.0099999905
 5033.0000000 5033.0000000 -7.320000172 2.5399999619 1.7699999809 2.3399999142
 5034.0000000 5034.0000000 -6.980000019 2.2500000000 1.7300000191 2.5599999428
 5035.0000000 5035.0000000 -5.920000076 1.9199999571 1.7599999905 2.5499999523
 5036.0000000 5036.0000000 -5.150000095 1.5900000334 1.7899999619 2.2400000095
 5037.0000000 5037.0000000 -4.789999962 1.4199999571 1.7500000000 1.7899999619
 5038.0000000 5038.0000000 -4.630000114 1.3700000048 1.6000000238 1.6499999762
 5039.0000000 5039.0000000 -4.599999905 1.4600000381 1.4199999571 1.7000000477
 5040.0000000 5040.0000000 -4.769999981 1.5499999523 1.3500000238 1.8999999762
 5041.0000000 5041.0000000 -4.929999828 1.4800000191 1.3300000429 2.0799999237
 5042.0000000 5042.0000000 -4.510000229 1.3700000048 1.3600000143 1.9900000095
 5043.0000000 5043.0000000 -4.780000210 1.2699999809 1.4199999571 1.8099999428
 5044.0000000 5044.0000000 -5.650000095 1.1900000572 1.4500000477 1.6699999571
 5045.0000000 5045.0000000 -6.539999962 1.2300000191 1.4400000572 1.5599999428
 5046.0000000 5046.0000000 -7.320000172 1.2799999714 1.4500000477 1.3400000334
 5047.0000000 5047.0000000 -7.420000076 1.2799999714 1.5099999905 1.2000000477
 5048.0000000 5048.0000000 -6.960000038 1.2699999809 1.5499999523 1.1799999475
 5049.0000000 5049.0000000 -6.079999924 1.2999999523 1.5299999714 1.1299999952
 5050.0000000 5050.0000000 -5.760000229 1.3700000048 1.4800000191 1.1000000238
 5051.0000000 5051.0000000 -6.530000210 1.4099999666 1.4400000572 1.1699999571
 5052.0000000 5052.0000000 -7.309999943 1.4400000572 1.4099999666 1.2999999523
 5053.0000000 5053.0000000 -7.530000210 1.4500000477 1.3799999952 1.3500000238
 5054.0000000 5054.0000000 -7.510000229 1.4099999666 1.3899999857 1.3099999428
 5055.0000000 5055.0000000 -7.500000000 1.3600000143 1.4299999475 1.2300000191
 5056.0000000 5056.0000000 -7.480000019 1.2899999619 1.4500000477 1.1299999952
 5057.0000000 5057.0000000 -7.199999809 1.2300000191 1.4400000572 1.0499999523
 5058.0000000 5058.0000000 -6.710000038 1.2000000477 1.4500000477 1.0299999714
 5059.0000000 5059.0000000 -6.309999943 1.1799999475 1.4900000095 1.0099999905
 5060.0000000 5060.0000000 -6.380000114 1.2200000286 1.5599999428 0.9900000095
 5061.0000000 5061.0000000 -7.869999886 1.3700000048 1.6499999762 1.0399999619
