# LAS format log file from PETREL
# Project units are specified as depth units
#==================================================================
~Version information
VERS.   2.0:
WRAP.   NO:
#==================================================================
~Well
STRT .m      4650.0000000 :
STOP .m      7300.0000000 :
STEP .m     1.00000000 :
NULL .        -999.250000 :
COMP.           : COMPANY
WELL.  WELL_6   : WELL
FLD.            : FIELD
LOC.            : LOCATION
SRVC.           : SERVICE COMPANY
DATE.  2023-03-20 17:52:46   : Log Export Date {yyyy-MM-dd HH:mm:ss}
PROV.           : PROVINCE
UWI.   WELL_6   : UNIQUE WELL ID
API.            : API NUMBER
#==================================================================
~Curve
DEPT .m                   : DEPTH
Depth .m                  : Depth
GR .gAPI                  : GR
SP .mV                    : SP
RT .ohm.m                 : RT
~Parameter
#==================================================================
~Ascii
# ...
 7090.0000000 7090.0000000 100.91999817 -2.880000114 1.6100000143
 7091.0000000 7091.0000000 102.86000061 -3.450000048 1.6900000572
 7092.0000000 7092.0000000 104.33999634 -3.640000105 1.8899999857
 7093.0000000 7093.0000000 104.93000031 -3.509999990 1.6900000572
 7094.0000000 7094.0000000 109.48999786 -3.180000067 1.7400000095
 7095.0000000 7095.0000000 105.34999847 -2.650000095 1.6900000572
 7096.0000000 7096.0000000 101.52999878 -1.909999967 2.0299999714
 7097.0000000 7097.0000000 99.069999695 -1.389999986 1.5800000429
 7098.0000000 7098.0000000 96.389999390 -1.710000038 1.3799999952
 7099.0000000 7099.0000000 95.500000000 -2.430000067 1.3099999428
 7100.0000000 7100.0000000 100.22000122 -1.980000019 1.2799999714
 7101.0000000 7101.0000000 104.01999664 -2.259999990 1.3700000048
 7102.0000000 7102.0000000 100.52999878 -2.970000029 1.3799999952
 7103.0000000 7103.0000000 94.870002747 -3.150000095 1.2400000095
 7104.0000000 7104.0000000 97.790000916 -3.119999886 1.1299999952
 7105.0000000 7105.0000000 110.87999725 -2.950000048 1.0700000525
 7106.0000000 7106.0000000 126.94999695 -2.680000067 1.0099999905
 7107.0000000 7107.0000000 126.87000275 -2.109999895 1.0000000000
 7108.0000000 7108.0000000 118.30000305 -1.389999986 1.0099999905
 7109.0000000 7109.0000000 117.09999847 -1.360000014 0.9399999976
 7110.0000000 7110.0000000 116.65000153 -1.549999952 0.8999999762
 7111.0000000 7111.0000000 118.69000244 -1.529999971 0.8399999738
 7112.0000000 7112.0000000 117.58999634 -1.789999962 0.8299999833
 7113.0000000 7113.0000000 108.94999695 -2.349999905 0.8600000143
 7114.0000000 7114.0000000 102.59999847 -2.559999943 0.9700000286
 7115.0000000 7115.0000000 95.300003052 -2.490000010 1.1000000238
 7116.0000000 7116.0000000 93.160003662 -2.210000038 1.2100000381
 7117.0000000 7117.0000000 91.290000916 -1.919999957 1.3099999428
 7118.0000000 7118.0000000 93.970001221 -1.659999967 1.3500000238
 7119.0000000 7119.0000000 94.430000305 -1.360000014 1.3099999428
 7120.0000000 7120.0000000 103.93000031 -1.370000005 1.2300000191
 7121.0000000 7121.0000000 111.44999695 -1.460000038 1.1799999475
 7122.0000000 7122.0000000 112.12000275 -1.389999986 1.2200000286
 7123.0000000 7123.0000000 115.94999695 -2.029999971 1.3899999857
 7124.0000000 7124.0000000 114.29000092 -2.900000095 1.7500000000
 7125.0000000 7125.0000000 112.06999969 -3.380000114 2.4000000954
 7126.0000000 7126.0000000 122.88999939 -3.170000076 2.6099998951
 7127.0000000 7127.0000000 140.49000549 -2.819999933 1.9299999475
 7128.0000000 7128.0000000 134.33000183 -3.190000057 1.9299999475
 7129.0000000 7129.0000000 113.62999725 -4.190000057 2.0199999809
 7130.0000000 7130.0000000 95.699996948 -5.349999905 2.6500000954
 7131.0000000 7131.0000000 86.019996643 -7.130000114 4.2100000381
 7132.0000000 7132.0000000 90.580001831 -9.520000458 3.8699998856
 7133.0000000 7133.0000000 93.220001221 -11.80000019 3.8599998951
 7134.0000000 7134.0000000 95.980003357 -12.76000023 3.5499999523
 7135.0000000 7135.0000000 91.029998779 -12.96000004 3.1900000572
 7136.0000000 7136.0000000 96.809997559 -12.68000031 3.1199998856
 7137.0000000 7137.0000000 87.099998474 -11.98999977 3.2899999619
 7138.0000000 7138.0000000 84.180000305 -10.89999962 3.3699998856
 7139.0000000 7139.0000000 102.22000122 -8.359999657 3.5999999046
 7140.0000000 7140.0000000 114.13999939 -5.010000229 2.5599999428
 7141.0000000 7141.0000000 105.54000092 -3.960000038 1.3700000048
 7142.0000000 7142.0000000 100.00000000 -3.470000029 1.1100000143
 7143.0000000 7143.0000000 103.84999847 -3.069999933 1.0700000525
 7144.0000000 7144.0000000 104.29000092 -2.839999914 1.0900000334
 7145.0000000 7145.0000000 112.44999695 -2.970000029 1.3799999952
 7146.0000000 7146.0000000 117.93000031 -3.640000105 1.2599999905
 7147.0000000 7147.0000000 114.97000122 -4.230000019 1.2500000000
 7148.0000000 7148.0000000 108.69999695 -4.130000114 1.2400000095
 7149.0000000 7149.0000000 111.00000000 -3.769999981 1.2699999809
 7150.0000000 7150.0000000 115.84999847 -4.539999962 1.1000000238
 7151.0000000 7151.0000000 119.33999634 -4.590000153 0.8500000238
 7152.0000000 7152.0000000 120.38999939 -3.779999971 0.6999999881
 7153.0000000 7153.0000000 110.80000305 -3.700000048 0.6700000167
 7154.0000000 7154.0000000 108.22000122 -3.950000048 0.6499999762
 7155.0000000 7155.0000000 138.42999268 -4.519999981 0.9100000262
 7156.0000000 7156.0000000 169.19000244 -5.119999886 0.8199999928
 7157.0000000 7157.0000000 176.38999939 -5.389999866 0.6299999952
 7158.0000000 7158.0000000 182.50000000 -5.489999771 0.6299999952
 7159.0000000 7159.0000000 193.25000000 -5.539999962 0.7500000000
 7160.0000000 7160.0000000 201.96000671 -5.480000019 1.2400000095
 7161.0000000 7161.0000000 190.30000305 -5.190000057 2.0999999046
 7162.0000000 7162.0000000 151.91999817 -4.809999943 3.9700000286
 7163.0000000 7163.0000000 137.58000183 -4.429999828 5.9499998093
 7164.0000000 7164.0000000 137.07000732 -3.779999971 7.3400001526
 7165.0000000 7165.0000000 126.98000336 -3.490000010 4.2500000000
 7166.0000000 7166.0000000 122.66999817 -3.349999905 2.0299999714
 7167.0000000 7167.0000000 109.12000275 -3.309999943 1.1000000238
 7168.0000000 7168.0000000 100.80000305 -4.050000191 1.0000000000
 7169.0000000 7169.0000000 99.419998169 -4.420000076 1.7500000000
 7170.0000000 7170.0000000 103.37999725 -4.820000172 1.7999999523
 7171.0000000 7171.0000000 105.69000244 -4.730000019 1.5000000000
 7172.0000000 7172.0000000 106.45999908 -3.700000048 1.2599999905
 7173.0000000 7173.0000000 109.30999756 -2.509999990 1.1699999571
 7174.0000000 7174.0000000 108.77999878 -1.789999962 1.1100000143
 7175.0000000 7175.0000000 113.30999756 -1.820000052 1.0900000334
 7176.0000000 7176.0000000 104.38999939 -2.319999933 1.1100000143
 7177.0000000 7177.0000000 100.37999725 -2.769999981 1.1200000048
 7178.0000000 7178.0000000 121.94000244 -3.470000029 1.1100000143
 7179.0000000 7179.0000000 132.36000061 -3.690000057 1.1000000238
 7180.0000000 7180.0000000 128.75000000 -3.890000105 1.1599999666
 7181.0000000 7181.0000000 137.30000305 -4.139999866 1.3700000048
 7182.0000000 7182.0000000 133.08000183 -4.099999905 1.5599999428
 7183.0000000 7183.0000000 118.76000214 -3.769999981 1.2300000191
 7184.0000000 7184.0000000 116.43000031 -3.250000000 1.0900000334
 7185.0000000 7185.0000000 108.23000336 -2.589999914 1.0299999714
 7186.0000000 7186.0000000 103.30000305 -2.170000076 1.0499999523
 7187.0000000 7187.0000000 107.69999695 -2.200000048 1.2000000477
 7188.0000000 7188.0000000 111.44999695 -2.450000048 1.7200000286
 7189.0000000 7189.0000000 111.65000153 -2.720000029 1.5299999714
 7190.0000000 7190.0000000 106.59999847 -3.079999924 1.2599999905
 7191.0000000 7191.0000000 103.94999695 -3.720000029 1.1200000048
 7192.0000000 7192.0000000 98.440002441 -4.710000038 1.0700000525
 7193.0000000 7193.0000000 97.680000305 -4.860000134 0.9499999881
 7194.0000000 7194.0000000 98.879997253 -4.590000153 0.9200000167
 7195.0000000 7195.0000000 88.980003357 -4.360000134 1.0199999809
 7196.0000000 7196.0000000 84.220001221 -4.190000057 1.3700000048
 7197.0000000 7197.0000000 81.849998474 -5.710000038 2.0299999714
 7198.0000000 7198.0000000 85.910003662 -7.139999866 4.3699998856
 7199.0000000 7199.0000000 84.569999695 -6.699999809 4.1599998474
 7200.0000000 7200.0000000 89.379997253 -6.960000038 4.7600002289
 7201.0000000 7201.0000000 84.879997253 -7.920000076 5.7100000381
 7202.0000000 7202.0000000 107.37999725 -7.500000000 6.9400000572
 7203.0000000 7203.0000000 126.98000336 -5.539999962 4.4099998474
 7204.0000000 7204.0000000 147.25999451 -3.450000048 1.7500000000
 7205.0000000 7205.0000000 145.27999878 -2.279999971 1.3799999952
 7206.0000000 7206.0000000 130.17999268 -2.380000114 1.4500000477
 7207.0000000 7207.0000000 122.33000183 -2.160000086 1.4400000572
 7208.0000000 7208.0000000 123.52999878 -1.210000038 1.6399999857
 7209.0000000 7209.0000000 115.83000183 -0.550000012 1.7599999905
 7210.0000000 7210.0000000 107.65000153 -1.509999990 1.4299999475
 7211.0000000 7211.0000000 102.73000336 -2.289999962 1.2599999905
