# LAS format log file from PETREL
# Project units are specified as depth units
#==================================================================
~Version information
VERS.   2.0:
WRAP.   NO:
#==================================================================
~Well
STRT .m      4450.0000000 :
STOP .m      7050.0000000 :
STEP .m     1.00000000 :
NULL .        -999.250000 :
COMP.           : COMPANY
WELL.  WELL_4   : WELL
FLD.            : FIELD
LOC.            : LOCATION
SRVC.           : SERVICE COMPANY
DATE.  2023-03-20 17:52:46   : Log Export Date {yyyy-MM-dd HH:mm:ss}
PROV.           : PROVINCE
UWI.   WELL_4   : UNIQUE WELL ID
API.            : API NUMBER
#==================================================================
~Curve
DEPT .m                   : DEPTH
Depth .m                  : Depth
SP .mV                    : SP
SN .ohm.m                 : SN
LN .ohm.m                 : LN
LAT .ohm.m                : LAT
~Parameter
#==================================================================
~Ascii
# ...
 5164.0000000 5164.0000000 -9.489999771 1.8500000238 1.6100000143 1.4099999666
 5165.0000000 5165.0000000 -9.239999771 1.8200000525 1.6200000048 1.4700000286
 5166.0000000 5166.0000000 -8.970000267 1.7300000191 1.6200000048 1.4900000095
 5167.0000000 5167.0000000 -8.699999809 1.6799999475 1.6200000048 1.5000000000
 5168.0000000 5168.0000000 -8.550000191 1.6499999762 1.6299999952 1.4700000286
 5169.0000000 5169.0000000 -8.520000458 1.6399999857 1.6299999952 1.4500000477
 5170.0000000 5170.0000000 -8.600000381 1.6599999666 1.6499999762 1.3999999762
 5171.0000000 5171.0000000 -8.840000153 1.7000000477 1.6599999666 1.3400000334
 5172.0000000 5172.0000000 -8.979999542 1.7500000000 1.6900000572 1.2899999619
 5173.0000000 5173.0000000 -8.960000038 1.7799999714 1.7200000286 1.2699999809
 5174.0000000 5174.0000000 -8.850000381 1.8400000334 1.7400000095 1.2899999619
 5175.0000000 5175.0000000 -8.970000267 1.9500000477 1.7500000000 1.3799999952
 5176.0000000 5176.0000000 -9.210000038 2.0599999428 1.7599999905 1.4500000477
 5177.0000000 5177.0000000 -9.399999619 2.1300001144 1.7699999809 1.5199999809
 5178.0000000 5178.0000000 -9.439999580 2.1700000763 1.7699999809 1.5800000429
 5179.0000000 5179.0000000 -9.449999809 2.1900000572 1.7799999714 1.6299999952
 5180.0000000 5180.0000000 -9.350000381 2.1300001144 1.7799999714 1.6599999666
 5181.0000000 5181.0000000 -9.140000343 2.0399999619 1.7899999619 1.6799999475
 5182.0000000 5182.0000000 -8.949999809 1.9400000572 1.8099999428 1.6799999475
 5183.0000000 5183.0000000 -8.810000420 1.8999999762 1.8300000429 1.6100000143
 5184.0000000 5184.0000000 -8.789999962 1.8700000048 1.8400000334 1.5299999714
 5185.0000000 5185.0000000 -8.890000343 1.8700000048 1.8099999428 1.4900000095
 5186.0000000 5186.0000000 -8.979999542 1.9299999475 1.7300000191 1.4800000191
 5187.0000000 5187.0000000 -9.060000420 2.0099999905 1.6499999762 1.5700000525
 5188.0000000 5188.0000000 -8.789999962 2.0599999428 1.5700000525 1.7000000477
 5189.0000000 5189.0000000 -8.369999886 2.0000000000 1.5299999714 1.7799999714
 5190.0000000 5190.0000000 -7.360000134 1.7500000000 1.5900000334 1.7999999523
 5191.0000000 5191.0000000 -6.039999962 1.5299999714 1.7300000191 1.6000000238
 5192.0000000 5192.0000000 -5.340000153 1.4199999571 1.8300000429 1.2599999905
 5193.0000000 5193.0000000 -5.300000191 1.3999999762 1.7999999523 1.1399999857
 5194.0000000 5194.0000000 -5.579999924 1.4199999571 1.7599999905 1.1100000143
 5195.0000000 5195.0000000 -6.090000153 1.4500000477 1.7400000095 1.1499999762
 5196.0000000 5196.0000000 -7.199999809 1.5499999523 1.7200000286 1.2500000000
 5197.0000000 5197.0000000 -8.140000343 1.7100000381 1.7100000381 1.3500000238
 5198.0000000 5198.0000000 -8.569999695 1.8700000048 1.7599999905 1.4199999571
 5199.0000000 5199.0000000 -8.960000038 1.9900000095 1.8400000334 1.5000000000
 5200.0000000 5200.0000000 -9.369999886 2.0799999237 1.9199999571 1.6200000048
 5201.0000000 5201.0000000 -9.729999542 2.1900000572 1.9800000191 1.6699999571
 5202.0000000 5202.0000000 -9.989999771 2.2999999523 2.0099999905 1.6799999475
 5203.0000000 5203.0000000 -10.07999992 2.3699998856 2.0099999905 1.7100000381
 5204.0000000 5204.0000000 -9.930000305 2.3900001049 1.9400000572 1.7699999809
 5205.0000000 5205.0000000 -9.510000229 2.3599998951 1.8300000429 1.8799999952
 5206.0000000 5206.0000000 -9.020000458 2.2899999619 1.7699999809 2.0299999714
 5207.0000000 5207.0000000 -8.420000076 2.1199998856 1.7599999905 2.1500000954
 5208.0000000 5208.0000000 -7.960000038 1.8899999857 1.7999999523 2.1300001144
 5209.0000000 5209.0000000 -7.829999924 1.7599999905 1.8500000238 1.9600000381
 5210.0000000 5210.0000000 -8.210000038 1.6699999571 1.8899999857 1.6799999475
 5211.0000000 5211.0000000 -8.810000420 1.6399999857 1.9199999571 1.4700000286
 5212.0000000 5212.0000000 -8.770000458 1.6399999857 1.9400000572 1.3300000429
 5213.0000000 5213.0000000 -8.729999542 1.7000000477 1.9299999475 1.2400000095
 5214.0000000 5214.0000000 -8.819999695 1.8300000429 1.9099999666 1.2100000381
 5215.0000000 5215.0000000 -8.960000038 1.9600000381 1.9099999666 1.2899999619
 5216.0000000 5216.0000000 -9.180000305 2.0899999142 1.9800000191 1.3999999762
 5217.0000000 5217.0000000 -9.189999580 2.1800000668 2.0499999523 1.5000000000
 5218.0000000 5218.0000000 -9.220000267 2.2500000000 2.1400001049 1.5499999523
 5219.0000000 5219.0000000 -9.350000381 2.2899999619 2.2100000381 1.6200000048
 5220.0000000 5220.0000000 -9.609999657 2.3299999237 2.2200000286 1.7100000381
 5221.0000000 5221.0000000 -9.840000153 2.3800001144 2.1900000572 1.7999999523
 5222.0000000 5222.0000000 -9.989999771 2.4400000572 2.1300001144 1.9199999571
 5223.0000000 5223.0000000 -9.819999695 2.4100000858 2.0699999332 2.0399999619
 5224.0000000 5224.0000000 -9.229999542 2.2899999619 2.0299999714 2.0999999046
 5225.0000000 5225.0000000 -8.029999733 2.0599999428 2.0199999809 2.0899999142
 5226.0000000 5226.0000000 -6.989999771 1.8500000238 2.0099999905 1.9900000095
 5227.0000000 5227.0000000 -6.320000172 1.7300000191 1.9900000095 1.8799999952
 5228.0000000 5228.0000000 -6.570000172 1.7000000477 1.9700000286 1.8400000334
 5229.0000000 5229.0000000 -7.199999809 1.7599999905 1.9199999571 1.7799999714
 5230.0000000 5230.0000000 -7.679999828 1.8200000525 1.8700000048 1.7000000477
 5231.0000000 5231.0000000 -8.029999733 1.8799999952 1.8300000429 1.6599999666
 5232.0000000 5232.0000000 -8.189999580 1.9400000572 1.7799999714 1.6900000572
 5233.0000000 5233.0000000 -8.229999542 1.9700000286 1.7400000095 1.8099999428
 5234.0000000 5234.0000000 -8.229999542 1.9500000477 1.6900000572 1.8600000143
 5235.0000000 5235.0000000 -8.189999580 1.8400000334 1.6699999571 1.8500000238
 5236.0000000 5236.0000000 -8.069999695 1.7200000286 1.6799999475 1.7999999523
 5237.0000000 5237.0000000 -7.860000134 1.6399999857 1.6900000572 1.7300000191
 5238.0000000 5238.0000000 -7.469999790 1.5599999428 1.7200000286 1.6299999952
 5239.0000000 5239.0000000 -6.599999905 1.5000000000 1.7500000000 1.5000000000
 5240.0000000 5240.0000000 -5.570000172 1.4600000381 1.7899999619 1.4500000477
 5241.0000000 5241.0000000 -4.960000038 1.4600000381 1.8500000238 1.3799999952
 5242.0000000 5242.0000000 -4.760000229 1.4700000286 1.9600000381 1.2699999809
 5243.0000000 5243.0000000 -5.030000210 1.5099999905 2.0399999619 1.1900000572
 5244.0000000 5244.0000000 -5.650000095 1.6100000143 2.0499999523 1.1900000572
 5245.0000000 5245.0000000 -6.409999847 1.7999999523 2.0299999714 1.2599999905
 5246.0000000 5246.0000000 -7.670000076 2.1199998856 2.0399999619 1.4400000572
 5247.0000000 5247.0000000 -9.279999733 2.3499999046 2.0899999142 1.6399999857
 5248.0000000 5248.0000000 -10.19999981 2.5199999809 2.1900000572 1.7999999523
 5249.0000000 5249.0000000 -10.73999977 2.6300001144 2.2999999523 1.8799999952
 5250.0000000 5250.0000000 -11.13000011 2.6500000954 2.4000000954 1.9600000381
 5251.0000000 5251.0000000 -11.40999985 2.7100000381 2.4000000954 2.0099999905
 5252.0000000 5252.0000000 -11.56999969 2.6900000572 2.3699998856 2.0399999619
 5253.0000000 5253.0000000 -11.44999981 2.5499999523 2.3299999237 2.0999999046
 5254.0000000 5254.0000000 -10.73999977 2.4100000858 2.2899999619 2.1500000954
 5255.0000000 5255.0000000 -10.23999977 2.2899999619 2.2799999714 2.1500000954
 5256.0000000 5256.0000000 -10.14000034 2.2000000477 2.2899999619 2.0699999332
 5257.0000000 5257.0000000 -10.10999966 2.1700000763 2.2899999619 1.9199999571
 5258.0000000 5258.0000000 -10.10000038 2.2100000381 2.2000000477 1.8300000429
 5259.0000000 5259.0000000 -10.01000023 2.2500000000 2.0999999046 1.8300000429
 5260.0000000 5260.0000000 -9.899999619 2.2000000477 2.0399999619 1.8700000048
 5261.0000000 5261.0000000 -9.770000458 2.1199998856 1.9900000095 1.9299999475
 5262.0000000 5262.0000000 -9.520000458 2.0299999714 1.9099999666 1.9400000572
 5263.0000000 5263.0000000 -9.189999580 1.8799999952 2.0099999905 1.8600000143
 5264.0000000 5264.0000000 -8.880000114 1.7699999809 2.0699999332 1.6900000572
 5265.0000000 5265.0000000 -8.640000343 1.7500000000 2.0799999237 1.5299999714
