# LAS format log file from PETREL
# Project units are specified as depth units
#==================================================================
~Version information
VERS.   2.0:
WRAP.   NO:
#==================================================================
~Well
STRT .m      3000.0000000 :
STOP .m      6457.0000000 :
STEP .m     1.00000000 :
NULL .        -999.250000 :
COMP.           : COMPANY
WELL.  WELL_1   : WELL
FLD.            : FIELD
LOC.            : LOCATION
SRVC.           : SERVICE COMPANY
DATE.  2023-03-20 17:52:46   : Log Export Date {yyyy-MM-dd HH:mm:ss}
PROV.           : PROVINCE
UWI.   WELL_1   : UNIQUE WELL ID
API.            : API NUMBER
#==================================================================
~Curve
DEPT .m                   : DEPTH
Depth .m                  : Depth
SP .mV                    : SP
SN .ohm.m                 : SN
LN .ohm.m                 : LN
~Parameter
#==================================================================
~Ascii
# ...
 6294.0000000 6294.0000000 9.8400001526 1.7400000095 3.7300000191
 6295.0000000 6295.0000000 10.739999771 2.0799999237 3.0899999142
 6296.0000000 6296.0000000 10.430000305 2.4400000572 2.8299999237
 6297.0000000 6297.0000000 10.140000343 2.8299999237 2.9100000858
 6298.0000000 6298.0000000 10.060000420 3.2699999809 3.0000000000
 6299.0000000 6299.0000000 10.619999886 3.7999999523 3.2300000191
 6300.0000000 6300.0000000 11.520000458 4.1700000763 3.4800000191
 6301.0000000 6301.0000000 11.119999886 3.8399999142 3.7300000191
 6302.0000000 6302.0000000 10.659999847 3.3299999237 3.8900001049
 6303.0000000 6303.0000000 10.210000038 2.7899999619 3.8199999332
 6304.0000000 6304.0000000 9.7600002289 2.2300000191 3.6700000763
 6305.0000000 6305.0000000 9.2899999619 2.1300001144 3.4300000668
 6306.0000000 6306.0000000 9.7500000000 1.8899999857 3.1700000763
 6307.0000000 6307.0000000 10.229999542 1.6100000143 2.8499999046
 6308.0000000 6308.0000000 11.069999695 1.3700000048 2.5099999905
 6309.0000000 6309.0000000 11.579999924 1.5000000000 2.1300001144
 6310.0000000 6310.0000000 11.619999886 1.6799999475 1.8400000334
 6311.0000000 6311.0000000 11.659999847 1.8600000143 1.6200000048
 6312.0000000 6312.0000000 11.739999771 1.5900000334 1.5399999619
 6313.0000000 6313.0000000 12.149999619 1.3200000525 1.4600000381
 6314.0000000 6314.0000000 12.560000420 1.1499999762 1.4099999666
 6315.0000000 6315.0000000 12.939999580 1.2599999905 1.3799999952
 6316.0000000 6316.0000000 12.449999809 1.3400000334 1.3500000238
 6317.0000000 6317.0000000 12.079999924 1.4099999666 1.3600000143
 6318.0000000 6318.0000000 11.720000267 1.3700000048 1.3799999952
 6319.0000000 6319.0000000 11.050000191 1.3200000525 1.3899999857
 6320.0000000 6320.0000000 10.539999962 1.2799999714 1.3600000143
 6321.0000000 6321.0000000 10.939999580 1.2300000191 1.3300000429
 6322.0000000 6322.0000000 11.319999695 1.1799999475 1.2899999619
 6323.0000000 6323.0000000 11.609999657 1.1399999857 1.2500000000
 6324.0000000 6324.0000000 11.909999847 1.2999999523 1.2000000477
 6325.0000000 6325.0000000 11.640000343 1.4900000095 1.1499999762
 6326.0000000 6326.0000000 10.909999847 1.7000000477 1.1900000572
 6327.0000000 6327.0000000 10.250000000 1.8600000143 1.2599999905
 6328.0000000 6328.0000000 10.539999962 2.0000000000 1.5099999905
 6329.0000000 6329.0000000 10.859999657 2.3399999142 1.8500000238
 6330.0000000 6330.0000000 10.229999542 2.7899999619 2.5399999619
 6331.0000000 6331.0000000 9.3599996567 4.0599999428 3.5099999905
 6332.0000000 6332.0000000 7.9400000572 4.7100000381 3.0699999332
 6333.0000000 6333.0000000 7.1199998856 3.1500000954 1.8400000334
 6334.0000000 6334.0000000 8.1000003815 2.1500000954 1.3999999762
 6335.0000000 6335.0000000 9.2799997330 2.3900001049 1.2200000286
 6336.0000000 6336.0000000 10.470000267 2.6400001049 1.3300000429
 6337.0000000 6337.0000000 11.329999924 2.8800001144 1.4500000477
 6338.0000000 6338.0000000 11.579999924 3.1800000668 1.5700000525
 6339.0000000 6339.0000000 10.890000343 2.8699998856 1.4600000381
 6340.0000000 6340.0000000 10.010000229 2.5299999714 1.3400000334
 6341.0000000 6341.0000000 9.1300001144 2.2200000286 1.2100000381
 6342.0000000 6342.0000000 9.0000000000 2.0000000000 1.1499999762
 6343.0000000 6343.0000000 9.5100002289 2.2100000381 1.1399999857
 6344.0000000 6344.0000000 9.7200002670 2.4700000286 1.3600000143
 6345.0000000 6345.0000000 9.9200000763 2.8900001049 1.8200000525
 6346.0000000 6346.0000000 10.130000114 3.5799999237 2.5699999332
 6347.0000000 6347.0000000 10.319999695 4.4000000954 3.7400000095
 6348.0000000 6348.0000000 10.050000191 4.9299998283 4.3600001335
 6349.0000000 6349.0000000 9.7700004578 4.9699997902 4.3800001144
 6350.0000000 6350.0000000 9.4899997711 4.5100002289 4.1799998283
 6351.0000000 6351.0000000 9.8800001144 4.1199998856 3.9700000286
 6352.0000000 6352.0000000 10.859999657 3.8099999428 3.7500000000
 6353.0000000 6353.0000000 11.079999924 3.5000000000 3.5000000000
 6354.0000000 6354.0000000 11.310000420 3.3399999142 3.2300000191
 6355.0000000 6355.0000000 10.920000076 3.2000000477 2.8599998951
 6356.0000000 6356.0000000 10.520000458 2.8199999332 2.4800000191
 6357.0000000 6357.0000000 10.079999924 2.3299999237 2.1099998951
 6358.0000000 6358.0000000 9.5200004578 1.8999999762 1.7699999809
 6359.0000000 6359.0000000 10.829999924 1.5700000525 1.5700000525
 6360.0000000 6360.0000000 11.819999695 1.3600000143 1.3600000143
 6361.0000000 6361.0000000 12.819999695 1.2100000381 1.2999999523
 6362.0000000 6362.0000000 12.079999924 1.1499999762 1.2400000095
 6363.0000000 6363.0000000 11.039999962 1.3500000238 1.3600000143
 6364.0000000 6364.0000000 7.5900001526 1.8500000238 1.6399999857
 6365.0000000 6365.0000000 4.2600002289 2.5199999809 2.1300001144
 6366.0000000 6366.0000000 6.5999999046 2.9600000381 2.2300000191
 6367.0000000 6367.0000000 9.3299999237 2.8299999237 2.2699999809
 6368.0000000 6368.0000000 10.510000229 2.6099998951 2.2699999809
 6369.0000000 6369.0000000 11.329999924 2.4100000858 2.1500000954
 6370.0000000 6370.0000000 12.090000153 2.2100000381 2.0499999523
 6371.0000000 6371.0000000 12.789999962 2.2100000381 1.9800000191
 6372.0000000 6372.0000000 12.050000191 2.2999999523 2.0399999619
 6373.0000000 6373.0000000 10.020000458 2.1900000572 1.9700000286
 6374.0000000 6374.0000000 7.9499998093 1.8700000048 1.7799999714
 6375.0000000 6375.0000000 8.7399997711 1.5499999523 1.5599999428
 6376.0000000 6376.0000000 11.079999924 1.2599999905 1.3400000334
 6377.0000000 6377.0000000 12.079999924 1.1399999857 1.2000000477
 6378.0000000 6378.0000000 12.310000420 1.3300000429 1.1699999571
 6379.0000000 6379.0000000 12.319999695 1.6000000238 1.2899999619
 6380.0000000 6380.0000000 12.220000267 2.0599999428 1.4099999666
 6381.0000000 6381.0000000 11.949999809 2.2899999619 1.5700000525
 6382.0000000 6382.0000000 11.689999580 2.3299999237 1.7699999809
 6383.0000000 6383.0000000 11.439999580 2.3199999332 1.9800000191
 6384.0000000 6384.0000000 11.260000229 2.3099999428 2.0999999046
 6385.0000000 6385.0000000 11.090000153 2.2999999523 2.2100000381
 6386.0000000 6386.0000000 10.909999847 2.5799999237 2.3499999046
 6387.0000000 6387.0000000 10.750000000 3.0199999809 2.5199999809
 6388.0000000 6388.0000000 10.600000381 3.7300000191 2.7899999619
 6389.0000000 6389.0000000 9.5399999619 4.7100000381 3.3599998951
 6390.0000000 6390.0000000 8.0900001526 5.6300001144 4.2100000381
 6391.0000000 6391.0000000 6.5599999428 5.2100000381 3.4300000668
 6392.0000000 6392.0000000 7.6500000954 3.9700000286 2.8599998951
 6393.0000000 6393.0000000 8.6700000763 2.6099998951 2.3399999142
 6394.0000000 6394.0000000 9.6899995804 2.1500000954 1.8999999762
 6395.0000000 6395.0000000 10.619999886 2.2599999905 1.6900000572
 6396.0000000 6396.0000000 11.439999580 2.3699998856 1.7400000095
 6397.0000000 6397.0000000 12.039999962 2.2000000477 1.7899999619
 6398.0000000 6398.0000000 11.350000381 1.8899999857 1.8099999428
 6399.0000000 6399.0000000 10.659999847 1.5800000429 1.7500000000
 6400.0000000 6400.0000000 11.289999962 1.3200000525 1.5900000334
 6401.0000000 6401.0000000 11.960000038 1.1399999857 1.4199999571
 6402.0000000 6402.0000000 12.560000420 1.0900000334 1.2699999809
 6403.0000000 6403.0000000 13.159999847 1.0399999619 1.1200000048
 6404.0000000 6404.0000000 13.409999847 1.0499999523 1.0199999809
 6405.0000000 6405.0000000 13.670000076 1.1200000048 1.0299999714
 6406.0000000 6406.0000000 13.779999733 1.1900000572 1.0399999619
 6407.0000000 6407.0000000 13.500000000 1.3799999952 1.2999999523
 6408.0000000 6408.0000000 13.229999542 1.5700000525 1.5700000525
 6409.0000000 6409.0000000 12.260000229 1.8099999428 1.7999999523
 6410.0000000 6410.0000000 11.239999771 2.0699999332 2.0099999905
 6411.0000000 6411.0000000 10.329999924 2.0799999237 2.1500000954
 6412.0000000 6412.0000000 10.250000000 1.9400000572 2.1199998856
 6413.0000000 6413.0000000 11.500000000 1.7899999619 2.0499999523
 6414.0000000 6414.0000000 11.489999771 1.6499999762 1.9299999475
 6415.0000000 6415.0000000 11.189999580 1.5099999905 1.7999999523
