# LAS format log file from PETREL
# Project units are specified as depth units
#==================================================================
~Version information
VERS.   2.0:
WRAP.   NO:
#==================================================================
~Well
STRT .m      4650.0000000 :
STOP .m      7050.0000000 :
STEP .m     1.00000000 :
NULL .        -999.250000 :
COMP.           : COMPANY
WELL.  WELL_3   : WELL
FLD.            : FIELD
LOC.            : LOCATION
SRVC.           : SERVICE COMPANY
DATE.  2023-03-20 17:52:46   : Log Export Date {yyyy-MM-dd HH:mm:ss}
PROV.           : PROVINCE
UWI.   WELL_3   : UNIQUE WELL ID
API.            : API NUMBER
#==================================================================
~Curve
DEPT .m                   : DEPTH
Depth .m                  : Depth
SP .mV                    : SP
SN .ohm.m                 : SN
LN .ohm.m                 : LN
LAT .ohm.m                : LAT
~Parameter
#==================================================================
~Ascii
# ...
 5568.0000000 5568.0000000 -10.00000000 1.9700000286 1.9099999666 2.3900001049
 5569.0000000 5569.0000000 -10.14999962 1.9700000286 1.9299999475 2.5000000000
 5570.0000000 5570.0000000 -9.930000305 1.8799999952 1.9900000095 2.4800000191
 5571.0000000 5571.0000000 -9.590000153 1.7999999523 2.0499999523 2.2899999619
 5572.0000000 5572.0000000 -9.350000381 1.7799999714 2.0899999142 2.0899999142
 5573.0000000 5573.0000000 -9.170000076 1.7999999523 2.0999999046 1.9800000191
 5574.0000000 5574.0000000 -9.180000305 1.8300000429 2.0999999046 1.9199999571
 5575.0000000 5575.0000000 -9.279999733 1.8700000048 2.0999999046 1.8799999952
 5576.0000000 5576.0000000 -9.430000305 1.9600000381 2.1099998951 1.8899999857
 5577.0000000 5577.0000000 -9.630000114 2.0499999523 2.1300001144 1.9099999666
 5578.0000000 5578.0000000 -9.850000381 2.0999999046 2.2300000191 1.9600000381
 5579.0000000 5579.0000000 -10.18000031 2.1400001049 2.3399999142 2.0099999905
 5580.0000000 5580.0000000 -10.67000008 2.1800000668 2.4400000572 2.0399999619
 5581.0000000 5581.0000000 -11.18000031 2.2799999714 2.5299999714 2.0799999237
 5582.0000000 5582.0000000 -11.73999977 2.5599999428 2.5699999332 2.1400001049
 5583.0000000 5583.0000000 -12.77999973 2.8399999142 2.5499999523 2.3299999237
 5584.0000000 5584.0000000 -14.14999962 3.0599999428 2.5399999619 2.6700000763
 5585.0000000 5585.0000000 -14.39999962 3.1199998856 2.5699999332 2.9900000095
 5586.0000000 5586.0000000 -13.89999962 2.9900000095 2.6199998856 3.1500000954
 5587.0000000 5587.0000000 -13.06999969 2.8399999142 2.6600000858 3.0599999428
 5588.0000000 5588.0000000 -12.27000046 2.7300000191 2.5099999905 2.9100000858
 5589.0000000 5589.0000000 -11.75000000 2.6099998951 2.3800001144 2.8699998856
 5590.0000000 5590.0000000 -11.14000034 2.3499999046 2.3099999428 2.8800001144
 5591.0000000 5591.0000000 -10.15999985 2.1199998856 2.2699999809 2.7100000381
 5592.0000000 5592.0000000 -9.630000114 2.0199999809 2.2599999905 2.4800000191
 5593.0000000 5593.0000000 -9.500000000 2.0000000000 2.1600000858 2.3199999332
 5594.0000000 5594.0000000 -9.579999924 2.0000000000 2.0499999523 2.2200000286
 5595.0000000 5595.0000000 -8.890000343 1.8999999762 1.9900000095 2.2500000000
 5596.0000000 5596.0000000 -7.969999790 1.7599999905 1.9700000286 2.2599999905
 5597.0000000 5597.0000000 -7.639999866 1.6900000572 1.9900000095 2.1199998856
 5598.0000000 5598.0000000 -7.730000019 1.6699999571 2.0299999714 1.9400000572
 5599.0000000 5599.0000000 -8.109999657 1.7100000381 2.0399999619 1.8500000238
 5600.0000000 5600.0000000 -8.770000458 1.7599999905 2.0399999619 1.8300000429
 5601.0000000 5601.0000000 -9.199999809 1.8099999428 2.0299999714 1.8700000048
 5602.0000000 5602.0000000 -9.300000191 1.8400000334 2.0499999523 1.9600000381
 5603.0000000 5603.0000000 -9.350000381 1.8999999762 2.0899999142 2.0599999428
 5604.0000000 5604.0000000 -9.420000076 2.0099999905 2.1500000954 2.1600000858
 5605.0000000 5605.0000000 -9.409999847 2.1199998856 2.2100000381 2.2500000000
 5606.0000000 5606.0000000 -9.420000076 2.2699999809 2.3099999428 2.3599998951
 5607.0000000 5607.0000000 -9.739999771 2.4500000477 2.3699998856 2.4600000381
 5608.0000000 5608.0000000 -10.44999981 2.5799999237 2.4200000763 2.5399999619
 5609.0000000 5609.0000000 -11.21000004 2.6400001049 2.5499999523 2.5999999046
 5610.0000000 5610.0000000 -12.31000042 2.6800000668 2.6300001144 2.6500000954
 5611.0000000 5611.0000000 -13.42000008 2.8199999332 2.5799999237 2.6199998856
 5612.0000000 5612.0000000 -14.31999969 2.9400000572 2.5099999905 2.7000000477
 5613.0000000 5613.0000000 -15.02999973 2.9800000191 2.5199999809 2.8900001049
 5614.0000000 5614.0000000 -15.06000042 2.9400000572 2.5099999905 3.0099999905
 5615.0000000 5615.0000000 -14.89000034 2.8699998856 2.3099999428 2.9700000286
 5616.0000000 5616.0000000 -15.34000015 2.8399999142 2.1500000954 2.9500000477
 5617.0000000 5617.0000000 -14.32999992 2.5399999619 2.0599999428 3.0899999142
 5618.0000000 5618.0000000 -12.27999973 2.2000000477 2.0399999619 2.9400000572
 5619.0000000 5619.0000000 -10.53999996 1.9900000095 2.0799999237 2.4800000191
 5620.0000000 5620.0000000 -9.939999580 1.8700000048 2.1199998856 2.1099998951
 5621.0000000 5621.0000000 -9.260000229 1.7599999905 2.1099998951 1.9500000477
 5622.0000000 5622.0000000 -8.300000191 1.6699999571 2.0899999142 1.8600000143
 5623.0000000 5623.0000000 -6.929999828 1.6399999857 2.1099998951 1.7699999809
 5624.0000000 5624.0000000 -6.369999886 1.7400000095 2.1199998856 1.6900000572
 5625.0000000 5625.0000000 -6.719999790 1.9199999571 2.0499999523 1.7400000095
 5626.0000000 5626.0000000 -7.989999771 2.1199998856 1.9900000095 1.9800000191
 5627.0000000 5627.0000000 -9.119999886 2.2799999714 1.9600000381 2.2599999905
 5628.0000000 5628.0000000 -9.770000458 2.3199999332 1.9700000286 2.5000000000
 5629.0000000 5629.0000000 -10.06999969 2.1900000572 2.0399999619 2.4800000191
 5630.0000000 5630.0000000 -10.22999954 2.0799999237 2.1400001049 2.3900001049
 5631.0000000 5631.0000000 -10.11999989 2.0099999905 2.2000000477 2.2999999523
 5632.0000000 5632.0000000 -10.05000019 2.0000000000 2.1900000572 2.2200000286
 5633.0000000 5633.0000000 -9.960000038 2.0000000000 2.1800000668 2.2100000381
 5634.0000000 5634.0000000 -9.829999924 1.9900000095 2.1900000572 2.2300000191
 5635.0000000 5635.0000000 -9.840000153 1.9900000095 2.2100000381 2.2599999905
 5636.0000000 5636.0000000 -9.970000267 2.0099999905 2.2400000095 2.2599999905
 5637.0000000 5637.0000000 -10.18999958 2.0799999237 2.2799999714 2.2000000477
 5638.0000000 5638.0000000 -10.55000019 2.1700000763 2.2799999714 2.1600000858
 5639.0000000 5639.0000000 -10.72999954 2.2599999905 2.2400000095 2.2300000191
 5640.0000000 5640.0000000 -11.01000023 2.3299999237 2.1900000572 2.3599998951
 5641.0000000 5641.0000000 -10.78999996 2.2999999523 2.1700000763 2.4800000191
 5642.0000000 5642.0000000 -9.899999619 2.1400001049 2.2300000191 2.5599999428
 5643.0000000 5643.0000000 -8.640000343 2.0099999905 2.3900001049 2.4400000572
 5644.0000000 5644.0000000 -8.329999924 2.0199999809 2.5299999714 2.2699999809
 5645.0000000 5645.0000000 -9.600000381 2.1500000954 2.5399999619 2.1300001144
 5646.0000000 5646.0000000 -11.42000008 2.3900001049 2.4400000572 2.2500000000
 5647.0000000 5647.0000000 -13.34000015 2.6199998856 2.3199999332 2.5000000000
 5648.0000000 5648.0000000 -14.53999996 2.6700000763 2.2400000095 2.6900000572
 5649.0000000 5649.0000000 -14.47999954 2.5999999046 2.1900000572 2.8099999428
 5650.0000000 5650.0000000 -12.09000015 2.4000000954 2.1600000858 2.8699998856
 5651.0000000 5651.0000000 -9.920000076 2.1600000858 2.1600000858 2.7200000286
 5652.0000000 5652.0000000 -8.409999847 2.0000000000 2.2000000477 2.5299999714
 5653.0000000 5653.0000000 -7.960000038 1.8999999762 2.2699999809 2.3299999237
 5654.0000000 5654.0000000 -7.539999962 1.8700000048 2.3099999428 2.1199998856
 5655.0000000 5655.0000000 -7.989999771 1.9299999475 2.3299999237 2.0099999905
 5656.0000000 5656.0000000 -9.000000000 2.0199999809 2.3199999332 2.0000000000
 5657.0000000 5657.0000000 -10.03999996 2.1700000763 2.2799999714 2.0999999046
 5658.0000000 5658.0000000 -10.67000008 2.2799999714 2.3099999428 2.2400000095
 5659.0000000 5659.0000000 -10.73999977 2.3900001049 2.4400000572 2.2899999619
 5660.0000000 5660.0000000 -11.05000019 2.5299999714 2.5499999523 2.3299999237
 5661.0000000 5661.0000000 -12.06000042 2.7599999905 2.6199998856 2.4300000668
 5662.0000000 5662.0000000 -13.09000015 2.9900000095 2.6500000954 2.6300001144
 5663.0000000 5663.0000000 -13.89999962 3.1300001144 2.6300001144 2.8199999332
 5664.0000000 5664.0000000 -14.50000000 3.1099998951 2.6300001144 2.9500000477
 5665.0000000 5665.0000000 -14.61999989 2.9600000381 2.6400001049 3.0199999809
 5666.0000000 5666.0000000 -14.19999981 2.7899999619 2.5999999046 2.9900000095
 5667.0000000 5667.0000000 -13.34000015 2.6300001144 2.5299999714 2.9600000381
 5668.0000000 5668.0000000 -12.31000042 2.4700000286 2.4100000858 2.9400000572
 5669.0000000 5669.0000000 -11.22999954 2.3199999332 2.3099999428 2.8800001144
