# LAS format log file from PETREL
# Project units are specified as depth units
#==================================================================
~Version information
VERS.   2.0:
WRAP.   NO:
#==================================================================
~Well
STRT .m      3000.0000000 :
STOP .m      6457.0000000 :
STEP .m     1.00000000 :
NULL .        -999.250000 :
COMP.           : COMPANY
WELL.  WELL_1   : WELL
FLD.            : FIELD
LOC.            : LOCATION
SRVC.           : SERVICE COMPANY
DATE.  2023-03-20 17:52:46   : Log Export Date {yyyy-MM-dd HH:mm:ss}
PROV.           : PROVINCE
UWI.   WELL_1   : UNIQUE WELL ID
API.            : API NUMBER
#==================================================================
~Curve
DEPT .m                   : DEPTH
Depth .m                  : Depth
SP .mV                    : SP
SN .ohm.m                 : SN
LN .ohm.m                 : LN
~Parameter
#==================================================================
~Ascii
# ...
 5440.0000000 5440.0000000 10.640000343 1.9800000191 1.4800000191
 5441.0000000 5441.0000000 10.640000343 2.0999999046 1.5000000000
 5442.0000000 5442.0000000 10.619999886 2.2100000381 1.5399999619
 5443.0000000 5443.0000000 10.369999886 2.3199999332 1.5800000429
 5444.0000000 5444.0000000 10.119999886 2.4400000572 1.6299999952
 5445.0000000 5445.0000000 9.8699998856 2.5699999332 1.6799999475
 5446.0000000 5446.0000000 9.5500001907 2.5399999619 1.7300000191
 5447.0000000 5447.0000000 9.1199998856 2.3299999237 1.6699999571
 5448.0000000 5448.0000000 8.6999998093 2.0699999332 1.5800000429
 5449.0000000 5449.0000000 9.0299997330 1.7100000381 1.5099999905
 5450.0000000 5450.0000000 9.5299997330 1.6399999857 1.5299999714
 5451.0000000 5451.0000000 10.020000458 1.9600000381 1.5399999619
 5452.0000000 5452.0000000 10.140000343 2.3199999332 1.6499999762
 5453.0000000 5453.0000000 10.000000000 2.7500000000 1.7500000000
 5454.0000000 5454.0000000 9.8699998856 3.1400001049 1.7799999714
 5455.0000000 5455.0000000 9.7399997711 3.4800000191 1.7799999714
 5456.0000000 5456.0000000 9.5799999237 3.5000000000 1.7799999714
 5457.0000000 5457.0000000 9.3400001526 3.4300000668 1.7699999809
 5458.0000000 5458.0000000 8.8199996948 3.3699998856 2.0499999523
 5459.0000000 5459.0000000 7.6399998665 3.3199999332 2.3499999046
 5460.0000000 5460.0000000 6.3600001335 3.4900000095 2.6500000954
 5461.0000000 5461.0000000 4.9899997711 4.2199997902 2.8900001049
 5462.0000000 5462.0000000 3.2699999809 4.9800000191 2.9400000572
 5463.0000000 5463.0000000 0.8799999952 5.7500000000 3.0099999905
 5464.0000000 5464.0000000 -4.760000229 5.7800002098 3.1099998951
 5465.0000000 5465.0000000 -7.860000134 6.2899999619 3.2200000286
 5466.0000000 5466.0000000 -9.789999962 7.4299998283 3.5299999714
 5467.0000000 5467.0000000 -10.97000027 8.9099998474 3.8299999237
 5468.0000000 5468.0000000 -11.60000038 10.159999847 4.0500001907
 5469.0000000 5469.0000000 -10.03999996 10.390000343 4.3000001907
 5470.0000000 5470.0000000 -7.219999790 9.1700000763 4.6700000763
 5471.0000000 5471.0000000 -2.109999895 5.9000000954 4.9099998474
 5472.0000000 5472.0000000 2.6500000954 3.8099999428 4.4200000763
 5473.0000000 5473.0000000 6.3899998665 2.9700000286 3.8800001144
 5474.0000000 5474.0000000 9.1400003433 2.4700000286 3.3199999332
 5475.0000000 5475.0000000 10.079999924 2.1700000763 2.8699998856
 5476.0000000 5476.0000000 10.149999619 2.0000000000 2.4700000286
 5477.0000000 5477.0000000 10.220000267 1.9299999475 2.2899999619
 5478.0000000 5478.0000000 10.289999962 1.8700000048 2.1400001049
 5479.0000000 5479.0000000 10.109999657 1.8500000238 2.0999999046
 5480.0000000 5480.0000000 9.9200000763 1.8300000429 2.1800000668
 5481.0000000 5481.0000000 9.7299995422 1.8099999428 2.1700000763
 5482.0000000 5482.0000000 9.4300003052 1.7899999619 2.1400001049
 5483.0000000 5483.0000000 9.1300001144 1.7799999714 2.0999999046
 5484.0000000 5484.0000000 9.5799999237 1.7599999905 2.0599999428
 5485.0000000 5485.0000000 10.029999733 1.7500000000 2.0899999142
 5486.0000000 5486.0000000 10.250000000 1.7400000095 2.1099998951
 5487.0000000 5487.0000000 10.390000343 1.7699999809 2.1300001144
 5488.0000000 5488.0000000 10.520000458 1.7999999523 2.1500000954
 5489.0000000 5489.0000000 10.310000420 1.8600000143 2.1700000763
 5490.0000000 5490.0000000 10.079999924 1.9800000191 2.1900000572
 5491.0000000 5491.0000000 9.8500003815 2.0999999046 2.2000000477
 5492.0000000 5492.0000000 9.6199998856 2.2300000191 2.1900000572
 5493.0000000 5493.0000000 9.1300001144 2.3299999237 2.1800000668
 5494.0000000 5494.0000000 9.1099996567 2.3299999237 2.1400001049
 5495.0000000 5495.0000000 9.1800003052 2.2200000286 2.0599999428
 5496.0000000 5496.0000000 9.3000001907 2.0599999428 1.9900000095
 5497.0000000 5497.0000000 9.8199996948 1.8999999762 1.9099999666
 5498.0000000 5498.0000000 10.390000343 1.8099999428 1.8400000334
 5499.0000000 5499.0000000 10.840000153 1.7500000000 1.7599999905
 5500.0000000 5500.0000000 11.060000420 1.8600000143 1.7000000477
 5501.0000000 5501.0000000 11.010000229 1.9700000286 1.6599999666
 5502.0000000 5502.0000000 10.800000191 2.0799999237 1.6200000048
 5503.0000000 5503.0000000 10.590000153 2.1900000572 1.6299999952
 5504.0000000 5504.0000000 10.409999847 2.2799999714 1.6599999666
 5505.0000000 5505.0000000 10.250000000 2.2300000191 1.7000000477
 5506.0000000 5506.0000000 10.119999886 2.1800000668 1.7699999809
 5507.0000000 5507.0000000 10.310000420 2.1300001144 1.8600000143
 5508.0000000 5508.0000000 10.399999619 2.0799999237 1.9600000381
 5509.0000000 5509.0000000 10.319999695 2.1700000763 2.0699999332
 5510.0000000 5510.0000000 9.9399995804 2.5699999332 2.2000000477
 5511.0000000 5511.0000000 9.5000000000 2.8099999428 2.3199999332
 5512.0000000 5512.0000000 9.1300001144 2.9700000286 2.3699998856
 5513.0000000 5513.0000000 9.0000000000 3.0399999619 2.4200000763
 5514.0000000 5514.0000000 8.8800001144 2.8499999046 2.4200000763
 5515.0000000 5515.0000000 8.7600002289 2.4900000095 2.3199999332
 5516.0000000 5516.0000000 8.8500003815 2.1600000858 2.2100000381
 5517.0000000 5517.0000000 8.9300003052 1.9400000572 2.0399999619
 5518.0000000 5518.0000000 9.0100002289 2.0799999237 2.1600000858
 5519.0000000 5519.0000000 9.1000003815 2.4800000191 2.2999999523
 5520.0000000 5520.0000000 9.2200002670 2.8399999142 2.4200000763
 5521.0000000 5521.0000000 9.3299999237 2.9100000858 2.5399999619
 5522.0000000 5522.0000000 9.3999996185 2.9900000095 2.5899999142
 5523.0000000 5523.0000000 9.1899995804 3.1099998951 2.5899999142
 5524.0000000 5524.0000000 8.9799995422 3.3900001049 2.5599999428
 5525.0000000 5525.0000000 8.6800003052 3.6700000763 2.5299999714
 5526.0000000 5526.0000000 8.3199996948 3.6300001144 2.5199999809
 5527.0000000 5527.0000000 8.0600004196 2.8399999142 2.3699998856
 5528.0000000 5528.0000000 8.6400003433 2.1500000954 2.1800000668
 5529.0000000 5529.0000000 9.6800003052 1.7500000000 2.0000000000
 5530.0000000 5530.0000000 10.819999695 1.6699999571 1.8899999857
 5531.0000000 5531.0000000 11.109999657 1.6100000143 1.7899999619
 5532.0000000 5532.0000000 11.170000076 1.6799999475 1.7599999905
 5533.0000000 5533.0000000 11.119999886 1.7400000095 1.8200000525
 5534.0000000 5534.0000000 10.770000458 1.8799999952 1.9099999666
 5535.0000000 5535.0000000 10.420000076 2.0999999046 2.1500000954
 5536.0000000 5536.0000000 10.069999695 2.3900001049 2.3900001049
 5537.0000000 5537.0000000 9.7299995422 2.7699999809 2.5599999428
 5538.0000000 5538.0000000 9.4499998093 2.6400001049 2.4300000668
 5539.0000000 5539.0000000 9.6800003052 2.4400000572 2.3099999428
 5540.0000000 5540.0000000 9.8999996185 2.2400000095 2.1900000572
 5541.0000000 5541.0000000 10.270000458 2.0399999619 2.1099998951
 5542.0000000 5542.0000000 10.680000305 2.0199999809 2.0199999809
 5543.0000000 5543.0000000 11.020000458 2.0099999905 1.9700000286
 5544.0000000 5544.0000000 10.930000305 2.0000000000 1.9700000286
 5545.0000000 5545.0000000 10.829999924 1.9900000095 1.9600000381
 5546.0000000 5546.0000000 10.739999771 1.9099999666 1.9500000477
 5547.0000000 5547.0000000 10.760000229 1.8400000334 1.9400000572
 5548.0000000 5548.0000000 10.770000458 1.7699999809 1.8799999952
 5549.0000000 5549.0000000 10.779999733 1.7200000286 1.8099999428
 5550.0000000 5550.0000000 10.819999695 1.6699999571 1.7300000191
 5551.0000000 5551.0000000 10.920000076 1.6399999857 1.6900000572
 5552.0000000 5552.0000000 11.020000458 1.6799999475 1.6900000572
 5553.0000000 5553.0000000 11.130000114 1.7100000381 1.6900000572
 5554.0000000 5554.0000000 11.180000305 1.7500000000 1.6900000572
 5555.0000000 5555.0000000 11.140000343 1.8700000048 1.7400000095
 5556.0000000 5556.0000000 11.090000153 2.0199999809 1.8099999428
 5557.0000000 5557.0000000 11.039999962 2.1700000763 1.8700000048
 5558.0000000 5558.0000000 10.989999771 2.3399999142 1.8899999857
 5559.0000000 5559.0000000 10.579999924 2.5000000000 1.9099999666
 5560.0000000 5560.0000000 10.130000114 2.8099999428 1.9400000572
 5561.0000000 5561.0000000 9.6700000763 3.0599999428 1.9400000572
