# LAS format log file from PETREL
# Project units are specified as depth units
#==================================================================
~Version information
VERS.   2.0:
WRAP.   NO:
#==================================================================
~Well
STRT .m      4450.0000000 :
STOP .m      7050.0000000 :
STEP .m     1.00000000 :
NULL .        -999.250000 :
COMP.           : COMPANY
WELL.  WELL_4   : WELL
FLD.            : FIELD
LOC.            : LOCATION
SRVC.           : SERVICE COMPANY
DATE.  2023-03-20 17:52:46   : Log Export Date {yyyy-MM-dd HH:mm:ss}
PROV.           : PROVINCE
UWI.   WELL_4   : UNIQUE WELL ID
API.            : API NUMBER
#==================================================================
~Curve
DEPT .m                   : DEPTH
Depth .m                  : Depth
SP .mV                    : SP
SN .ohm.m                 : SN
LN .ohm.m                 : LN
LAT .ohm.m                : LAT
~Parameter
#==================================================================
~Ascii
# ...
 5776.0000000 5776.0000000 -12.80000019 2.5299999714 2.2200000286 1.6200000048
 5777.0000000 5777.0000000 -13.18999958 2.6800000668 2.3199999332 1.6900000572
 5778.0000000 5778.0000000 -13.55000019 2.8800001144 2.4100000858 1.7999999523
 5779.0000000 5779.0000000 -13.84000015 3.0999999046 2.4700000286 1.8999999762
 5780.0000000 5780.0000000 -14.15999985 3.2500000000 2.5299999714 1.9800000191
 5781.0000000 5781.0000000 -14.31000042 3.3099999428 2.5499999523 2.0299999714
 5782.0000000 5782.0000000 -14.22999954 3.2899999619 2.5699999332 2.0899999142
 5783.0000000 5783.0000000 -13.97999954 3.2200000286 2.5999999046 2.1800000668
 5784.0000000 5784.0000000 -13.53999996 3.1300001144 2.5599999428 2.3199999332
 5785.0000000 5785.0000000 -13.06999969 3.0599999428 2.4200000763 2.3900001049
 5786.0000000 5786.0000000 -12.90999985 3.0499999523 2.2400000095 2.3599998951
 5787.0000000 5787.0000000 -12.72000027 2.9500000477 2.0699999332 2.4000000954
 5788.0000000 5788.0000000 -12.27000046 2.6700000763 2.0000000000 2.4300000668
 5789.0000000 5789.0000000 -11.61999989 2.3399999142 1.9600000381 2.3800001144
 5790.0000000 5790.0000000 -11.09000015 2.1099998951 1.8999999762 2.1900000572
 5791.0000000 5791.0000000 -10.81000042 1.9700000286 1.8700000048 1.8899999857
 5792.0000000 5792.0000000 -10.93000031 1.8600000143 1.8400000334 1.6799999475
 5793.0000000 5793.0000000 -11.36999989 1.7699999809 1.8099999428 1.5700000525
 5794.0000000 5794.0000000 -11.32999992 1.6900000572 1.8500000238 1.4600000381
 5795.0000000 5795.0000000 -10.47000027 1.6499999762 1.8899999857 1.3500000238
 5796.0000000 5796.0000000 -8.979999542 1.6499999762 1.8999999762 1.2799999714
 5797.0000000 5797.0000000 -7.780000210 1.6499999762 1.8899999857 1.2599999905
 5798.0000000 5798.0000000 -7.130000114 1.6499999762 1.8799999952 1.3200000525
 5799.0000000 5799.0000000 -6.880000114 1.6399999857 1.8899999857 1.4299999475
 5800.0000000 5800.0000000 -6.929999828 1.6499999762 1.8999999762 1.5499999523
 5801.0000000 5801.0000000 -7.170000076 1.8600000143 1.8700000048 1.5900000334
 5802.0000000 5802.0000000 -7.730000019 1.9600000381 1.8899999857 1.6499999762
 5803.0000000 5803.0000000 -9.310000420 2.1800000668 1.9500000477 1.8500000238
 5804.0000000 5804.0000000 -9.649999619 2.2500000000 2.1800000668 2.0299999714
 5805.0000000 5805.0000000 -10.06999969 2.3399999142 2.5199999809 1.9700000286
 5806.0000000 5806.0000000 -11.43000031 2.7400000095 2.7100000381 1.7999999523
 5807.0000000 5807.0000000 -12.93999958 3.3399999142 2.8399999142 1.9600000381
 5808.0000000 5808.0000000 -13.72999954 3.9900000095 2.7699999809 2.3399999142
 5809.0000000 5809.0000000 -14.01000023 4.3299999237 2.7100000381 2.7500000000
 5810.0000000 5810.0000000 -13.53999996 4.1399998665 2.7899999619 3.0299999714
 5811.0000000 5811.0000000 -11.93000031 3.4900000095 2.9300000668 3.0099999905
 5812.0000000 5812.0000000 -10.56000042 2.9200000763 2.8199999332 2.7200000286
 5813.0000000 5813.0000000 -9.699999809 2.5000000000 2.5899999142 2.2899999619
 5814.0000000 5814.0000000 -9.130000114 2.2400000095 2.3900001049 2.0899999142
 5815.0000000 5815.0000000 -8.210000038 1.9700000286 2.2500000000 2.0099999905
 5816.0000000 5816.0000000 -6.739999771 1.8400000334 2.1400001049 1.8700000048
 5817.0000000 5817.0000000 -6.309999943 1.7599999905 2.0299999714 1.5800000429
 5818.0000000 5818.0000000 -6.869999886 1.7699999809 1.9299999475 1.4700000286
 5819.0000000 5819.0000000 -7.889999866 1.8300000429 1.8099999428 1.5800000429
 5820.0000000 5820.0000000 -8.140000343 1.8400000334 1.8099999428 1.6699999571
 5821.0000000 5821.0000000 -7.630000114 1.7899999619 1.8400000334 1.6900000572
 5822.0000000 5822.0000000 -7.199999809 1.7300000191 1.8400000334 1.6299999952
 5823.0000000 5823.0000000 -7.300000191 1.6799999475 1.8200000525 1.5599999428
 5824.0000000 5824.0000000 -7.780000210 1.6499999762 1.8099999428 1.5499999523
 5825.0000000 5825.0000000 -8.100000381 1.6499999762 1.8200000525 1.6299999952
 5826.0000000 5826.0000000 -7.849999905 1.6900000572 1.8700000048 1.6599999666
 5827.0000000 5827.0000000 -7.440000057 1.7300000191 1.9500000477 1.6200000048
 5828.0000000 5828.0000000 -7.719999790 1.7699999809 2.0299999714 1.5900000334
 5829.0000000 5829.0000000 -8.859999657 1.8700000048 2.0699999332 1.6399999857
 5830.0000000 5830.0000000 -10.02999973 2.0499999523 2.0999999046 1.7200000286
 5831.0000000 5831.0000000 -11.27999973 2.2899999619 2.1500000954 1.8099999428
 5832.0000000 5832.0000000 -12.59000015 2.5399999619 2.2500000000 1.8999999762
 5833.0000000 5833.0000000 -13.47999954 2.7500000000 2.3699998856 1.9900000095
 5834.0000000 5834.0000000 -14.10999966 2.9900000095 2.4300000668 2.0899999142
 5835.0000000 5835.0000000 -14.72999954 3.2599999905 2.5499999523 2.2100000381
 5836.0000000 5836.0000000 -14.78999996 3.4600000381 2.5399999619 2.3299999237
 5837.0000000 5837.0000000 -14.52000046 3.5299999714 2.4500000477 2.4500000477
 5838.0000000 5838.0000000 -14.15999985 3.4800000191 2.3299999237 2.5699999332
 5839.0000000 5839.0000000 -13.77000046 3.2799999714 2.1900000572 2.7100000381
 5840.0000000 5840.0000000 -13.23999977 2.8399999142 2.1199998856 2.7500000000
 5841.0000000 5841.0000000 -12.22000027 2.4300000668 2.1900000572 2.5399999619
 5842.0000000 5842.0000000 -11.03999996 2.1300001144 2.2699999809 2.1900000572
 5843.0000000 5843.0000000 -10.13000011 2.0000000000 2.2000000477 1.7999999523
 5844.0000000 5844.0000000 -9.800000191 1.9900000095 2.0499999523 1.6499999762
 5845.0000000 5845.0000000 -9.979999542 2.0099999905 1.9299999475 1.6900000572
 5846.0000000 5846.0000000 -9.840000153 2.0099999905 1.8899999857 1.8500000238
 5847.0000000 5847.0000000 -8.859999657 1.9299999475 1.9700000286 1.8200000525
 5848.0000000 5848.0000000 -8.529999733 1.8200000525 2.1400001049 1.4800000191
 5849.0000000 5849.0000000 -9.420000076 1.8600000143 2.2000000477 1.2899999619
 5850.0000000 5850.0000000 -11.05000019 1.9800000191 2.1800000668 1.2699999809
 5851.0000000 5851.0000000 -12.02999973 2.1600000858 2.0799999237 1.3999999762
 5852.0000000 5852.0000000 -12.72999954 2.2999999523 2.0399999619 1.5900000334
 5853.0000000 5853.0000000 -13.05000019 2.3599998951 2.0699999332 1.7500000000
 5854.0000000 5854.0000000 -13.17000008 2.3800001144 2.1199998856 1.8400000334
 5855.0000000 5855.0000000 -13.23999977 2.3900001049 2.1800000668 1.8700000048
 5856.0000000 5856.0000000 -13.35000038 2.3900001049 2.2200000286 1.8999999762
 5857.0000000 5857.0000000 -13.55000019 2.4200000763 2.2400000095 1.9400000572
 5858.0000000 5858.0000000 -13.75000000 2.4400000572 2.2699999809 2.0299999714
 5859.0000000 5859.0000000 -13.69999981 2.4300000668 2.3800001144 2.0699999332
 5860.0000000 5860.0000000 -13.68999958 2.3800001144 2.5099999905 2.0199999809
 5861.0000000 5861.0000000 -13.92000008 2.3699998856 2.5899999142 1.9099999666
 5862.0000000 5862.0000000 -14.31000042 2.4800000191 2.6500000954 1.8200000525
 5863.0000000 5863.0000000 -16.50000000 2.9600000381 2.7200000286 1.8899999857
 5864.0000000 5864.0000000 -19.76000023 3.5000000000 2.8299999237 2.1500000954
 5865.0000000 5865.0000000 -21.63999939 3.9300000668 2.9700000286 2.3800001144
 5866.0000000 5866.0000000 -23.13999939 4.3000001907 3.2200000286 2.5399999619
 5867.0000000 5867.0000000 -24.64999962 4.5900001526 3.3299999237 2.6300001144
 5868.0000000 5868.0000000 -25.29999924 4.7399997711 3.1900000572 2.7699999809
 5869.0000000 5869.0000000 -25.37999916 4.5999999046 3.0000000000 2.9100000858
 5870.0000000 5870.0000000 -24.85000038 4.2899999619 2.7300000191 2.9800000191
 5871.0000000 5871.0000000 -22.69000053 3.7799999714 2.6300001144 2.9800000191
 5872.0000000 5872.0000000 -19.02000046 3.0499999523 2.6400001049 2.8599998951
 5873.0000000 5873.0000000 -15.98999977 2.5799999237 2.6099998951 2.5999999046
 5874.0000000 5874.0000000 -14.25000000 2.4400000572 2.4500000477 2.3299999237
 5875.0000000 5875.0000000 -13.28999996 2.4400000572 2.2200000286 2.2500000000
 5876.0000000 5876.0000000 -12.97999954 2.4100000858 2.1199998856 2.3699998856
 5877.0000000 5877.0000000 -12.85000038 2.2799999714 2.1199998856 2.4400000572
