# LAS format log file from PETREL
# Project units are specified as depth units
#==================================================================
~Version information
VERS.   2.0:
WRAP.   NO:
#==================================================================
~Well
STRT .m      4650.0000000 :
STOP .m      7050.0000000 :
STEP .m     1.00000000 :
NULL .        -999.250000 :
COMP.           : COMPANY
WELL.  WELL_3   : WELL
FLD.            : FIELD
LOC.            : LOCATION
SRVC.           : SERVICE COMPANY
DATE.  2023-03-20 17:52:46   : Log Export Date {yyyy-MM-dd HH:mm:ss}
PROV.           : PROVINCE
UWI.   WELL_3   : UNIQUE WELL ID
API.            : API NUMBER
#==================================================================
~Curve
DEPT .m                   : DEPTH
Depth .m                  : Depth
SP .mV                    : SP
SN .ohm.m                 : SN
LN .ohm.m                 : LN
LAT .ohm.m                : LAT
~Parameter
#==================================================================
~Ascii
# ...
 6690.0000000 6690.0000000 -12.28999996 2.6800000668 2.5599999428 0.6399999857
 6691.0000000 6691.0000000 -10.94999981 2.2899999619 2.5699999332 0.6999999881
 6692.0000000 6692.0000000 -9.689999580 2.0099999905 2.7100000381 0.6200000048
 6693.0000000 6693.0000000 -9.279999733 1.9500000477 2.7200000286 0.5299999714
 6694.0000000 6694.0000000 -10.05000019 2.1199998856 2.5599999428 0.5000000000
 6695.0000000 6695.0000000 -11.60999966 2.4000000954 2.4200000763 0.5799999833
 6696.0000000 6696.0000000 -12.47999954 2.5899999142 2.3599998951 0.7500000000
 6697.0000000 6697.0000000 -12.23999977 2.5699999332 2.4700000286 0.9800000191
 6698.0000000 6698.0000000 -11.77999973 2.5099999905 2.8099999428 1.2599999905
 6699.0000000 6699.0000000 -11.40999985 2.4400000572 3.1500000954 1.6599999666
 6700.0000000 6700.0000000 -10.97000027 2.4600000381 3.4500000477 2.1300001144
 6701.0000000 6701.0000000 -10.76000023 2.8399999142 3.5699999332 2.6600000858
 6702.0000000 6702.0000000 -11.50000000 3.4600000381 3.5399999619 3.4300000668
 6703.0000000 6703.0000000 -12.85000038 4.4600000381 3.3800001144 4.6100001335
 6704.0000000 6704.0000000 -13.31999969 5.6300001144 3.1600000858 6.5500001907
 6705.0000000 6705.0000000 -12.67000008 6.3499999046 2.6800000668 8.3000001907
 6706.0000000 6706.0000000 -11.57999992 5.3299999237 1.8799999952 8.8900003433
 6707.0000000 6707.0000000 -10.14999962 3.3599998951 1.7699999809 8.1199998856
 6708.0000000 6708.0000000 -8.449999809 1.9500000477 1.8300000429 6.8899998665
 6709.0000000 6709.0000000 -7.280000210 1.2999999523 1.8300000429 4.3099999428
 6710.0000000 6710.0000000 -7.260000229 1.0599999428 1.7699999809 1.9299999475
 6711.0000000 6711.0000000 -6.980000019 0.9399999976 1.7100000381 0.9900000095
 6712.0000000 6712.0000000 -6.030000210 0.8799999952 1.5499999523 0.7400000095
 6713.0000000 6713.0000000 -6.380000114 0.9900000095 1.4400000572 0.6200000048
 6714.0000000 6714.0000000 -8.569999695 1.3500000238 1.3799999952 0.6200000048
 6715.0000000 6715.0000000 -9.920000076 1.6399999857 1.3300000429 0.6999999881
 6716.0000000 6716.0000000 -10.56999969 1.7400000095 1.3700000048 0.7599999905
 6717.0000000 6717.0000000 -10.48999977 1.6900000572 1.4800000191 0.7900000215
 6718.0000000 6718.0000000 -9.449999809 1.5399999619 1.6000000238 0.8000000119
 6719.0000000 6719.0000000 -7.869999886 1.4299999475 1.7100000381 0.7699999809
 6720.0000000 6720.0000000 -6.900000095 1.3899999857 1.7500000000 0.7400000095
 6721.0000000 6721.0000000 -6.840000153 1.3600000143 1.7400000095 0.7500000000
 6722.0000000 6722.0000000 -7.559999943 1.3200000525 1.7000000477 0.9100000262
 6723.0000000 6723.0000000 -8.189999580 1.3200000525 1.6900000572 1.1599999666
 6724.0000000 6724.0000000 -8.189999580 1.3400000334 1.7000000477 1.3899999857
 6725.0000000 6725.0000000 -7.510000229 1.3700000048 1.7300000191 1.5199999809
 6726.0000000 6726.0000000 -8.220000267 1.4199999571 1.7799999714 1.5299999714
 6727.0000000 6727.0000000 -9.180000305 1.5599999428 1.8400000334 1.5499999523
 6728.0000000 6728.0000000 -10.03999996 1.7599999905 1.8700000048 1.6799999475
 6729.0000000 6729.0000000 -10.43999958 1.9199999571 1.8200000525 1.9299999475
 6730.0000000 6730.0000000 -10.56999969 2.0199999809 1.6599999666 2.2599999905
 6731.0000000 6731.0000000 -11.47999954 2.0999999046 1.4199999571 2.7400000095
 6732.0000000 6732.0000000 -11.10000038 1.9600000381 1.4099999666 3.3399999142
 6733.0000000 6733.0000000 -8.619999886 1.6100000143 1.4800000191 3.7500000000
 6734.0000000 6734.0000000 -6.500000000 1.4900000095 1.6499999762 3.1700000763
 6735.0000000 6735.0000000 -5.719999790 1.4900000095 1.8400000334 2.3399999142
 6736.0000000 6736.0000000 -5.670000076 1.4900000095 1.9600000381 1.8500000238
 6737.0000000 6737.0000000 -5.900000095 1.5199999809 2.0000000000 1.7200000286
 6738.0000000 6738.0000000 -6.440000057 1.5900000334 2.0099999905 1.5599999428
 6739.0000000 6739.0000000 -7.130000114 1.6799999475 2.0399999619 1.4099999666
 6740.0000000 6740.0000000 -7.610000134 1.7799999714 2.1500000954 1.3400000334
 6741.0000000 6741.0000000 -8.039999962 1.8899999857 2.2100000381 1.3700000048
 6742.0000000 6742.0000000 -8.520000458 1.9900000095 2.2500000000 1.4199999571
 6743.0000000 6743.0000000 -8.779999733 2.1300001144 2.2999999523 1.4299999475
 6744.0000000 6744.0000000 -9.239999771 2.2799999714 2.3399999142 1.4600000381
 6745.0000000 6745.0000000 -9.390000343 2.4000000954 2.3499999046 1.5599999428
 6746.0000000 6746.0000000 -9.449999809 2.5199999809 2.3699998856 1.6399999857
 6747.0000000 6747.0000000 -9.560000420 2.5699999332 2.4300000668 1.7100000381
 6748.0000000 6748.0000000 -9.770000458 2.5599999428 2.4900000095 1.8400000334
 6749.0000000 6749.0000000 -9.970000267 2.5299999714 2.4800000191 1.9400000572
 6750.0000000 6750.0000000 -10.18000031 2.5299999714 2.4100000858 2.0799999237
 6751.0000000 6751.0000000 -10.38000011 2.5499999523 2.3699998856 2.3399999142
 6752.0000000 6752.0000000 -10.38000011 2.4900000095 2.2799999714 2.5699999332
 6753.0000000 6753.0000000 -10.18000031 2.3599998951 2.2300000191 2.5499999523
 6754.0000000 6754.0000000 -9.979999542 2.2100000381 2.2400000095 2.4400000572
 6755.0000000 6755.0000000 -9.829999924 2.1300001144 2.2000000477 2.3699998856
 6756.0000000 6756.0000000 -9.600000381 2.0299999714 2.0899999142 2.3499999046
 6757.0000000 6757.0000000 -9.329999924 1.8600000143 2.0000000000 2.3199999332
 6758.0000000 6758.0000000 -8.890000343 1.7000000477 1.9700000286 2.2899999619
 6759.0000000 6759.0000000 -7.940000057 1.6000000238 1.9800000191 2.1600000858
 6760.0000000 6760.0000000 -7.349999905 1.5499999523 2.0399999619 1.9700000286
 6761.0000000 6761.0000000 -7.789999962 1.6299999952 2.0999999046 1.8799999952
 6762.0000000 6762.0000000 -9.029999733 1.8400000334 2.1600000858 1.8099999428
 6763.0000000 6763.0000000 -11.28999996 2.2400000095 2.2100000381 1.7899999619
 6764.0000000 6764.0000000 -14.42000008 2.6600000858 2.2599999905 1.8799999952
 6765.0000000 6765.0000000 -16.52000046 2.9000000954 2.3900001049 2.1199998856
 6766.0000000 6766.0000000 -17.73999977 3.1099998951 2.5399999619 2.3900001049
 6767.0000000 6767.0000000 -18.12000084 3.3599998951 2.6500000954 2.7599999905
 6768.0000000 6768.0000000 -17.80999947 3.5599999428 2.6300001144 3.0999999046
 6769.0000000 6769.0000000 -17.29000092 3.6500000954 2.5299999714 3.5399999619
 6770.0000000 6770.0000000 -16.12000084 3.2799999714 2.3499999046 3.7599999905
 6771.0000000 6771.0000000 -14.35999966 2.8399999142 2.1400001049 3.6700000763
 6772.0000000 6772.0000000 -12.05000019 2.4000000954 2.0199999809 3.3699998856
 6773.0000000 6773.0000000 -9.859999657 1.9900000095 1.9500000477 3.1700000763
 6774.0000000 6774.0000000 -8.020000458 1.6299999952 1.9099999666 2.6199998856
 6775.0000000 6775.0000000 -7.059999943 1.4400000572 1.8799999952 1.9900000095
 6776.0000000 6776.0000000 -6.460000038 1.3200000525 1.8400000334 1.6200000048
 6777.0000000 6777.0000000 -5.539999962 1.2899999619 1.7400000095 1.4400000572
 6778.0000000 6778.0000000 -4.550000191 1.2699999809 1.6799999475 1.3400000334
 6779.0000000 6779.0000000 -3.809999943 1.2300000191 1.6399999857 1.2899999619
 6780.0000000 6780.0000000 -3.259999990 1.1799999475 1.6299999952 1.3099999428
 6781.0000000 6781.0000000 -2.960000038 1.1699999571 1.6499999762 1.2300000191
 6782.0000000 6782.0000000 -3.410000086 1.2300000191 1.6799999475 1.1399999857
 6783.0000000 6783.0000000 -4.170000076 1.3700000048 1.6799999475 1.2100000381
 6784.0000000 6784.0000000 -4.840000153 1.5599999428 1.6399999857 1.4299999475
 6785.0000000 6785.0000000 -5.159999847 1.7100000381 1.5900000334 1.7300000191
 6786.0000000 6786.0000000 -5.380000114 1.7599999905 1.5599999428 2.0299999714
 6787.0000000 6787.0000000 -5.449999809 1.6499999762 1.6200000048 2.2799999714
 6788.0000000 6788.0000000 -5.340000153 1.5299999714 1.7500000000 2.3199999332
 6789.0000000 6789.0000000 -5.190000057 1.4800000191 1.8799999952 2.1400001049
 6790.0000000 6790.0000000 -5.139999866 1.4900000095 2.0000000000 1.9400000572
 6791.0000000 6791.0000000 -5.440000057 1.6100000143 2.1099998951 1.7899999619
