# LAS format log file from PETREL
# Project units are specified as depth units
#==================================================================
~Version information
VERS.   2.0:
WRAP.   NO:
#==================================================================
~Well
STRT .m      4650.0000000 :
STOP .m      7050.0000000 :
STEP .m     1.00000000 :
NULL .        -999.250000 :
COMP.           : COMPANY
WELL.  WELL_3   : WELL
FLD.            : FIELD
LOC.            : LOCATION
SRVC.           : SERVICE COMPANY
DATE.  2023-03-20 17:52:46   : Log Export Date {yyyy-MM-dd HH:mm:ss}
PROV.           : PROVINCE
UWI.   WELL_3   : UNIQUE WELL ID
API.            : API NUMBER
#==================================================================
~Curve
DEPT .m                   : DEPTH
Depth .m                  : Depth
SP .mV                    : SP
SN .ohm.m                 : SN
LN .ohm.m                 : LN
LAT .ohm.m                : LAT
~Parameter
#==================================================================
~Ascii
# ...
 4956.0000000 4956.0000000 -6.510000229 1.2200000286 1.3500000238 2.1700000763
 4957.0000000 4957.0000000 -7.260000229 1.2899999619 1.3200000525 2.2100000381
 4958.0000000 4958.0000000 -7.610000134 1.2899999619 1.2999999523 2.2500000000
 4959.0000000 4959.0000000 -7.750000000 1.2300000191 1.3400000334 2.2100000381
 4960.0000000 4960.0000000 -7.599999905 1.1399999857 1.4400000572 1.9400000572
 4961.0000000 4961.0000000 -7.349999905 1.0800000429 1.5099999905 1.7599999905
 4962.0000000 4962.0000000 -7.780000210 1.0599999428 1.5499999523 1.5599999428
 4963.0000000 4963.0000000 -8.119999886 1.0399999619 1.5099999905 1.4400000572
 4964.0000000 4964.0000000 -8.039999962 1.0199999809 1.4400000572 1.4600000381
 4965.0000000 4965.0000000 -7.269999981 1.0099999905 1.3899999857 1.5299999714
 4966.0000000 4966.0000000 -6.380000114 1.0099999905 1.3500000238 1.5900000334
 4967.0000000 4967.0000000 -5.880000114 1.0199999809 1.3300000429 1.6100000143
 4968.0000000 4968.0000000 -5.829999924 1.0399999619 1.3300000429 1.5800000429
 4969.0000000 4969.0000000 -5.280000210 1.0499999523 1.3300000429 1.5599999428
 4970.0000000 4970.0000000 -3.799999952 1.0800000429 1.3300000429 1.5599999428
 4971.0000000 4971.0000000 -2.569999933 1.1100000143 1.3300000429 1.6100000143
 4972.0000000 4972.0000000 -1.750000000 1.1299999952 1.3300000429 1.6599999666
 4973.0000000 4973.0000000 -1.429999948 1.1100000143 1.3300000429 1.7100000381
 4974.0000000 4974.0000000 -1.419999957 1.0499999523 1.3400000334 1.7599999905
 4975.0000000 4975.0000000 -1.679999948 1.0099999905 1.3600000143 1.8200000525
 4976.0000000 4976.0000000 -2.640000105 1.0499999523 1.3799999952 1.8099999428
 4977.0000000 4977.0000000 -3.980000019 1.1499999762 1.4299999475 1.7400000095
 4978.0000000 4978.0000000 -5.269999981 1.3300000429 1.5199999809 1.6499999762
 4979.0000000 4979.0000000 -6.050000191 1.5199999809 1.5900000334 1.6100000143
 4980.0000000 4980.0000000 -6.489999771 1.7000000477 1.6799999475 1.5800000429
 4981.0000000 4981.0000000 -7.369999886 1.8799999952 1.7599999905 1.6299999952
 4982.0000000 4982.0000000 -8.670000076 2.0099999905 1.8200000525 1.7100000381
 4983.0000000 4983.0000000 -9.350000381 2.0399999619 1.7699999809 1.7999999523
 4984.0000000 4984.0000000 -9.789999962 2.0399999619 1.6599999666 1.8500000238
 4985.0000000 4985.0000000 -11.15999985 1.9299999475 1.5499999523 2.0000000000
 4986.0000000 4986.0000000 -12.02000046 1.6499999762 1.4700000286 2.0999999046
 4987.0000000 4987.0000000 -10.81000042 1.3600000143 1.4700000286 1.9400000572
 4988.0000000 4988.0000000 -9.060000420 1.2100000381 1.5199999809 1.7200000286
 4989.0000000 4989.0000000 -7.539999962 1.1299999952 1.5599999428 1.4800000191
 4990.0000000 4990.0000000 -7.710000038 1.1299999952 1.5800000429 1.3500000238
 4991.0000000 4991.0000000 -8.319999695 1.1599999666 1.5800000429 1.3500000238
 4992.0000000 4992.0000000 -8.439999580 1.2100000381 1.5700000525 1.3700000048
 4993.0000000 4993.0000000 -8.260000229 1.2699999809 1.5700000525 1.4099999666
 4994.0000000 4994.0000000 -7.800000191 1.3400000334 1.5700000525 1.4500000477
 4995.0000000 4995.0000000 -7.360000134 1.3799999952 1.5900000334 1.5499999523
 4996.0000000 4996.0000000 -7.019999981 1.3999999762 1.5900000334 1.6599999666
 4997.0000000 4997.0000000 -5.760000229 1.3999999762 1.5700000525 1.7300000191
 4998.0000000 4998.0000000 -4.480000019 1.3600000143 1.5299999714 1.7799999714
 4999.0000000 4999.0000000 -4.349999905 1.2999999523 1.5000000000 1.8300000429
 5000.0000000 5000.0000000 -4.590000153 1.2899999619 1.4800000191 1.9099999666
 5001.0000000 5001.0000000 -4.349999905 1.2200000286 1.4500000477 1.9500000477
 5002.0000000 5002.0000000 -3.740000010 1.1299999952 1.4400000572 1.8600000143
 5003.0000000 5003.0000000 -3.069999933 1.0399999619 1.4700000286 1.7300000191
 5004.0000000 5004.0000000 -2.460000038 1.0000000000 1.5000000000 1.6299999952
 5005.0000000 5005.0000000 -2.069999933 1.0700000525 1.5199999809 1.6299999952
 5006.0000000 5006.0000000 -2.819999933 1.2200000286 1.5299999714 1.6499999762
 5007.0000000 5007.0000000 -4.429999828 1.3999999762 1.5299999714 1.6299999952
 5008.0000000 5008.0000000 -5.369999886 1.5599999428 1.5499999523 1.6900000572
 5009.0000000 5009.0000000 -5.679999828 1.6399999857 1.5900000334 1.7999999523
 5010.0000000 5010.0000000 -5.500000000 1.6699999571 1.7000000477 1.8999999762
 5011.0000000 5011.0000000 -5.119999886 1.6499999762 1.7899999619 1.9500000477
 5012.0000000 5012.0000000 -4.690000057 1.6000000238 1.8600000143 1.8999999762
 5013.0000000 5013.0000000 -4.309999943 1.5800000429 1.8799999952 1.8300000429
 5014.0000000 5014.0000000 -4.380000114 1.5399999619 1.8799999952 1.7899999619
 5015.0000000 5015.0000000 -4.360000134 1.5099999905 1.8999999762 1.8300000429
 5016.0000000 5016.0000000 -4.360000134 1.5000000000 1.9400000572 1.8400000334
 5017.0000000 5017.0000000 -5.170000076 1.5499999523 2.0199999809 1.7400000095
 5018.0000000 5018.0000000 -6.250000000 1.6599999666 2.0799999237 1.6699999571
 5019.0000000 5019.0000000 -6.860000134 1.7899999619 2.0799999237 1.6900000572
 5020.0000000 5020.0000000 -7.469999790 1.9099999666 2.0699999332 1.8300000429
 5021.0000000 5021.0000000 -8.270000458 1.9600000381 2.0499999523 1.9900000095
 5022.0000000 5022.0000000 -8.649999619 1.9299999475 2.0299999714 2.0699999332
 5023.0000000 5023.0000000 -8.390000343 1.8400000334 2.0199999809 2.1099998951
 5024.0000000 5024.0000000 -7.630000114 1.7300000191 2.0499999523 2.1300001144
 5025.0000000 5025.0000000 -6.820000172 1.6499999762 2.0499999523 2.1099998951
 5026.0000000 5026.0000000 -6.349999905 1.6499999762 1.9900000095 2.0899999142
 5027.0000000 5027.0000000 -6.429999828 1.6299999952 1.9099999666 2.2000000477
 5028.0000000 5028.0000000 -6.039999962 1.6200000048 1.8099999428 2.3900001049
 5029.0000000 5029.0000000 -5.000000000 1.6000000238 1.7699999809 2.4700000286
 5030.0000000 5030.0000000 -4.380000114 1.5199999809 1.7799999714 2.3499999046
 5031.0000000 5031.0000000 -3.799999952 1.4299999475 1.8200000525 2.2200000286
 5032.0000000 5032.0000000 -3.640000105 1.3600000143 1.8600000143 2.1400001049
 5033.0000000 5033.0000000 -4.079999924 1.3200000525 1.8400000334 2.0099999905
 5034.0000000 5034.0000000 -4.860000134 1.3099999428 1.7899999619 1.9199999571
 5035.0000000 5035.0000000 -5.260000229 1.3200000525 1.7400000095 1.9800000191
 5036.0000000 5036.0000000 -4.840000153 1.2999999523 1.6799999475 2.0699999332
 5037.0000000 5037.0000000 -4.320000172 1.2300000191 1.6200000048 2.1099998951
 5038.0000000 5038.0000000 -4.099999905 1.1900000572 1.6100000143 2.0899999142
 5039.0000000 5039.0000000 -4.119999886 1.1799999475 1.6299999952 2.0999999046
 5040.0000000 5040.0000000 -4.230000019 1.1499999762 1.6299999952 2.0999999046
 5041.0000000 5041.0000000 -4.269999981 1.1499999762 1.6299999952 2.0399999619
 5042.0000000 5042.0000000 -4.289999962 1.2100000381 1.6399999857 1.9900000095
 5043.0000000 5043.0000000 -4.510000229 1.2899999619 1.6699999571 1.9600000381
 5044.0000000 5044.0000000 -4.489999771 1.3500000238 1.7200000286 1.9600000381
 5045.0000000 5045.0000000 -3.920000076 1.3899999857 1.7300000191 2.0299999714
 5046.0000000 5046.0000000 -3.720000029 1.3899999857 1.6200000048 2.1900000572
 5047.0000000 5047.0000000 -3.509999990 1.3999999762 1.5299999714 2.3900001049
 5048.0000000 5048.0000000 -3.609999895 1.3600000143 1.5099999905 2.5299999714
 5049.0000000 5049.0000000 -2.890000105 1.2699999809 1.5299999714 2.5899999142
 5050.0000000 5050.0000000 -2.250000000 1.1799999475 1.5599999428 2.2200000286
 5051.0000000 5051.0000000 -2.740000010 1.1399999857 1.5900000334 2.0299999714
 5052.0000000 5052.0000000 -3.339999914 1.1599999666 1.5099999905 1.9800000191
 5053.0000000 5053.0000000 -4.760000229 1.2300000191 1.4199999571 2.1400001049
 5054.0000000 5054.0000000 -5.500000000 1.2899999619 1.3600000143 2.3399999142
 5055.0000000 5055.0000000 -5.119999886 1.2400000095 1.3099999428 2.3699998856
 5056.0000000 5056.0000000 -4.530000210 1.1200000048 1.3099999428 2.2699999809
 5057.0000000 5057.0000000 -4.269999981 1.0800000429 1.3500000238 2.1400001049
