# LAS format log file from PETREL
# Project units are specified as depth units
#==================================================================
~Version information
VERS.   2.0:
WRAP.   NO:
#==================================================================
~Well
STRT .m      3000.0000000 :
STOP .m      6457.0000000 :
STEP .m     1.00000000 :
NULL .        -999.250000 :
COMP.           : COMPANY
WELL.  WELL_1   : WELL
FLD.            : FIELD
LOC.            : LOCATION
SRVC.           : SERVICE COMPANY
DATE.  2023-03-20 17:52:46   : Log Export Date {yyyy-MM-dd HH:mm:ss}
PROV.           : PROVINCE
UWI.   WELL_1   : UNIQUE WELL ID
API.            : API NUMBER
#==================================================================
~Curve
DEPT .m                   : DEPTH
Depth .m                  : Depth
SP .mV                    : SP
SN .ohm.m                 : SN
LN .ohm.m                 : LN
~Parameter
#==================================================================
~Ascii
# ...
 3610.0000000 3610.0000000 6.7600002289 1.2999999523 1.6599999666
 3611.0000000 3611.0000000 6.5199999809 1.2699999809 1.5900000334
 3612.0000000 3612.0000000 6.2100000381 1.2500000000 1.5099999905
 3613.0000000 3613.0000000 5.8699998856 1.2100000381 1.4299999475
 3614.0000000 3614.0000000 5.5300002098 1.1299999952 1.4199999571
 3615.0000000 3615.0000000 5.1399998665 1.0499999523 1.4299999475
 3616.0000000 3616.0000000 4.7399997711 1.0199999809 1.4299999475
 3617.0000000 3617.0000000 4.3299999237 1.0299999714 1.4500000477
 3618.0000000 3618.0000000 3.6500000954 1.0499999523 1.4800000191
 3619.0000000 3619.0000000 2.9200000763 1.1299999952 1.5199999809
 3620.0000000 3620.0000000 2.2400000095 1.2100000381 1.5599999428
 3621.0000000 3621.0000000 1.6000000238 1.2799999714 1.5499999523
 3622.0000000 3622.0000000 2.2500000000 1.2500000000 1.5199999809
 3623.0000000 3623.0000000 3.5899999142 1.2000000477 1.4800000191
 3624.0000000 3624.0000000 4.8000001907 1.1100000143 1.3999999762
 3625.0000000 3625.0000000 5.9800000191 1.0299999714 1.2899999619
 3626.0000000 3626.0000000 7.0700001717 0.9800000191 1.1799999475
 3627.0000000 3627.0000000 8.0299997330 0.9700000286 1.1499999762
 3628.0000000 3628.0000000 8.6599998474 0.9599999785 1.1599999666
 3629.0000000 3629.0000000 9.2899999619 0.9700000286 1.1900000572
 3630.0000000 3630.0000000 8.9099998474 1.0099999905 1.2400000095
 3631.0000000 3631.0000000 8.3199996948 1.0499999523 1.2899999619
 3632.0000000 3632.0000000 7.7100000381 1.0900000334 1.3200000525
 3633.0000000 3633.0000000 6.9600000381 1.1299999952 1.3300000429
 3634.0000000 3634.0000000 6.4299998283 1.1599999666 1.3400000334
 3635.0000000 3635.0000000 6.7100000381 1.1900000572 1.3600000143
 3636.0000000 3636.0000000 6.9699997902 1.2100000381 1.3700000048
 3637.0000000 3637.0000000 7.0199999809 1.2400000095 1.3799999952
 3638.0000000 3638.0000000 6.8000001907 1.2599999905 1.3700000048
 3639.0000000 3639.0000000 6.7100000381 1.2699999809 1.3700000048
 3640.0000000 3640.0000000 7.3400001526 1.2799999714 1.3700000048
 3641.0000000 3641.0000000 8.3500003815 1.2799999714 1.3899999857
 3642.0000000 3642.0000000 8.2100000381 1.2899999619 1.3999999762
 3643.0000000 3643.0000000 7.8400001526 1.2999999523 1.4199999571
 3644.0000000 3644.0000000 7.4699997902 1.2799999714 1.4299999475
 3645.0000000 3645.0000000 7.0999999046 1.2599999905 1.4400000572
 3646.0000000 3646.0000000 6.8299999237 1.2500000000 1.4500000477
 3647.0000000 3647.0000000 6.5599999428 1.2300000191 1.4700000286
 3648.0000000 3648.0000000 6.2800002098 1.2100000381 1.4299999475
 3649.0000000 3649.0000000 5.9600000381 1.1699999571 1.3600000143
 3650.0000000 3650.0000000 5.5799999237 1.1200000048 1.2899999619
 3651.0000000 3651.0000000 5.2100000381 1.0700000525 1.2300000191
 3652.0000000 3652.0000000 4.8699998856 1.0199999809 1.1699999571
 3653.0000000 3653.0000000 5.0900001526 1.0000000000 1.1100000143
 3654.0000000 3654.0000000 6.1599998474 0.9900000095 1.0900000334
 3655.0000000 3655.0000000 7.1199998856 0.9700000286 1.0900000334
 3656.0000000 3656.0000000 7.0300002098 0.9599999785 1.0900000334
 3657.0000000 3657.0000000 6.6700000763 1.0000000000 1.0900000334
 3658.0000000 3658.0000000 6.3200001717 1.0399999619 1.2100000381
 3659.0000000 3659.0000000 6.1900000572 1.0900000334 1.3200000525
 3660.0000000 3660.0000000 6.0500001907 1.2599999905 1.3999999762
 3661.0000000 3661.0000000 5.9200000763 1.4400000572 1.4700000286
 3662.0000000 3662.0000000 6.0000000000 1.5299999714 1.5199999809
 3663.0000000 3663.0000000 6.2300000191 1.5399999619 1.4199999571
 3664.0000000 3664.0000000 6.4699997902 1.5199999809 1.3200000525
 3665.0000000 3665.0000000 6.7899999619 1.5000000000 1.2200000286
 3666.0000000 3666.0000000 7.1700000763 1.4800000191 1.1100000143
 3667.0000000 3667.0000000 7.5500001907 1.4600000381 1.0099999905
 3668.0000000 3668.0000000 7.8699998856 1.4400000572 1.0099999905
 3669.0000000 3669.0000000 7.9499998093 1.4199999571 1.0399999619
 3670.0000000 3670.0000000 8.0200004578 1.4099999666 1.0800000429
 3671.0000000 3671.0000000 7.7199997902 1.3899999857 1.1299999952
 3672.0000000 3672.0000000 7.2300000191 1.3899999857 1.2000000477
 3673.0000000 3673.0000000 6.7300000191 1.4099999666 1.2699999809
 3674.0000000 3674.0000000 6.2899999619 1.4299999475 1.3400000334
 3675.0000000 3675.0000000 5.9000000954 1.4600000381 1.4199999571
 3676.0000000 3676.0000000 5.5199999809 1.5199999809 1.5000000000
 3677.0000000 3677.0000000 5.5500001907 1.5800000429 1.5800000429
 3678.0000000 3678.0000000 5.7600002289 1.6399999857 1.6599999666
 3679.0000000 3679.0000000 6.2600002289 1.7200000286 1.6900000572
 3680.0000000 3680.0000000 6.7699999809 1.7899999619 1.7300000191
 3681.0000000 3681.0000000 7.3800001144 1.8099999428 1.7599999905
 3682.0000000 3682.0000000 8.6899995804 1.8099999428 1.7799999714
 3683.0000000 3683.0000000 10.000000000 1.7999999523 1.7500000000
 3684.0000000 3684.0000000 10.710000038 1.7699999809 1.7200000286
 3685.0000000 3685.0000000 10.600000381 1.7300000191 1.7000000477
 3686.0000000 3686.0000000 10.210000038 1.6900000572 1.5800000429
 3687.0000000 3687.0000000 9.8299999237 1.6399999857 1.4099999666
 3688.0000000 3688.0000000 9.5000000000 1.6000000238 1.2300000191
 3689.0000000 3689.0000000 9.1899995804 1.5700000525 1.0800000429
 3690.0000000 3690.0000000 9.1700000763 1.5499999523 0.9399999976
 3691.0000000 3691.0000000 9.6000003815 1.5299999714 0.8399999738
 3692.0000000 3692.0000000 10.039999962 1.5099999905 0.8500000238
 3693.0000000 3693.0000000 10.500000000 1.5099999905 0.8799999952
 3694.0000000 3694.0000000 10.949999809 1.5299999714 1.0299999714
 3695.0000000 3695.0000000 11.409999847 1.5399999619 1.1900000572
 3696.0000000 3696.0000000 11.699999809 1.5599999428 1.2699999809
 3697.0000000 3697.0000000 11.960000038 1.5700000525 1.3099999428
 3698.0000000 3698.0000000 12.029999733 1.5900000334 1.3500000238
 3699.0000000 3699.0000000 11.819999695 1.6100000143 1.3799999952
 3700.0000000 3700.0000000 11.600000381 1.6200000048 1.3999999762
 3701.0000000 3701.0000000 11.310000420 1.6399999857 1.4299999475
 3702.0000000 3702.0000000 10.930000305 1.6599999666 1.5000000000
 3703.0000000 3703.0000000 10.539999962 1.6299999952 1.6299999952
 3704.0000000 3704.0000000 10.529999733 1.5800000429 1.7799999714
 3705.0000000 3705.0000000 10.680000305 1.5299999714 1.9700000286
 3706.0000000 3706.0000000 10.979999542 1.5499999523 1.9900000095
 3707.0000000 3707.0000000 11.270000458 1.5800000429 1.9299999475
 3708.0000000 3708.0000000 11.250000000 1.6100000143 1.7400000095
 3709.0000000 3709.0000000 11.119999886 1.6399999857 1.5399999619
 3710.0000000 3710.0000000 10.989999771 1.6599999666 1.4299999475
 3711.0000000 3711.0000000 10.859999657 1.6799999475 1.3600000143
 3712.0000000 3712.0000000 10.460000038 1.7000000477 1.2899999619
 3713.0000000 3713.0000000 10.000000000 1.6399999857 1.2100000381
 3714.0000000 3714.0000000 9.5299997330 1.5499999523 1.1200000048
 3715.0000000 3715.0000000 7.9000000954 1.4500000477 1.0399999619
 3716.0000000 3716.0000000 5.0599999428 1.3700000048 1.0000000000
 3717.0000000 3717.0000000 4.4600000381 1.2999999523 0.9700000286
 3718.0000000 3718.0000000 5.9600000381 1.2300000191 0.9300000072
 3719.0000000 3719.0000000 6.6399998665 1.1699999571 0.9499999881
 3720.0000000 3720.0000000 6.6700000763 1.1900000572 0.9800000191
 3721.0000000 3721.0000000 6.6999998093 1.2000000477 1.0000000000
 3722.0000000 3722.0000000 6.4400000572 1.2200000286 1.0299999714
 3723.0000000 3723.0000000 6.1900000572 1.2400000095 1.0700000525
 3724.0000000 3724.0000000 5.9299998283 1.2599999905 1.1200000048
 3725.0000000 3725.0000000 5.1199998856 1.2999999523 1.1799999475
 3726.0000000 3726.0000000 4.2100000381 1.3400000334 1.2300000191
 3727.0000000 3727.0000000 3.3699998856 1.3799999952 1.2799999714
 3728.0000000 3728.0000000 2.7799999714 1.4199999571 1.3300000429
 3729.0000000 3729.0000000 2.9200000763 1.4700000286 1.3700000048
 3730.0000000 3730.0000000 3.8199999332 1.5099999905 1.4199999571
 3731.0000000 3731.0000000 5.1700000763 1.5499999523 1.4600000381
