# LAS format log file from PETREL
# Project units are specified as depth units
#==================================================================
~Version information
VERS.   2.0:
WRAP.   NO:
#==================================================================
~Well
STRT .m      3000.0000000 :
STOP .m      7750.0000000 :
STEP .m     1.00000000 :
NULL .        -999.250000 :
COMP.           : COMPANY
WELL.  WELL_2   : WELL
FLD.            : FIELD
LOC.            : LOCATION
SRVC.           : SERVICE COMPANY
DATE.  2023-03-20 17:52:46   : Log Export Date {yyyy-MM-dd HH:mm:ss}
PROV.           : PROVINCE
UWI.   WELL_2   : UNIQUE WELL ID
API.            : API NUMBER
#==================================================================
~Curve
DEPT .m                   : DEPTH
Depth .m                  : Depth
SP .mV                    : SP
SN .ohm.m                 : SN
LN .ohm.m                 : LN
LAT .ohm.m                : LAT
~Parameter
#==================================================================
~Ascii
 3000.0000000 3000.0000000 -14.60000038 3.3199999332 3.1800000668 3.1800000668
 3001.0000000 3001.0000000 -14.27999973 3.4100000858 3.2200000286 3.2200000286
 3002.0000000 3002.0000000 -14.36999989 3.4700000286 3.2200000286 3.2200000286
 3003.0000000 3003.0000000 -14.36999989 3.4500000477 3.1800000668 3.1800000668
 3004.0000000 3004.0000000 -14.64000034 3.3900001049 3.1700000763 3.1700000763
 3005.0000000 3005.0000000 -15.35999966 3.3399999142 3.1500000954 3.1500000954
 3006.0000000 3006.0000000 -15.81000042 3.2899999619 3.1400001049 3.1400001049
 3007.0000000 3007.0000000 -16.12000084 3.2300000191 3.1500000954 3.1500000954
 3008.0000000 3008.0000000 -15.69999981 3.1900000572 3.1300001144 3.1300001144
 3009.0000000 3009.0000000 -15.03999996 3.1900000572 3.0999999046 3.0999999046
 3010.0000000 3010.0000000 -14.19999981 3.2799999714 3.0299999714 3.0299999714
 3011.0000000 3011.0000000 -13.19999981 3.5000000000 2.9000000954 2.9000000954
 3012.0000000 3012.0000000 -11.02999973 3.4800000191 2.6900000572 2.6900000572
 3013.0000000 3013.0000000 -8.899999619 3.2200000286 2.6199998856 2.6199998856
 3014.0000000 3014.0000000 -5.260000229 2.9200000763 2.6400001049 2.6400001049
 3015.0000000 3015.0000000 -0.870000005 2.5299999714 2.7000000477 2.7000000477
 3016.0000000 3016.0000000 1.1100000143 2.2500000000 2.7500000000 2.7500000000
 3017.0000000 3017.0000000 1.7500000000 2.0699999332 2.7100000381 2.7100000381
 3018.0000000 3018.0000000 1.5900000334 2.0099999905 2.6099998951 2.6099998951
 3019.0000000 3019.0000000 1.5700000525 1.9800000191 2.5499999523 2.5499999523
 3020.0000000 3020.0000000 1.9299999475 2.0000000000 2.4900000095 2.4900000095
 3021.0000000 3021.0000000 1.4099999666 2.0699999332 2.5099999905 2.5099999905
 3022.0000000 3022.0000000 0.9599999785 2.1099998951 2.5399999619 2.5399999619
 3023.0000000 3023.0000000 0.9599999785 2.1300001144 2.4700000286 2.4700000286
 3024.0000000 3024.0000000 1.1599999666 2.0899999142 2.3900001049 2.3900001049
 3025.0000000 3025.0000000 1.0800000429 2.0799999237 2.3499999046 2.3499999046
 3026.0000000 3026.0000000 0.5400000215 2.0599999428 2.3399999142 2.3399999142
 3027.0000000 3027.0000000 0.6800000072 2.0099999905 2.3199999332 2.3199999332
 3028.0000000 3028.0000000 1.0499999523 2.0000000000 2.2999999523 2.2999999523
 3029.0000000 3029.0000000 1.4400000572 2.0000000000 2.2999999523 2.2999999523
 3030.0000000 3030.0000000 1.7000000477 1.9700000286 2.3399999142 2.3399999142
 3031.0000000 3031.0000000 1.9099999666 1.9400000572 2.3900001049 2.3900001049
 3032.0000000 3032.0000000 1.3600000143 1.9299999475 2.4000000954 2.4000000954
 3033.0000000 3033.0000000 0.5899999738 1.9199999571 2.4000000954 2.4000000954
 3034.0000000 3034.0000000 -0.409999996 1.9400000572 2.4000000954 2.4000000954
 3035.0000000 3035.0000000 -1.120000005 2.0099999905 2.4100000858 2.4100000858
 3036.0000000 3036.0000000 -1.389999986 2.1099998951 2.4200000763 2.4200000763
 3037.0000000 3037.0000000 -1.590000033 2.2799999714 2.2699999809 2.2699999809
 3038.0000000 3038.0000000 -2.009999990 2.5299999714 2.1300001144 2.1300001144
 3039.0000000 3039.0000000 -2.430000067 2.8299999237 1.9500000477 1.9500000477
 3040.0000000 3040.0000000 -1.809999943 2.7100000381 1.8999999762 1.8999999762
 3041.0000000 3041.0000000 0.3600000143 2.2300000191 1.9800000191 1.9800000191
 3042.0000000 3042.0000000 1.4700000286 1.9600000381 2.0999999046 2.0999999046
 3043.0000000 3043.0000000 2.0199999809 1.8099999428 2.2200000286 2.2200000286
 3044.0000000 3044.0000000 0.0000000000 1.7300000191 2.3099999428 2.3099999428
 3045.0000000 3045.0000000 -0.730000019 1.7200000286 2.2599999905 2.2599999905
 3046.0000000 3046.0000000 0.2800000012 1.8300000429 2.1600000858 2.1600000858
 3047.0000000 3047.0000000 0.7300000191 1.9299999475 2.0799999237 2.0799999237
 3048.0000000 3048.0000000 0.8999999762 2.0199999809 2.0599999428 2.0599999428
 3049.0000000 3049.0000000 1.1499999762 2.0899999142 2.0599999428 2.0599999428
 3050.0000000 3050.0000000 2.0499999523 2.0999999046 2.1800000668 2.1800000668
 3051.0000000 3051.0000000 3.2400000095 2.0799999237 2.2400000095 2.2400000095
 3052.0000000 3052.0000000 4.0900001526 2.0599999428 2.2899999619 2.2899999619
 3053.0000000 3053.0000000 4.9200000763 2.0299999714 2.3399999142 2.3399999142
 3054.0000000 3054.0000000 4.5100002289 2.0000000000 2.4300000668 2.4300000668
 3055.0000000 3055.0000000 3.5199999809 1.9700000286 2.4400000572 2.4400000572
 3056.0000000 3056.0000000 2.1700000763 1.9299999475 2.3800001144 2.3800001144
 3057.0000000 3057.0000000 1.9299999475 1.8899999857 2.3099999428 2.3099999428
 3058.0000000 3058.0000000 2.4600000381 1.8400000334 2.2599999905 2.2599999905
 3059.0000000 3059.0000000 2.7799999714 1.7799999714 2.2799999714 2.2799999714
 3060.0000000 3060.0000000 3.0499999523 1.7000000477 2.3499999046 2.3499999046
 3061.0000000 3061.0000000 4.2100000381 1.7699999809 2.4200000763 2.4200000763
 3062.0000000 3062.0000000 4.1599998474 1.8999999762 2.4800000191 2.4800000191
 3063.0000000 3063.0000000 2.2799999714 2.1199998856 2.5499999523 2.5499999523
 3064.0000000 3064.0000000 -0.209999993 2.2999999523 2.6199998856 2.6199998856
 3065.0000000 3065.0000000 -0.689999998 2.8599998951 2.6700000763 2.6700000763
 3066.0000000 3066.0000000 0.7200000286 3.4200000763 2.7100000381 2.7100000381
 3067.0000000 3067.0000000 1.4800000191 3.7300000191 2.8499999046 2.8499999046
 3068.0000000 3068.0000000 1.9400000572 3.8699998856 3.0799999237 3.0799999237
 3069.0000000 3069.0000000 3.6800000668 3.9100000858 3.5000000000 3.5000000000
 3070.0000000 3070.0000000 4.3000001907 3.9000000954 3.7000000477 3.7000000477
 3071.0000000 3071.0000000 5.7500000000 3.8900001049 3.7899999619 3.7899999619
 3072.0000000 3072.0000000 6.3899998665 3.8599998951 3.8199999332 3.8199999332
 3073.0000000 3073.0000000 6.6599998474 3.8499999046 3.8199999332 3.8199999332
 3074.0000000 3074.0000000 6.9899997711 3.8599998951 3.8099999428 3.8099999428
 3075.0000000 3075.0000000 7.9699997902 3.8699998856 3.8099999428 3.8099999428
 3076.0000000 3076.0000000 7.9499998093 3.9000000954 3.7999999523 3.7999999523
 3077.0000000 3077.0000000 7.9600000381 3.9400000572 3.7799999714 3.7799999714
 3078.0000000 3078.0000000 8.0399999619 3.9600000381 3.7699999809 3.7699999809
 3079.0000000 3079.0000000 8.1099996567 4.0000000000 3.7699999809 3.7699999809
 3080.0000000 3080.0000000 7.9899997711 3.9100000858 3.7699999809 3.7699999809
 3081.0000000 3081.0000000 7.0599999428 3.7999999523 3.7699999809 3.7699999809
 3082.0000000 3082.0000000 5.7699999809 3.6300001144 3.7599999905 3.7599999905
 3083.0000000 3083.0000000 3.5999999046 3.5299999714 3.7300000191 3.7300000191
 3084.0000000 3084.0000000 1.2899999619 3.4600000381 3.6900000572 3.6900000572
 3085.0000000 3085.0000000 -3.160000086 3.4200000763 3.6700000763 3.6700000763
 3086.0000000 3086.0000000 -2.119999886 3.4900000095 3.6500000954 3.6500000954
 3087.0000000 3087.0000000 0.6200000048 3.7500000000 3.6700000763 3.6700000763
 3088.0000000 3088.0000000 1.6000000238 3.9500000477 3.7200000286 3.7200000286
 3089.0000000 3089.0000000 2.3299999237 4.0599999428 3.7799999714 3.7799999714
 3090.0000000 3090.0000000 3.6700000763 4.1100001335 3.8299999237 3.8299999237
 3091.0000000 3091.0000000 4.1399998665 4.0999999046 3.8699998856 3.8699998856
 3092.0000000 3092.0000000 2.9900000095 3.8900001049 3.9300000668 3.9300000668
 3093.0000000 3093.0000000 1.7699999809 3.7599999905 3.9900000095 3.9900000095
 3094.0000000 3094.0000000 -0.119999997 3.6400001049 4.0399999619 4.0399999619
 3095.0000000 3095.0000000 -1.379999995 3.5599999428 4.0999999046 4.0999999046
 3096.0000000 3096.0000000 -1.730000019 3.5799999237 4.1500000954 4.1500000954
 3097.0000000 3097.0000000 -1.470000029 3.6900000572 4.0900001526 4.0900001526
 3098.0000000 3098.0000000 -0.610000014 3.9600000381 4.0300002098 4.0300002098
 3099.0000000 3099.0000000 0.7099999785 4.0999999046 4.0000000000 4.0000000000
 3100.0000000 3100.0000000 1.7300000191 4.1199998856 3.9400000572 3.9400000572
 3101.0000000 3101.0000000 1.9800000191 4.0900001526 3.8199999332 3.8199999332
