# LAS format log file from PETREL
# Project units are specified as depth units
#==================================================================
~Version information
VERS.   2.0:
WRAP.   NO:
#==================================================================
~Well
STRT .m      3000.0000000 :
STOP .m      7750.0000000 :
STEP .m     1.00000000 :
NULL .        -999.250000 :
COMP.           : COMPANY
WELL.  WELL_2   : WELL
FLD.            : FIELD
LOC.            : LOCATION
SRVC.           : SERVICE COMPANY
DATE.  2023-03-20 17:52:46   : Log Export Date {yyyy-MM-dd HH:mm:ss}
PROV.           : PROVINCE
UWI.   WELL_2   : UNIQUE WELL ID
API.            : API NUMBER
#==================================================================
~Curve
DEPT .m                   : DEPTH
Depth .m                  : Depth
SP .mV                    : SP
SN .ohm.m                 : SN
LN .ohm.m                 : LN
LAT .ohm.m                : LAT
~Parameter
#==================================================================
~Ascii
# ...
 6774.0000000 6774.0000000 -7.309999943 3.2500000000 2.8299999237 2.8299999237
 6775.0000000 6775.0000000 -7.679999828 3.4600000381 2.6199998856 2.6199998856
 6776.0000000 6776.0000000 -7.699999809 3.6400001049 2.5000000000 2.5000000000
 6777.0000000 6777.0000000 -6.960000038 3.2400000095 2.4600000381 2.4600000381
 6778.0000000 6778.0000000 -5.969999790 2.9700000286 2.4800000191 2.4800000191
 6779.0000000 6779.0000000 -5.579999924 2.8299999237 2.5000000000 2.5000000000
 6780.0000000 6780.0000000 -5.210000038 2.8299999237 2.4900000095 2.4900000095
 6781.0000000 6781.0000000 -4.900000095 3.0299999714 2.4600000381 2.4600000381
 6782.0000000 6782.0000000 -5.090000153 3.3900001049 2.4300000668 2.4300000668
 6783.0000000 6783.0000000 -5.889999866 3.8199999332 2.4400000572 2.4400000572
 6784.0000000 6784.0000000 -7.170000076 4.1599998474 2.5299999714 2.5299999714
 6785.0000000 6785.0000000 -8.069999695 4.3299999237 2.7599999905 2.7599999905
 6786.0000000 6786.0000000 -8.699999809 4.5300002098 2.8099999428 2.8099999428
 6787.0000000 6787.0000000 -9.069999695 4.6900000572 2.8299999237 2.8299999237
 6788.0000000 6788.0000000 -8.850000381 4.7899999619 2.5499999523 2.5499999523
 6789.0000000 6789.0000000 -8.659999847 4.4699997902 1.9400000572 1.9400000572
 6790.0000000 6790.0000000 -7.880000114 3.3699998856 1.7300000191 1.7300000191
 6791.0000000 6791.0000000 -4.769999981 2.5299999714 1.5599999428 1.5599999428
 6792.0000000 6792.0000000 -2.720000029 1.6499999762 1.5299999714 1.5299999714
 6793.0000000 6793.0000000 -1.940000057 1.5399999619 1.5599999428 1.5599999428
 6794.0000000 6794.0000000 -1.679999948 1.5599999428 1.5900000334 1.5900000334
 6795.0000000 6795.0000000 -1.470000029 1.5900000334 1.6000000238 1.6000000238
 6796.0000000 6796.0000000 -1.360000014 1.4900000095 1.5499999523 1.5499999523
 6797.0000000 6797.0000000 -1.350000024 1.4199999571 1.4600000381 1.4600000381
 6798.0000000 6798.0000000 -1.419999957 1.3700000048 1.4099999666 1.4099999666
 6799.0000000 6799.0000000 -1.580000043 1.3799999952 1.3500000238 1.3500000238
 6800.0000000 6800.0000000 -1.730000019 1.4099999666 1.3200000525 1.3200000525
 6801.0000000 6801.0000000 -1.860000014 1.4500000477 1.2899999619 1.2899999619
 6802.0000000 6802.0000000 -2.069999933 1.5199999809 1.2599999905 1.2599999905
 6803.0000000 6803.0000000 -2.150000095 1.4900000095 1.2400000095 1.2400000095
 6804.0000000 6804.0000000 -2.009999990 1.4600000381 1.2200000286 1.2200000286
 6805.0000000 6805.0000000 -1.700000048 1.4099999666 1.2100000381 1.2100000381
 6806.0000000 6806.0000000 -1.379999995 1.3700000048 1.1799999475 1.1799999475
 6807.0000000 6807.0000000 -1.179999948 1.3300000429 1.1900000572 1.1900000572
 6808.0000000 6808.0000000 -1.129999995 1.3099999428 1.1900000572 1.1900000572
 6809.0000000 6809.0000000 -1.129999995 1.2799999714 1.1900000572 1.1900000572
 6810.0000000 6810.0000000 -1.129999995 1.2500000000 1.1799999475 1.1799999475
 6811.0000000 6811.0000000 -0.850000024 1.2300000191 1.1599999666 1.1599999666
 6812.0000000 6812.0000000 -0.540000021 1.2200000286 1.1599999666 1.1599999666
 6813.0000000 6813.0000000 -0.419999987 1.2100000381 1.1499999762 1.1499999762
 6814.0000000 6814.0000000 -0.449999988 1.2000000477 1.1499999762 1.1499999762
 6815.0000000 6815.0000000 -0.589999974 1.2000000477 1.1599999666 1.1599999666
 6816.0000000 6816.0000000 -0.740000010 1.2000000477 1.1599999666 1.1599999666
 6817.0000000 6817.0000000 -0.899999976 1.1900000572 1.1599999666 1.1599999666
 6818.0000000 6818.0000000 -1.059999943 1.1900000572 1.1799999475 1.1799999475
 6819.0000000 6819.0000000 -1.309999943 1.1799999475 1.1699999571 1.1699999571
 6820.0000000 6820.0000000 -1.590000033 1.1799999475 1.1699999571 1.1699999571
 6821.0000000 6821.0000000 -1.950000048 1.1799999475 1.1699999571 1.1699999571
 6822.0000000 6822.0000000 -2.329999924 1.1900000572 1.1799999475 1.1799999475
 6823.0000000 6823.0000000 -4.179999828 -99999.00000 -99999.00000 -99999.00000
 6824.0000000 6824.0000000 -5.599999905 -99999.00000 -99999.00000 -99999.00000
 6825.0000000 6825.0000000 -7.949999809 -99999.00000 -99999.00000 -99999.00000
 6826.0000000 6826.0000000 -9.770000458 -99999.00000 -99999.00000 -99999.00000
 6827.0000000 6827.0000000 -12.47999954 -99999.00000 -99999.00000 -99999.00000
 6828.0000000 6828.0000000 -13.88000011 -99999.00000 -99999.00000 -99999.00000
 6829.0000000 6829.0000000 -15.39000034 -99999.00000 -99999.00000 -99999.00000
 6830.0000000 6830.0000000 -17.34000015 -99999.00000 -99999.00000 -99999.00000
 6831.0000000 6831.0000000 -18.54000092 -99999.00000 -99999.00000 -99999.00000
 6832.0000000 6832.0000000 -19.13999939 -99999.00000 -99999.00000 -99999.00000
 6833.0000000 6833.0000000 -19.47999954 -99999.00000 -99999.00000 -99999.00000
 6834.0000000 6834.0000000 -19.67000008 -99999.00000 -99999.00000 -99999.00000
 6835.0000000 6835.0000000 -19.81999969 -99999.00000 -99999.00000 -99999.00000
 6836.0000000 6836.0000000 -19.87999916 -99999.00000 -99999.00000 -99999.00000
 6837.0000000 6837.0000000 -19.88999939 -99999.00000 -99999.00000 -99999.00000
 6838.0000000 6838.0000000 -19.88999939 -99999.00000 -99999.00000 -99999.00000
 6839.0000000 6839.0000000 -19.89999962 -99999.00000 -99999.00000 -99999.00000
 6840.0000000 6840.0000000 -19.32999992 5.4499998093 -99999.00000 -99999.00000
 6841.0000000 6841.0000000 -19.30999947 5.5100002289 -99999.00000 -99999.00000
 6842.0000000 6842.0000000 -19.37999916 5.5399999619 -99999.00000 -99999.00000
 6843.0000000 6843.0000000 -19.50000000 5.4299998283 -99999.00000 -99999.00000
 6844.0000000 6844.0000000 -19.75000000 5.2199997902 -99999.00000 -99999.00000
 6845.0000000 6845.0000000 -20.06999969 4.9200000763 -99999.00000 -99999.00000
 6846.0000000 6846.0000000 -20.26000023 4.7699999809 -99999.00000 -99999.00000
 6847.0000000 6847.0000000 -20.20000076 4.5999999046 -99999.00000 -99999.00000
 6848.0000000 6848.0000000 -20.04000092 4.4800000191 3.9300000668 3.9300000668
 6849.0000000 6849.0000000 -19.80999947 4.3800001144 3.8299999237 3.8299999237
 6850.0000000 6850.0000000 -19.54999924 4.3000001907 3.6400001049 3.6400001049
 6851.0000000 6851.0000000 -19.27000046 4.2399997711 3.3199999332 3.3199999332
 6852.0000000 6852.0000000 -19.06999969 4.1599998474 3.1300001144 3.1300001144
 6853.0000000 6853.0000000 -18.82999992 4.0500001907 2.9900000095 2.9900000095
 6854.0000000 6854.0000000 -18.44000053 3.9100000858 2.8699998856 2.8699998856
 6855.0000000 6855.0000000 -18.02000046 3.7400000095 2.7500000000 2.7500000000
 6856.0000000 6856.0000000 -17.12999916 3.5000000000 2.5699999332 2.5699999332
 6857.0000000 6857.0000000 -15.85999966 3.0000000000 2.3800001144 2.3800001144
 6858.0000000 6858.0000000 -14.27000046 2.6700000763 2.2100000381 2.2100000381
 6859.0000000 6859.0000000 -13.50000000 2.4600000381 2.0799999237 2.0799999237
 6860.0000000 6860.0000000 -10.61999989 2.0599999428 1.8899999857 1.8899999857
 6861.0000000 6861.0000000 -5.760000229 1.6799999475 1.7899999619 1.7899999619
 6862.0000000 6862.0000000 -3.779999971 1.4299999475 1.7100000381 1.7100000381
 6863.0000000 6863.0000000 -2.910000086 1.3099999428 1.6399999857 1.6399999857
 6864.0000000 6864.0000000 -2.269999981 1.3099999428 1.6900000572 1.6900000572
 6865.0000000 6865.0000000 -2.029999971 1.3700000048 1.7300000191 1.7300000191
 6866.0000000 6866.0000000 -2.430000067 1.5000000000 1.8099999428 1.8099999428
 6867.0000000 6867.0000000 -3.150000095 1.7899999619 1.8899999857 1.8899999857
 6868.0000000 6868.0000000 -5.210000038 2.2500000000 1.9400000572 1.9400000572
 6869.0000000 6869.0000000 -6.389999866 2.6199998856 2.0000000000 2.0000000000
 6870.0000000 6870.0000000 -7.500000000 3.1700000763 2.1700000763 2.1700000763
 6871.0000000 6871.0000000 -7.789999962 3.9100000858 2.3599998951 2.3599998951
 6872.0000000 6872.0000000 -8.039999962 4.0599999428 2.5699999332 2.5699999332
 6873.0000000 6873.0000000 -8.119999886 4.1599998474 2.8900001049 2.8900001049
 6874.0000000 6874.0000000 -8.579999924 4.2800002098 3.1500000954 3.1500000954
 6875.0000000 6875.0000000 -8.880000114 4.4899997711 3.3199999332 3.3199999332
