# LAS format log file from PETREL
# Project units are specified as depth units
#==================================================================
~Version information
VERS.   2.0:
WRAP.   NO:
#==================================================================
~Well
STRT .m      4650.0000000 :
STOP .m      7300.0000000 :
STEP .m     1.00000000 :
NULL .        -999.250000 :
COMP.           : COMPANY
WELL.  WELL_6   : WELL
FLD.            : FIELD
LOC.            : LOCATION
SRVC.           : SERVICE COMPANY
DATE.  2023-03-20 17:52:46   : Log Export Date {yyyy-MM-dd HH:mm:ss}
PROV.           : PROVINCE
UWI.   WELL_6   : UNIQUE WELL ID
API.            : API NUMBER
#==================================================================
~Curve
DEPT .m                   : DEPTH
Depth .m                  : Depth
GR .gAPI                  : GR
SP .mV                    : SP
RT .ohm.m                 : RT
~Parameter
#==================================================================
~Ascii
# ...
 7212.0000000 7212.0000000 100.02999878 -2.190000057 1.1799999475
 7213.0000000 7213.0000000 103.09999847 -2.079999924 1.1200000048
 7214.0000000 7214.0000000 96.290000916 -2.460000038 1.0499999523
 7215.0000000 7215.0000000 109.48000336 -3.359999895 1.0299999714
 7216.0000000 7216.0000000 119.41999817 -2.190000057 0.8399999738
 7217.0000000 7217.0000000 114.94000244 -0.939999998 0.6999999881
 7218.0000000 7218.0000000 113.27999878 -0.170000002 0.6800000072
 7219.0000000 7219.0000000 111.30000305 -0.310000002 0.8000000119
 7220.0000000 7220.0000000 114.83999634 -1.419999957 0.8799999952
 7221.0000000 7221.0000000 112.52999878 -1.429999948 1.0000000000
 7222.0000000 7222.0000000 105.58000183 -1.259999990 1.1399999857
 7223.0000000 7223.0000000 100.90000153 -2.160000086 1.4299999475
 7224.0000000 7224.0000000 101.75000000 -3.339999914 1.2899999619
 7225.0000000 7225.0000000 104.62000275 -2.680000067 1.3899999857
 7226.0000000 7226.0000000 112.08000183 -1.539999962 1.5299999714
 7227.0000000 7227.0000000 115.00000000 -1.610000014 1.8799999952
 7228.0000000 7228.0000000 117.87999725 -1.690000057 2.8599998951
 7229.0000000 7229.0000000 122.12999725 -0.509999990 1.8999999762
 7230.0000000 7230.0000000 129.13000488 -0.550000012 1.2799999714
 7231.0000000 7231.0000000 123.30000305 -1.620000005 1.0700000525
 7232.0000000 7232.0000000 105.68000031 -3.130000114 0.8399999738
 7233.0000000 7233.0000000 101.72000122 -3.859999895 0.7400000095
 7234.0000000 7234.0000000 97.279998779 -4.000000000 0.6999999881
 7235.0000000 7235.0000000 101.26000214 -3.400000095 0.7300000191
 7236.0000000 7236.0000000 103.69999695 -3.190000057 0.8100000024
 7237.0000000 7237.0000000 100.51000214 -3.789999962 0.9300000072
 7238.0000000 7238.0000000 96.000000000 -2.900000095 1.1299999952
 7239.0000000 7239.0000000 96.269996643 -1.600000024 1.2999999523
 7240.0000000 7240.0000000 100.34999847 -1.090000033 1.8400000334
 7241.0000000 7241.0000000 107.09999847 -2.180000067 1.4900000095
 7242.0000000 7242.0000000 112.76999664 -2.859999895 1.1900000572
 7243.0000000 7243.0000000 107.81999969 -2.700000048 1.0900000334
 7244.0000000 7244.0000000 105.16999817 -2.650000095 1.1399999857
 7245.0000000 7245.0000000 101.63999939 -3.009999990 0.9300000072
 7246.0000000 7246.0000000 98.410003662 -3.990000010 0.8100000024
 7247.0000000 7247.0000000 99.940002441 -4.360000134 0.7599999905
 7248.0000000 7248.0000000 96.110000610 -3.920000076 0.7500000000
 7249.0000000 7249.0000000 100.83999634 -3.000000000 0.8600000143
 7250.0000000 7250.0000000 94.860000610 -1.970000029 1.1200000048
 7251.0000000 7251.0000000 88.709999084 -2.089999914 2.2699999809
 7252.0000000 7252.0000000 83.250000000 -2.650000095 4.6399998665
 7253.0000000 7253.0000000 94.319999695 -1.759999990 5.0500001907
 7254.0000000 7254.0000000 113.98999786 -1.809999943 2.0699999332
 7255.0000000 7255.0000000 113.01000214 -3.039999962 1.6000000238
 7256.0000000 7256.0000000 105.65000153 -3.299999952 1.2999999523
 7257.0000000 7257.0000000 100.19999695 -3.210000038 1.4600000381
 7258.0000000 7258.0000000 96.269996643 -3.190000057 1.0199999809
 7259.0000000 7259.0000000 89.709999084 -3.250000000 0.9100000262
 7260.0000000 7260.0000000 86.919998169 -2.279999971 0.9800000191
 7261.0000000 7261.0000000 93.930000305 -1.250000000 0.8100000024
 7262.0000000 7262.0000000 102.05000305 -0.769999981 0.7599999905
 7263.0000000 7263.0000000 106.40000153 -1.049999952 0.7900000215
 7264.0000000 7264.0000000 106.44999695 -1.480000019 0.8199999928
 7265.0000000 7265.0000000 98.879997253 -1.669999957 1.1599999666
 7266.0000000 7266.0000000 98.050003052 -1.769999981 1.0599999428
 7267.0000000 7267.0000000 98.400001526 -2.069999933 0.7400000095
 7268.0000000 7268.0000000 99.389999390 -2.700000048 0.7300000191
 7269.0000000 7269.0000000 104.05000305 -3.119999886 0.8799999952
 7270.0000000 7270.0000000 102.94999695 -3.019999981 0.8399999738
 7271.0000000 7271.0000000 101.37000275 -2.279999971 0.8299999833
 7272.0000000 7272.0000000 105.05000305 -1.799999952 0.9599999785
 7273.0000000 7273.0000000 95.419998169 -1.460000038 1.1299999952
 7274.0000000 7274.0000000 104.55999756 -1.190000057 1.1499999762
 7275.0000000 7275.0000000 110.22000122 -1.000000000 0.8999999762
 7276.0000000 7276.0000000 106.70999908 -1.080000043 0.8600000143
 7277.0000000 7277.0000000 102.51999664 -1.529999971 0.8399999738
 7278.0000000 7278.0000000 108.91999817 -1.940000057 0.8500000238
 7279.0000000 7279.0000000 127.33999634 -1.970000029 0.8799999952
 7280.0000000 7280.0000000 125.34999847 -1.899999976 0.7599999905
 7281.0000000 7281.0000000 117.16999817 -1.720000029 0.7099999785
 7282.0000000 7282.0000000 114.16000366 -1.320000052 0.7200000286
 7283.0000000 7283.0000000 116.66000366 -0.759999990 0.7599999905
 7284.0000000 7284.0000000 116.41999817 -0.289999992 0.8299999833
 7285.0000000 7285.0000000 118.84999847 0.0000000000 0.8700000048
 7286.0000000 7286.0000000 109.87000275 0.2000000030 0.8299999833
 7287.0000000 7287.0000000 107.91999817 -0.020000000 0.7900000215
 7288.0000000 7288.0000000 100.34999847 -0.870000005 0.9200000167
 7289.0000000 7289.0000000 95.589996338 -1.250000000 1.3300000429
 7290.0000000 7290.0000000 103.54000092 -0.920000017 2.2799999714
 7291.0000000 7291.0000000 120.15000153 -1.110000014 1.8200000525
 7292.0000000 7292.0000000 119.16999817 -0.709999979 1.1900000572
 7293.0000000 7293.0000000 110.87000275 -0.039999999 1.0499999523
 7294.0000000 7294.0000000 107.72000122 0.5699999928 1.0399999619
 7295.0000000 7295.0000000 101.01000214 1.1000000238 1.0499999523
 7296.0000000 7296.0000000 95.230003357 1.4900000095 1.1900000572
 7297.0000000 7297.0000000 95.540000916 0.7599999905 1.2400000095
 7298.0000000 7298.0000000 96.940002441 0.2500000000 1.1200000048
 7299.0000000 7299.0000000 95.750000000 0.3499999940 0.9399999976
 7300.0000000 7300.0000000 99.889999390 0.0000000000 0.8299999833
