# LAS format log file from PETREL
# Project units are specified as depth units
#==================================================================
~Version information
VERS.   2.0:
WRAP.   NO:
#==================================================================
~Well
STRT .m      4650.0000000 :
STOP .m      7050.0000000 :
STEP .m     1.00000000 :
NULL .        -999.250000 :
COMP.           : COMPANY
WELL.  WELL_3   : WELL
FLD.            : FIELD
LOC.            : LOCATION
SRVC.           : SERVICE COMPANY
DATE.  2023-03-20 17:52:46   : Log Export Date {yyyy-MM-dd HH:mm:ss}
PROV.           : PROVINCE
UWI.   WELL_3   : UNIQUE WELL ID
API.            : API NUMBER
#==================================================================
~Curve
DEPT .m                   : DEPTH
Depth .m                  : Depth
SP .mV                    : SP
SN .ohm.m                 : SN
LN .ohm.m                 : LN
LAT .ohm.m                : LAT
~Parameter
#==================================================================
~Ascii
# ...
 4854.0000000 4854.0000000 -9.050000191 1.9299999475 2.3499999046 2.0599999428
 4855.0000000 4855.0000000 -9.619999886 1.9600000381 2.2999999523 2.0599999428
 4856.0000000 4856.0000000 -10.32999992 1.9900000095 2.2100000381 2.2899999619
 4857.0000000 4857.0000000 -10.78999996 2.0099999905 2.0899999142 2.5699999332
 4858.0000000 4858.0000000 -10.77000046 1.8899999857 2.0399999619 2.7899999619
 4859.0000000 4859.0000000 -10.59000015 1.7699999809 2.0499999523 2.7899999619
 4860.0000000 4860.0000000 -10.48999977 1.7100000381 2.0099999905 2.5999999046
 4861.0000000 4861.0000000 -10.55000019 1.7100000381 1.9299999475 2.5000000000
 4862.0000000 4862.0000000 -11.31999969 1.7300000191 1.8400000334 2.4900000095
 4863.0000000 4863.0000000 -10.94999981 1.7400000095 1.7500000000 2.5499999523
 4864.0000000 4864.0000000 -9.739999771 1.7000000477 1.6900000572 2.6300001144
 4865.0000000 4865.0000000 -8.430000305 1.5800000429 1.6499999762 2.5899999142
 4866.0000000 4866.0000000 -7.230000019 1.4199999571 1.6499999762 2.5199999809
 4867.0000000 4867.0000000 -6.469999790 1.3300000429 1.6599999666 2.3900001049
 4868.0000000 4868.0000000 -6.530000210 1.2999999523 1.6699999571 2.2200000286
 4869.0000000 4869.0000000 -6.849999905 1.2799999714 1.6699999571 2.1199998856
 4870.0000000 4870.0000000 -6.869999886 1.2599999905 1.6699999571 2.0499999523
 4871.0000000 4871.0000000 -7.380000114 1.2899999619 1.7100000381 1.9400000572
 4872.0000000 4872.0000000 -8.199999809 1.4099999666 1.7300000191 1.8700000048
 4873.0000000 4873.0000000 -9.229999542 1.5299999714 1.6799999475 1.8799999952
 4874.0000000 4874.0000000 -11.10999966 1.6399999857 1.6200000048 2.0599999428
 4875.0000000 4875.0000000 -12.19999981 1.7100000381 1.5700000525 2.4000000954
 4876.0000000 4876.0000000 -12.73999977 1.7400000095 1.5299999714 2.5699999332
 4877.0000000 4877.0000000 -12.69999981 1.7200000286 1.5000000000 2.5299999714
 4878.0000000 4878.0000000 -12.10999966 1.5900000334 1.5000000000 2.3399999142
 4879.0000000 4879.0000000 -11.43999958 1.4600000381 1.4800000191 2.2300000191
 4880.0000000 4880.0000000 -10.31000042 1.3099999428 1.4299999475 2.2100000381
 4881.0000000 4881.0000000 -9.979999542 1.2100000381 1.3899999857 2.2100000381
 4882.0000000 4882.0000000 -9.810000420 1.1399999857 1.3700000048 2.1199998856
 4883.0000000 4883.0000000 -9.560000420 1.0499999523 1.3500000238 1.8700000048
 4884.0000000 4884.0000000 -10.02000046 1.0000000000 1.3600000143 1.6399999857
 4885.0000000 4885.0000000 -10.76000023 0.9700000286 1.3600000143 1.5700000525
 4886.0000000 4886.0000000 -11.14000034 0.9499999881 1.3500000238 1.5399999619
 4887.0000000 4887.0000000 -11.01000023 0.9399999976 1.3200000525 1.5000000000
 4888.0000000 4888.0000000 -10.52000046 0.9300000072 1.2999999523 1.4600000381
 4889.0000000 4889.0000000 -9.880000114 0.9399999976 1.2799999714 1.4099999666
 4890.0000000 4890.0000000 -9.170000076 0.9300000072 1.2699999809 1.3999999762
 4891.0000000 4891.0000000 -8.399999619 0.9499999881 1.2799999714 1.4199999571
 4892.0000000 4892.0000000 -7.469999790 0.9800000191 1.3099999428 1.4500000477
 4893.0000000 4893.0000000 -6.599999905 1.0399999619 1.3700000048 1.4600000381
 4894.0000000 4894.0000000 -6.719999790 1.0800000429 1.4299999475 1.4400000572
 4895.0000000 4895.0000000 -8.210000038 1.0900000334 1.4900000095 1.4299999475
 4896.0000000 4896.0000000 -9.180000305 1.1100000143 1.5299999714 1.5000000000
 4897.0000000 4897.0000000 -9.270000458 1.1599999666 1.5299999714 1.5700000525
 4898.0000000 4898.0000000 -8.960000038 1.2400000095 1.5299999714 1.6000000238
 4899.0000000 4899.0000000 -9.149999619 1.3300000429 1.5599999428 1.6799999475
 4900.0000000 4900.0000000 -9.539999962 1.3700000048 1.6299999952 1.7699999809
 4901.0000000 4901.0000000 -9.500000000 1.4500000477 1.7500000000 1.7699999809
 4902.0000000 4902.0000000 -9.039999962 1.5499999523 1.9099999666 1.6299999952
 4903.0000000 4903.0000000 -8.949999809 1.6399999857 2.0499999523 1.5800000429
 4904.0000000 4904.0000000 -9.319999695 1.7300000191 2.1400001049 1.5700000525
 4905.0000000 4905.0000000 -9.880000114 1.9199999571 2.1900000572 1.6699999571
 4906.0000000 4906.0000000 -10.43000031 2.1400001049 2.2000000477 1.7899999619
 4907.0000000 4907.0000000 -11.10000038 2.2799999714 2.2200000286 1.8999999762
 4908.0000000 4908.0000000 -11.75000000 2.3699998856 2.3299999237 2.0399999619
 4909.0000000 4909.0000000 -11.89000034 2.4000000954 2.4700000286 2.1600000858
 4910.0000000 4910.0000000 -11.14999962 2.3800001144 2.6500000954 2.1500000954
 4911.0000000 4911.0000000 -10.92000008 2.4200000763 2.7899999619 2.0000000000
 4912.0000000 4912.0000000 -11.94999981 2.4400000572 2.8699998856 1.9700000286
 4913.0000000 4913.0000000 -13.11999989 2.5999999046 2.7300000191 2.1300001144
 4914.0000000 4914.0000000 -14.02000046 2.7599999905 2.4900000095 2.3599998951
 4915.0000000 4915.0000000 -13.96000004 2.7400000095 2.4100000858 2.5799999237
 4916.0000000 4916.0000000 -12.61999989 2.4400000572 2.3900001049 2.7200000286
 4917.0000000 4917.0000000 -11.19999981 2.1900000572 2.3800001144 2.7100000381
 4918.0000000 4918.0000000 -9.760000229 2.0599999428 2.3800001144 2.5899999142
 4919.0000000 4919.0000000 -9.350000381 1.9199999571 2.4000000954 2.4600000381
 4920.0000000 4920.0000000 -9.069999695 1.8600000143 2.4500000477 2.3800001144
 4921.0000000 4921.0000000 -8.670000076 1.8300000429 2.4700000286 2.1700000763
 4922.0000000 4922.0000000 -9.180000305 1.8600000143 2.4400000572 2.0000000000
 4923.0000000 4923.0000000 -10.27000046 1.9099999666 2.3599998951 2.0499999523
 4924.0000000 4924.0000000 -10.59000015 1.9500000477 2.2699999809 2.3299999237
 4925.0000000 4925.0000000 -9.529999733 1.9600000381 2.2500000000 2.5199999809
 4926.0000000 4926.0000000 -8.420000076 1.8899999857 2.2599999905 2.5399999619
 4927.0000000 4927.0000000 -7.769999981 1.8300000429 2.2799999714 2.5000000000
 4928.0000000 4928.0000000 -7.650000095 1.8300000429 2.2500000000 2.4900000095
 4929.0000000 4929.0000000 -8.119999886 1.7999999523 2.1500000954 2.6800000668
 4930.0000000 4930.0000000 -8.640000343 1.7899999619 2.0399999619 2.7300000191
 4931.0000000 4931.0000000 -8.930000305 1.7799999714 1.9500000477 2.7899999619
 4932.0000000 4932.0000000 -9.220000267 1.7000000477 1.8700000048 2.8900001049
 4933.0000000 4933.0000000 -8.649999619 1.5900000334 1.8300000429 2.9600000381
 4934.0000000 4934.0000000 -8.220000267 1.5000000000 1.7699999809 2.8299999237
 4935.0000000 4935.0000000 -8.470000267 1.4099999666 1.7200000286 2.7599999905
 4936.0000000 4936.0000000 -9.300000191 1.3200000525 1.7000000477 2.6900000572
 4937.0000000 4937.0000000 -10.13000011 1.2799999714 1.6900000572 2.4800000191
 4938.0000000 4938.0000000 -10.90999985 1.3099999428 1.6799999475 2.2500000000
 4939.0000000 4939.0000000 -11.01000023 1.2999999523 1.6699999571 2.1099998951
 4940.0000000 4940.0000000 -10.68999958 1.2999999523 1.6599999666 2.0699999332
 4941.0000000 4941.0000000 -9.880000114 1.3200000525 1.6299999952 2.1099998951
 4942.0000000 4942.0000000 -8.930000305 1.3300000429 1.5900000334 2.1500000954
 4943.0000000 4943.0000000 -7.909999847 1.3099999428 1.5499999523 2.1800000668
 4944.0000000 4944.0000000 -6.949999809 1.2699999809 1.5299999714 2.1900000572
 4945.0000000 4945.0000000 -5.789999962 1.2200000286 1.5000000000 2.1199998856
 4946.0000000 4946.0000000 -5.369999886 1.1599999666 1.4800000191 1.9900000095
 4947.0000000 4947.0000000 -5.039999962 1.1200000048 1.4500000477 1.9199999571
 4948.0000000 4948.0000000 -4.940000057 1.1200000048 1.4299999475 1.9199999571
 4949.0000000 4949.0000000 -5.110000134 1.1000000238 1.4099999666 1.9400000572
 4950.0000000 4950.0000000 -5.320000172 1.0900000334 1.3999999762 1.9500000477
 4951.0000000 4951.0000000 -5.530000210 1.0900000334 1.3899999857 1.9299999475
 4952.0000000 4952.0000000 -5.679999828 1.0800000429 1.3799999952 1.9199999571
 4953.0000000 4953.0000000 -5.599999905 1.0800000429 1.3799999952 1.9700000286
 4954.0000000 4954.0000000 -5.320000172 1.1000000238 1.3799999952 2.0799999237
 4955.0000000 4955.0000000 -5.650000095 1.1299999952 1.3700000048 2.1400001049
