# LAS format log file from PETREL
# Project units are specified as depth units
#==================================================================
~Version information
VERS.   2.0:
WRAP.   NO:
#==================================================================
~Well
STRT .m      3000.0000000 :
STOP .m      6457.0000000 :
STEP .m     1.00000000 :
NULL .        -999.250000 :
COMP.           : COMPANY
WELL.  WELL_1   : WELL
FLD.            : FIELD
LOC.            : LOCATION
SRVC.           : SERVICE COMPANY
DATE.  2023-03-20 17:52:46   : Log Export Date {yyyy-MM-dd HH:mm:ss}
PROV.           : PROVINCE
UWI.   WELL_1   : UNIQUE WELL ID
API.            : API NUMBER
#==================================================================
~Curve
DEPT .m                   : DEPTH
Depth .m                  : Depth
SP .mV                    : SP
SN .ohm.m                 : SN
LN .ohm.m                 : LN
~Parameter
#==================================================================
~Ascii
# ...
 4342.0000000 4342.0000000 7.1100001335 1.6000000238 1.5299999714
 4343.0000000 4343.0000000 6.7600002289 1.6299999952 1.5299999714
 4344.0000000 4344.0000000 6.6199998856 1.6599999666 1.5099999905
 4345.0000000 4345.0000000 6.5399999619 1.6699999571 1.4199999571
 4346.0000000 4346.0000000 6.5599999428 1.6299999952 1.3300000429
 4347.0000000 4347.0000000 6.6300001144 1.6000000238 1.2899999619
 4348.0000000 4348.0000000 6.7800002098 1.5599999428 1.2599999905
 4349.0000000 4349.0000000 6.9600000381 1.5299999714 1.2300000191
 4350.0000000 4350.0000000 7.1500000954 1.5299999714 1.2000000477
 4351.0000000 4351.0000000 7.3400001526 1.5399999619 1.2500000000
 4352.0000000 4352.0000000 7.7600002289 1.5399999619 1.3400000334
 4353.0000000 4353.0000000 8.1899995804 1.5700000525 1.4400000572
 4354.0000000 4354.0000000 8.6099996567 1.6399999857 1.5299999714
 4355.0000000 4355.0000000 9.0399999619 1.7000000477 1.6200000048
 4356.0000000 4356.0000000 9.4499998093 1.7699999809 1.7100000381
 4357.0000000 4357.0000000 9.4899997711 1.8500000238 1.7999999523
 4358.0000000 4358.0000000 9.5299997330 1.9400000572 1.8400000334
 4359.0000000 4359.0000000 9.5699996948 2.0399999619 1.8899999857
 4360.0000000 4360.0000000 9.5399999619 2.1199998856 1.9400000572
 4361.0000000 4361.0000000 9.4600000381 2.2000000477 1.9500000477
 4362.0000000 4362.0000000 9.3800001144 2.2699999809 1.9500000477
 4363.0000000 4363.0000000 9.2899999619 2.3399999142 1.9400000572
 4364.0000000 4364.0000000 9.0299997330 2.3299999237 1.9199999571
 4365.0000000 4365.0000000 8.6300001144 2.3099999428 1.8400000334
 4366.0000000 4366.0000000 8.2200002670 2.2999999523 1.7500000000
 4367.0000000 4367.0000000 7.7800002098 2.2500000000 1.6900000572
 4368.0000000 4368.0000000 7.3400001526 2.2000000477 1.6599999666
 4369.0000000 4369.0000000 6.7399997711 2.1500000954 1.6599999666
 4370.0000000 4370.0000000 5.5399999619 2.3800001144 1.7200000286
 4371.0000000 4371.0000000 3.2799999714 2.8099999428 1.7699999809
 4372.0000000 4372.0000000 -0.280000001 3.2400000095 1.8200000525
 4373.0000000 4373.0000000 -3.750000000 3.5099999905 1.8700000048
 4374.0000000 4374.0000000 -5.650000095 3.3399999142 1.9099999666
 4375.0000000 4375.0000000 -4.960000038 3.0099999905 1.9099999666
 4376.0000000 4376.0000000 -1.899999976 2.4000000954 1.9099999666
 4377.0000000 4377.0000000 1.7100000381 1.9700000286 1.8999999762
 4378.0000000 4378.0000000 4.0599999428 1.7100000381 1.8899999857
 4379.0000000 4379.0000000 5.6599998474 1.5299999714 1.8600000143
 4380.0000000 4380.0000000 6.6900000572 1.5000000000 1.8400000334
 4381.0000000 4381.0000000 7.6399998665 1.4700000286 1.8099999428
 4382.0000000 4382.0000000 8.4799995422 1.5099999905 1.7799999714
 4383.0000000 4383.0000000 9.3000001907 1.5499999523 1.7500000000
 4384.0000000 4384.0000000 9.6199998856 1.5800000429 1.7200000286
 4385.0000000 4385.0000000 9.4799995422 1.5700000525 1.6900000572
 4386.0000000 4386.0000000 9.0299997330 1.4700000286 1.6699999571
 4387.0000000 4387.0000000 8.3299999237 1.3799999952 1.6399999857
 4388.0000000 4388.0000000 8.5200004578 1.3300000429 1.6200000048
 4389.0000000 4389.0000000 8.7899999619 1.2799999714 1.5900000334
 4390.0000000 4390.0000000 9.1400003433 1.2699999809 1.5700000525
 4391.0000000 4391.0000000 9.4899997711 1.2799999714 1.5499999523
 4392.0000000 4392.0000000 9.8400001526 1.2999999523 1.5000000000
 4393.0000000 4393.0000000 10.039999962 1.3600000143 1.4500000477
 4394.0000000 4394.0000000 10.149999619 1.4600000381 1.3999999762
 4395.0000000 4395.0000000 10.220000267 1.5599999428 1.3500000238
 4396.0000000 4396.0000000 10.010000229 1.6499999762 1.3500000238
 4397.0000000 4397.0000000 9.8000001907 1.7100000381 1.3500000238
 4398.0000000 4398.0000000 9.5900001526 1.7699999809 1.3600000143
 4399.0000000 4399.0000000 9.4499998093 1.8300000429 1.3899999857
 4400.0000000 4400.0000000 9.3100004196 1.8600000143 1.4099999666
 4401.0000000 4401.0000000 9.4899997711 1.8700000048 1.4500000477
 4402.0000000 4402.0000000 9.6800003052 1.8700000048 1.5099999905
 4403.0000000 4403.0000000 10.039999962 1.7999999523 1.5700000525
 4404.0000000 4404.0000000 10.619999886 1.7200000286 1.6000000238
 4405.0000000 4405.0000000 11.100000381 1.6299999952 1.5900000334
 4406.0000000 4406.0000000 10.630000114 1.5000000000 1.5399999619
 4407.0000000 4407.0000000 10.149999619 1.3600000143 1.4800000191
 4408.0000000 4408.0000000 9.7100000381 1.2699999809 1.4199999571
 4409.0000000 4409.0000000 9.5399999619 1.2999999523 1.3799999952
 4410.0000000 4410.0000000 9.3500003815 1.3799999952 1.3400000334
 4411.0000000 4411.0000000 9.1300001144 1.4700000286 1.3899999857
 4412.0000000 4412.0000000 8.9099998474 1.5599999428 1.4299999475
 4413.0000000 4413.0000000 8.4600000381 1.5499999523 1.4800000191
 4414.0000000 4414.0000000 7.6599998474 1.4400000572 1.4700000286
 4415.0000000 4415.0000000 6.8200001717 1.3400000334 1.4700000286
 4416.0000000 4416.0000000 7.0799999237 1.2400000095 1.4099999666
 4417.0000000 4417.0000000 7.4000000954 1.2000000477 1.3400000334
 4418.0000000 4418.0000000 7.6300001144 1.1900000572 1.2799999714
 4419.0000000 4419.0000000 7.8600001335 1.2200000286 1.2300000191
 4420.0000000 4420.0000000 8.0900001526 1.2699999809 1.1799999475
 4421.0000000 4421.0000000 8.3199996948 1.2899999619 1.1599999666
 4422.0000000 4422.0000000 8.3500003815 1.2699999809 1.1699999571
 4423.0000000 4423.0000000 8.3800001144 1.2500000000 1.1900000572
 4424.0000000 4424.0000000 8.4200000763 1.2400000095 1.2000000477
 4425.0000000 4425.0000000 8.5200004578 1.2599999905 1.2200000286
 4426.0000000 4426.0000000 8.6300001144 1.2799999714 1.2500000000
 4427.0000000 4427.0000000 8.7399997711 1.3999999762 1.2699999809
 4428.0000000 4428.0000000 8.8400001526 1.4299999475 1.2999999523
 4429.0000000 4429.0000000 9.0600004196 1.3700000048 1.3400000334
 4430.0000000 4430.0000000 9.3100004196 1.2899999619 1.3700000048
 4431.0000000 4431.0000000 9.5600004196 1.2200000286 1.3799999952
 4432.0000000 4432.0000000 9.7500000000 1.2899999619 1.3799999952
 4433.0000000 4433.0000000 9.8599996567 1.3500000238 1.3899999857
 4434.0000000 4434.0000000 9.9799995422 1.4299999475 1.3899999857
 4435.0000000 4435.0000000 10.090000153 1.5099999905 1.3999999762
 4436.0000000 4436.0000000 9.9600000381 1.5599999428 1.3999999762
 4437.0000000 4437.0000000 9.7600002289 1.6100000143 1.4099999666
 4438.0000000 4438.0000000 9.3599996567 1.7999999523 1.4099999666
 4439.0000000 4439.0000000 7.8099999428 2.0599999428 1.4099999666
 4440.0000000 4440.0000000 6.2899999619 1.8899999857 1.4099999666
 4441.0000000 4441.0000000 5.9299998283 1.7300000191 1.3999999762
 4442.0000000 4442.0000000 6.3800001144 1.5499999523 1.3700000048
 4443.0000000 4443.0000000 6.8299999237 1.3700000048 1.3400000334
 4444.0000000 4444.0000000 7.4099998474 1.2000000477 1.3099999428
 4445.0000000 4445.0000000 8.0100002289 1.1499999762 1.2899999619
 4446.0000000 4446.0000000 8.6199998856 1.1499999762 1.2699999809
 4447.0000000 4447.0000000 8.8999996185 1.1599999666 1.2500000000
 4448.0000000 4448.0000000 9.0500001907 1.1799999475 1.2400000095
 4449.0000000 4449.0000000 9.1199998856 1.1900000572 1.2400000095
 4450.0000000 4450.0000000 8.9399995804 1.2100000381 1.2400000095
 4451.0000000 4451.0000000 8.7700004578 1.2300000191 1.2500000000
 4452.0000000 4452.0000000 8.4399995804 1.2500000000 1.2500000000
 4453.0000000 4453.0000000 8.4799995422 1.2799999714 1.2699999809
 4454.0000000 4454.0000000 8.8599996567 1.3200000525 1.2899999619
 4455.0000000 4455.0000000 9.2399997711 1.3700000048 1.3200000525
 4456.0000000 4456.0000000 9.6199998856 1.4299999475 1.3500000238
 4457.0000000 4457.0000000 9.8699998856 1.4700000286 1.3700000048
 4458.0000000 4458.0000000 9.9300003052 1.4700000286 1.3600000143
 4459.0000000 4459.0000000 9.3900003433 1.4700000286 1.3500000238
 4460.0000000 4460.0000000 8.8100004196 1.4600000381 1.3500000238
 4461.0000000 4461.0000000 8.2399997711 1.4199999571 1.3200000525
 4462.0000000 4462.0000000 7.9400000572 1.3500000238 1.2599999905
 4463.0000000 4463.0000000 7.4299998283 1.3799999952 1.2100000381
