# LAS format log file from PETREL
# Project units are specified as depth units
#==================================================================
~Version information
VERS.   2.0:
WRAP.   NO:
#==================================================================
~Well
STRT .m      4561.0000000 :
STOP .m      7034.0000000 :
STEP .m     1.00000000 :
NULL .        -999.250000 :
COMP.           : COMPANY
WELL.  WELL_5   : WELL
FLD.            : FIELD
LOC.            : LOCATION
SRVC.           : SERVICE COMPANY
DATE.  2023-03-20 17:52:46   : Log Export Date {yyyy-MM-dd HH:mm:ss}
PROV.           : PROVINCE
UWI.   WELL_5   : UNIQUE WELL ID
API.            : API NUMBER
#==================================================================
~Curve
DEPT .m                   : DEPTH
Depth .m                  : Depth
SN .ohm.m                 : SN
ILD .ohm.m                : ILD
~Parameter
#==================================================================
~Ascii
# ...
 6071.0000000 6071.0000000 2.0799999237 1.9800000191
 6072.0000000 6072.0000000 2.7300000191 2.5499999523
 6073.0000000 6073.0000000 4.0799999237 3.3599998951
 6074.0000000 6074.0000000 5.0999999046 4.8499999046
 6075.0000000 6075.0000000 6.8000001907 6.2699999809
 6076.0000000 6076.0000000 7.8299999237 7.3699998856
 6077.0000000 6077.0000000 8.1700000763 7.3699998856
 6078.0000000 6078.0000000 7.9000000954 6.3299999237
 6079.0000000 6079.0000000 6.6599998474 5.2899999619
 6080.0000000 6080.0000000 5.6900000572 4.4000000954
 6081.0000000 6081.0000000 5.1599998474 3.7999999523
 6082.0000000 6082.0000000 4.6700000763 3.5499999523
 6083.0000000 6083.0000000 4.3699998856 3.4900000095
 6084.0000000 6084.0000000 4.3000001907 3.5099999905
 6085.0000000 6085.0000000 4.3400001526 3.5599999428
 6086.0000000 6086.0000000 4.4099998474 3.5799999237
 6087.0000000 6087.0000000 4.4200000763 3.5099999905
 6088.0000000 6088.0000000 4.2300000191 3.4700000286
 6089.0000000 6089.0000000 4.0100002289 3.4300000668
 6090.0000000 6090.0000000 4.0999999046 3.2999999523
 6091.0000000 6091.0000000 4.0100002289 3.0099999905
 6092.0000000 6092.0000000 3.6400001049 2.6800000668
 6093.0000000 6093.0000000 3.1199998856 2.2699999809
 6094.0000000 6094.0000000 2.6800000668 2.0000000000
 6095.0000000 6095.0000000 2.5099999905 1.8600000143
 6096.0000000 6096.0000000 2.5000000000 1.8200000525
 6097.0000000 6097.0000000 2.5299999714 1.9099999666
 6098.0000000 6098.0000000 2.6099998951 2.0099999905
 6099.0000000 6099.0000000 2.7000000477 2.0799999237
 6100.0000000 6100.0000000 2.7799999714 2.1800000668
 6101.0000000 6101.0000000 2.7999999523 2.3699998856
 6102.0000000 6102.0000000 2.8699998856 2.5399999619
 6103.0000000 6103.0000000 2.9600000381 2.3299999237
 6104.0000000 6104.0000000 2.8800001144 1.9299999475
 6105.0000000 6105.0000000 2.3800001144 1.6499999762
 6106.0000000 6106.0000000 1.9199999571 1.3799999952
 6107.0000000 6107.0000000 1.7100000381 1.2300000191
 6108.0000000 6108.0000000 1.6399999857 1.1499999762
 6109.0000000 6109.0000000 1.6000000238 1.1900000572
 6110.0000000 6110.0000000 1.6399999857 1.3099999428
 6111.0000000 6111.0000000 1.8899999857 1.4700000286
 6112.0000000 6112.0000000 2.2300000191 1.8200000525
 6113.0000000 6113.0000000 2.5399999619 2.2000000477
 6114.0000000 6114.0000000 2.6400001049 2.4300000668
 6115.0000000 6115.0000000 2.6400001049 2.3099999428
 6116.0000000 6116.0000000 2.5099999905 1.9800000191
 6117.0000000 6117.0000000 2.2899999619 1.8200000525
 6118.0000000 6118.0000000 2.1300001144 1.7400000095
 6119.0000000 6119.0000000 2.0899999142 1.7200000286
 6120.0000000 6120.0000000 2.0000000000 1.7100000381
 6121.0000000 6121.0000000 2.0299999714 1.5800000429
 6122.0000000 6122.0000000 1.7799999714 1.3799999952
 6123.0000000 6123.0000000 1.6299999952 1.2000000477
 6124.0000000 6124.0000000 1.4199999571 1.0599999428
 6125.0000000 6125.0000000 1.2799999714 0.9700000286
 6126.0000000 6126.0000000 1.2200000286 0.9300000072
 6127.0000000 6127.0000000 1.2100000381 0.9200000167
 6128.0000000 6128.0000000 1.2400000095 0.9499999881
 6129.0000000 6129.0000000 1.2999999523 1.0199999809
 6130.0000000 6130.0000000 1.3600000143 1.0900000334
 6131.0000000 6131.0000000 1.4400000572 1.1799999475
 6132.0000000 6132.0000000 1.5599999428 1.3600000143
 6133.0000000 6133.0000000 1.7100000381 1.4900000095
 6134.0000000 6134.0000000 1.8600000143 1.6100000143
 6135.0000000 6135.0000000 1.9700000286 1.7400000095
 6136.0000000 6136.0000000 2.0199999809 1.7599999905
 6137.0000000 6137.0000000 1.9700000286 1.5599999428
 6138.0000000 6138.0000000 1.8200000525 1.4400000572
 6139.0000000 6139.0000000 1.7699999809 1.4800000191
 6140.0000000 6140.0000000 1.8200000525 1.5299999714
 6141.0000000 6141.0000000 1.9900000095 1.6200000048
 6142.0000000 6142.0000000 2.2799999714 1.8600000143
 6143.0000000 6143.0000000 2.6600000858 2.2000000477
 6144.0000000 6144.0000000 3.2999999523 2.4900000095
 6145.0000000 6145.0000000 3.4500000477 2.7899999619
 6146.0000000 6146.0000000 3.4200000763 3.1099998951
 6147.0000000 6147.0000000 3.5499999523 3.3299999237
 6148.0000000 6148.0000000 3.9100000858 3.3900001049
 6149.0000000 6149.0000000 4.2399997711 3.3800001144
 6150.0000000 6150.0000000 3.7699999809 2.5299999714
 6151.0000000 6151.0000000 2.8399999142 1.7599999905
 6152.0000000 6152.0000000 2.0099999905 1.2799999714
 6153.0000000 6153.0000000 1.6799999475 1.0599999428
 6154.0000000 6154.0000000 1.5399999619 1.0299999714
 6155.0000000 6155.0000000 1.4900000095 1.0900000334
 6156.0000000 6156.0000000 1.5499999523 1.2699999809
 6157.0000000 6157.0000000 1.8999999762 1.8099999428
 6158.0000000 6158.0000000 2.5799999237 2.5599999428
 6159.0000000 6159.0000000 3.5299999714 3.1199998856
 6160.0000000 6160.0000000 4.4299998283 3.7799999714
 6161.0000000 6161.0000000 3.9400000572 2.7400000095
 6162.0000000 6162.0000000 2.7400000095 1.8999999762
 6163.0000000 6163.0000000 1.8899999857 1.4099999666
 6164.0000000 6164.0000000 1.5499999523 1.1900000572
 6165.0000000 6165.0000000 1.4900000095 1.1599999666
 6166.0000000 6166.0000000 1.5099999905 1.2500000000
 6167.0000000 6167.0000000 1.5599999428 1.3500000238
 6168.0000000 6168.0000000 1.6299999952 1.4500000477
 6169.0000000 6169.0000000 1.6699999571 1.4400000572
 6170.0000000 6170.0000000 1.6100000143 1.3500000238
 6171.0000000 6171.0000000 1.4900000095 1.2599999905
 6172.0000000 6172.0000000 1.3999999762 1.1799999475
 6173.0000000 6173.0000000 1.3999999762 1.1699999571
 6174.0000000 6174.0000000 1.4199999571 1.2100000381
 6175.0000000 6175.0000000 1.4700000286 1.2400000095
 6176.0000000 6176.0000000 1.4700000286 1.2500000000
 6177.0000000 6177.0000000 1.4400000572 1.2300000191
 6178.0000000 6178.0000000 1.3999999762 1.1799999475
 6179.0000000 6179.0000000 1.3400000334 1.1299999952
 6180.0000000 6180.0000000 1.2999999523 1.0700000525
 6181.0000000 6181.0000000 1.2799999714 1.0399999619
 6182.0000000 6182.0000000 1.3099999428 1.0399999619
 6183.0000000 6183.0000000 1.3899999857 1.1499999762
 6184.0000000 6184.0000000 1.5599999428 1.3600000143
 6185.0000000 6185.0000000 1.7899999619 1.4600000381
 6186.0000000 6186.0000000 1.8799999952 1.4600000381
 6187.0000000 6187.0000000 1.5800000429 1.3500000238
 6188.0000000 6188.0000000 1.3799999952 1.1399999857
 6189.0000000 6189.0000000 1.2999999523 1.0599999428
 6190.0000000 6190.0000000 1.2699999809 1.0499999523
 6191.0000000 6191.0000000 1.2599999905 1.0099999905
 6192.0000000 6192.0000000 1.2100000381 0.9599999785
 6193.0000000 6193.0000000 1.1799999475 0.9499999881
 6194.0000000 6194.0000000 1.1799999475 0.9499999881
 6195.0000000 6195.0000000 1.2000000477 0.9499999881
 6196.0000000 6196.0000000 1.2200000286 0.9599999785
 6197.0000000 6197.0000000 1.3099999428 1.0299999714
 6198.0000000 6198.0000000 1.4299999475 1.1799999475
 6199.0000000 6199.0000000 1.7300000191 1.4500000477
 6200.0000000 6200.0000000 2.3800001144 1.7599999905
 6201.0000000 6201.0000000 2.8099999428 2.3499999046
 6202.0000000 6202.0000000 2.8399999142 2.6400001049
 6203.0000000 6203.0000000 2.6400001049 2.3099999428
 6204.0000000 6204.0000000 2.2400000095 1.8400000334
 6205.0000000 6205.0000000 2.0299999714 1.5399999619
 6206.0000000 6206.0000000 1.8500000238 1.2599999905
 6207.0000000 6207.0000000 1.6499999762 1.1599999666
 6208.0000000 6208.0000000 1.4800000191 1.1499999762
 6209.0000000 6209.0000000 1.5299999714 1.2599999905
 6210.0000000 6210.0000000 1.7899999619 1.4600000381
 6211.0000000 6211.0000000 2.0399999619 1.7100000381
 6212.0000000 6212.0000000 2.2699999809 2.0099999905
 6213.0000000 6213.0000000 2.4000000954 2.2500000000
 6214.0000000 6214.0000000 2.4300000668 2.4500000477
 6215.0000000 6215.0000000 2.3699998856 2.1099998951
 6216.0000000 6216.0000000 2.0599999428 1.5099999905
 6217.0000000 6217.0000000 1.3999999762 1.1200000048
 6218.0000000 6218.0000000 1.1900000572 0.8999999762
 6219.0000000 6219.0000000 1.1299999952 0.8000000119
 6220.0000000 6220.0000000 1.1499999762 0.8600000143
 6221.0000000 6221.0000000 1.2100000381 1.0099999905
