# LAS format log file from PETREL
# Project units are specified as depth units
#==================================================================
~Version information
VERS.   2.0:
WRAP.   NO:
#==================================================================
~Well
STRT .m      3000.0000000 :
STOP .m      6457.0000000 :
STEP .m     1.00000000 :
NULL .        -999.250000 :
COMP.           : COMPANY
WELL.  WELL_1   : WELL
FLD.            : FIELD
LOC.            : LOCATION
SRVC.           : SERVICE COMPANY
DATE.  2023-03-20 17:52:46   : Log Export Date {yyyy-MM-dd HH:mm:ss}
PROV.           : PROVINCE
UWI.   WELL_1   : UNIQUE WELL ID
API.            : API NUMBER
#==================================================================
~Curve
DEPT .m                   : DEPTH
Depth .m                  : Depth
SP .mV                    : SP
SN .ohm.m                 : SN
LN .ohm.m                 : LN
~Parameter
#==================================================================
~Ascii
# ...
 3488.0000000 3488.0000000 10.630000114 1.3200000525 1.5900000334
 3489.0000000 3489.0000000 10.640000343 1.3400000334 1.6599999666
 3490.0000000 3490.0000000 10.670000076 1.3799999952 1.6900000572
 3491.0000000 3491.0000000 10.699999809 1.4199999571 1.6799999475
 3492.0000000 3492.0000000 10.729999542 1.4600000381 1.6100000143
 3493.0000000 3493.0000000 10.750000000 1.5000000000 1.5199999809
 3494.0000000 3494.0000000 10.779999733 1.5399999619 1.4600000381
 3495.0000000 3495.0000000 10.819999695 1.5800000429 1.4700000286
 3496.0000000 3496.0000000 10.869999886 1.6200000048 1.4800000191
 3497.0000000 3497.0000000 10.909999847 1.6599999666 1.5199999809
 3498.0000000 3498.0000000 10.949999809 1.7000000477 1.5700000525
 3499.0000000 3499.0000000 10.989999771 1.7300000191 1.6100000143
 3500.0000000 3500.0000000 10.829999924 1.8500000238 1.6200000048
 3501.0000000 3501.0000000 10.359999657 1.9800000191 1.6100000143
 3502.0000000 3502.0000000 9.3900003433 2.1099998951 1.5900000334
 3503.0000000 3503.0000000 7.6599998474 2.2300000191 1.5700000525
 3504.0000000 3504.0000000 5.6999998093 2.3599998951 1.5399999619
 3505.0000000 3505.0000000 4.2399997711 2.4700000286 1.5299999714
 3506.0000000 3506.0000000 3.2500000000 2.5799999237 1.5599999428
 3507.0000000 3507.0000000 2.2400000095 2.7000000477 1.5900000334
 3508.0000000 3508.0000000 1.1599999666 2.8099999428 1.6299999952
 3509.0000000 3509.0000000 0.0500000007 2.9500000477 1.6599999666
 3510.0000000 3510.0000000 -1.220000029 3.0899999142 1.7000000477
 3511.0000000 3511.0000000 -2.460000038 3.2599999905 1.7300000191
 3512.0000000 3512.0000000 -3.599999905 3.4000000954 1.6699999571
 3513.0000000 3513.0000000 -4.880000114 3.4200000763 1.6200000048
 3514.0000000 3514.0000000 -4.579999924 3.2799999714 1.6000000238
 3515.0000000 3515.0000000 -3.849999905 3.1500000954 1.5900000334
 3516.0000000 3516.0000000 -5.199999809 3.1400001049 1.7300000191
 3517.0000000 3517.0000000 -7.090000153 3.5000000000 1.8600000143
 3518.0000000 3518.0000000 -7.050000191 3.9100000858 1.8500000238
 3519.0000000 3519.0000000 -5.010000229 3.5899999142 1.8099999428
 3520.0000000 3520.0000000 -2.519999981 3.2300000191 1.7699999809
 3521.0000000 3521.0000000 -0.569999993 2.9100000858 1.7500000000
 3522.0000000 3522.0000000 0.9100000262 2.6600000858 1.7999999523
 3523.0000000 3523.0000000 1.3099999428 2.4300000668 1.8500000238
 3524.0000000 3524.0000000 0.5099999905 2.5799999237 1.9099999666
 3525.0000000 3525.0000000 -0.469999999 2.9100000858 1.9800000191
 3526.0000000 3526.0000000 -1.379999995 3.1300001144 2.0499999523
 3527.0000000 3527.0000000 -1.980000019 3.0499999523 2.0399999619
 3528.0000000 3528.0000000 -1.139999986 2.8299999237 2.0199999809
 3529.0000000 3529.0000000 0.4499999881 2.4900000095 1.9900000095
 3530.0000000 3530.0000000 2.0199999809 2.1600000858 1.8999999762
 3531.0000000 3531.0000000 3.5299999714 1.8400000334 1.7999999523
 3532.0000000 3532.0000000 4.8200001717 1.6000000238 1.7100000381
 3533.0000000 3533.0000000 5.8299999237 1.3999999762 1.6200000048
 3534.0000000 3534.0000000 6.7500000000 1.2400000095 1.5299999714
 3535.0000000 3535.0000000 7.5399999619 1.1499999762 1.4700000286
 3536.0000000 3536.0000000 8.1099996567 1.0599999428 1.5000000000
 3537.0000000 3537.0000000 8.4099998474 1.0700000525 1.5399999619
 3538.0000000 3538.0000000 8.6999998093 1.1000000238 1.6100000143
 3539.0000000 3539.0000000 8.9799995422 1.1399999857 1.6699999571
 3540.0000000 3540.0000000 8.9700002670 1.2200000286 1.6900000572
 3541.0000000 3541.0000000 8.8900003433 1.2999999523 1.6499999762
 3542.0000000 3542.0000000 8.6300001144 1.3300000429 1.6200000048
 3543.0000000 3543.0000000 8.3699998856 1.3300000429 1.6000000238
 3544.0000000 3544.0000000 8.0100002289 1.3099999428 1.5800000429
 3545.0000000 3545.0000000 7.5500001907 1.2799999714 1.5599999428
 3546.0000000 3546.0000000 7.1799998283 1.2400000095 1.5399999619
 3547.0000000 3547.0000000 7.2500000000 1.1900000572 1.5199999809
 3548.0000000 3548.0000000 7.3600001335 1.1399999857 1.5099999905
 3549.0000000 3549.0000000 7.5500001907 1.0900000334 1.4900000095
 3550.0000000 3550.0000000 7.7500000000 1.0900000334 1.4600000381
 3551.0000000 3551.0000000 7.7500000000 1.1900000572 1.4099999666
 3552.0000000 3552.0000000 7.5100002289 1.2000000477 1.3600000143
 3553.0000000 3553.0000000 6.9200000763 1.1399999857 1.3200000525
 3554.0000000 3554.0000000 6.3299999237 1.0700000525 1.2699999809
 3555.0000000 3555.0000000 5.9899997711 0.9900000095 1.2599999905
 3556.0000000 3556.0000000 5.9099998474 0.9100000262 1.2599999905
 3557.0000000 3557.0000000 6.1999998093 0.8700000048 1.2599999905
 3558.0000000 3558.0000000 6.5100002289 0.8700000048 1.2500000000
 3559.0000000 3559.0000000 6.9299998283 0.8999999762 1.2799999714
 3560.0000000 3560.0000000 5.7699999809 1.0000000000 1.3400000334
 3561.0000000 3561.0000000 4.2800002098 1.0900000334 1.3899999857
 3562.0000000 3562.0000000 2.7999999523 1.1900000572 1.4400000572
 3563.0000000 3563.0000000 1.5299999714 1.3099999428 1.5000000000
 3564.0000000 3564.0000000 1.0000000000 1.4299999475 1.5399999619
 3565.0000000 3565.0000000 2.2300000191 1.5399999619 1.5800000429
 3566.0000000 3566.0000000 3.7500000000 1.6399999857 1.6200000048
 3567.0000000 3567.0000000 4.7199997902 1.7300000191 1.6200000048
 3568.0000000 3568.0000000 5.1799998283 1.7699999809 1.6000000238
 3569.0000000 3569.0000000 5.3499999046 1.8099999428 1.5800000429
 3570.0000000 3570.0000000 5.4800000191 1.8500000238 1.5599999428
 3571.0000000 3571.0000000 5.6100001335 1.8999999762 1.5399999619
 3572.0000000 3572.0000000 5.7199997902 1.8700000048 1.5199999809
 3573.0000000 3573.0000000 5.8299999237 1.8300000429 1.5000000000
 3574.0000000 3574.0000000 5.9400000572 1.7799999714 1.4800000191
 3575.0000000 3575.0000000 6.1300001144 1.7400000095 1.4800000191
 3576.0000000 3576.0000000 6.4800000191 1.6599999666 1.4900000095
 3577.0000000 3577.0000000 6.7699999809 1.5499999523 1.5099999905
 3578.0000000 3578.0000000 6.7600002289 1.4500000477 1.5199999809
 3579.0000000 3579.0000000 6.3099999428 1.4099999666 1.5700000525
 3580.0000000 3580.0000000 5.8000001907 1.4299999475 1.6799999475
 3581.0000000 3581.0000000 5.2899999619 1.4500000477 1.7899999619
 3582.0000000 3582.0000000 4.7899999619 1.5700000525 1.8999999762
 3583.0000000 3583.0000000 4.2899999619 1.6900000572 2.0199999809
 3584.0000000 3584.0000000 3.8800001144 1.7599999905 2.1300001144
 3585.0000000 3585.0000000 3.8399999142 1.7599999905 2.2400000095
 3586.0000000 3586.0000000 4.3299999237 1.7599999905 2.2599999905
 3587.0000000 3587.0000000 4.9600000381 1.7300000191 2.2599999905
 3588.0000000 3588.0000000 5.8099999428 1.6900000572 2.2500000000
 3589.0000000 3589.0000000 6.7899999619 1.6499999762 2.2400000095
 3590.0000000 3590.0000000 7.7399997711 1.6000000238 2.2300000191
 3591.0000000 3591.0000000 8.2700004578 1.5700000525 2.2200000286
 3592.0000000 3592.0000000 8.1099996567 1.5299999714 2.2000000477
 3593.0000000 3593.0000000 7.9499998093 1.5000000000 2.1700000763
 3594.0000000 3594.0000000 7.8000001907 1.4900000095 2.1300001144
 3595.0000000 3595.0000000 7.6599998474 1.5199999809 2.0899999142
 3596.0000000 3596.0000000 7.6900000572 1.5399999619 2.0599999428
 3597.0000000 3597.0000000 7.7199997902 1.5900000334 2.0199999809
 3598.0000000 3598.0000000 7.7600002289 1.6399999857 1.9900000095
 3599.0000000 3599.0000000 7.7899999619 1.6000000238 1.9500000477
 3600.0000000 3600.0000000 7.7800002098 1.5199999809 1.9299999475
 3601.0000000 3601.0000000 7.7699999809 1.4400000572 1.8700000048
 3602.0000000 3602.0000000 7.7699999809 1.3600000143 1.8099999428
 3603.0000000 3603.0000000 7.7500000000 1.2699999809 1.7599999905
 3604.0000000 3604.0000000 7.6399998665 1.2300000191 1.7300000191
 3605.0000000 3605.0000000 7.5399999619 1.1900000572 1.7000000477
 3606.0000000 3606.0000000 7.4400000572 1.1599999666 1.7200000286
 3607.0000000 3607.0000000 7.3299999237 1.1799999475 1.7500000000
 3608.0000000 3608.0000000 7.2300000191 1.2200000286 1.7599999905
 3609.0000000 3609.0000000 7.0000000000 1.2799999714 1.7100000381
