# LAS format log file from PETREL
# Project units are specified as depth units
#==================================================================
~Version information
VERS.   2.0:
WRAP.   NO:
#==================================================================
~Well
STRT .m      3000.0000000 :
STOP .m      7750.0000000 :
STEP .m     1.00000000 :
NULL .        -999.250000 :
COMP.           : COMPANY
WELL.  WELL_2   : WELL
FLD.            : FIELD
LOC.            : LOCATION
SRVC.           : SERVICE COMPANY
DATE.  2023-03-20 17:52:46   : Log Export Date {yyyy-MM-dd HH:mm:ss}
PROV.           : PROVINCE
UWI.   WELL_2   : UNIQUE WELL ID
API.            : API NUMBER
#==================================================================
~Curve
DEPT .m                   : DEPTH
Depth .m                  : Depth
SP .mV                    : SP
SN .ohm.m                 : SN
LN .ohm.m                 : LN
LAT .ohm.m                : LAT
~Parameter
#==================================================================
~Ascii
# ...
 5550.0000000 5550.0000000 -7.679999828 2.6500000954 2.5000000000 2.5000000000
 5551.0000000 5551.0000000 -6.869999886 2.6099998951 2.5599999428 2.5599999428
 5552.0000000 5552.0000000 -6.969999790 2.6600000858 2.4900000095 2.4900000095
 5553.0000000 5553.0000000 -7.059999943 2.7400000095 2.3900001049 2.3900001049
 5554.0000000 5554.0000000 -7.170000076 2.8099999428 2.2699999809 2.2699999809
 5555.0000000 5555.0000000 -6.530000210 2.7400000095 2.1600000858 2.1600000858
 5556.0000000 5556.0000000 -5.639999866 2.5000000000 2.0699999332 2.0699999332
 5557.0000000 5557.0000000 -4.920000076 2.2500000000 2.0299999714 2.0299999714
 5558.0000000 5558.0000000 -5.110000134 2.2500000000 1.9800000191 1.9800000191
 5559.0000000 5559.0000000 -5.739999771 2.2500000000 1.9700000286 1.9700000286
 5560.0000000 5560.0000000 -6.409999847 2.2200000286 1.9800000191 1.9800000191
 5561.0000000 5561.0000000 -6.900000095 2.1800000668 2.0099999905 2.0099999905
 5562.0000000 5562.0000000 -7.070000172 2.1600000858 2.0699999332 2.0699999332
 5563.0000000 5563.0000000 -6.920000076 2.1800000668 2.1600000858 2.1600000858
 5564.0000000 5564.0000000 -6.869999886 2.2100000381 2.2300000191 2.2300000191
 5565.0000000 5565.0000000 -7.070000172 2.2699999809 2.3099999428 2.3099999428
 5566.0000000 5566.0000000 -7.780000210 2.3399999142 2.3599998951 2.3599998951
 5567.0000000 5567.0000000 -8.760000229 2.4300000668 2.4100000858 2.4100000858
 5568.0000000 5568.0000000 -9.520000458 2.5299999714 2.5399999619 2.5399999619
 5569.0000000 5569.0000000 -10.56999969 2.7000000477 2.6700000763 2.6700000763
 5570.0000000 5570.0000000 -11.46000004 3.0699999332 2.7899999619 2.7899999619
 5571.0000000 5571.0000000 -12.40999985 3.4400000572 2.9300000668 2.9300000668
 5572.0000000 5572.0000000 -13.63000011 3.6500000954 3.0699999332 3.0699999332
 5573.0000000 5573.0000000 -15.94999981 3.9000000954 3.1800000668 3.1800000668
 5574.0000000 5574.0000000 -17.47999954 4.1900000572 3.1900000572 3.1900000572
 5575.0000000 5575.0000000 -17.62000084 4.4400000572 3.0299999714 3.0299999714
 5576.0000000 5576.0000000 -16.73999977 4.3800001144 2.7500000000 2.7500000000
 5577.0000000 5577.0000000 -14.69999981 4.1700000763 2.2899999619 2.2899999619
 5578.0000000 5578.0000000 -11.93000031 3.5299999714 2.1500000954 2.1500000954
 5579.0000000 5579.0000000 -10.52999973 2.9400000572 2.1700000763 2.1700000763
 5580.0000000 5580.0000000 -6.179999828 2.3099999428 2.0599999428 2.0599999428
 5581.0000000 5581.0000000 -5.670000076 1.9900000095 1.7400000095 1.7400000095
 5582.0000000 5582.0000000 -5.570000172 1.7500000000 1.7200000286 1.7200000286
 5583.0000000 5583.0000000 -5.670000076 1.7699999809 1.8200000525 1.8200000525
 5584.0000000 5584.0000000 -5.889999866 1.8700000048 1.9099999666 1.9099999666
 5585.0000000 5585.0000000 -6.130000114 2.0999999046 1.8999999762 1.8999999762
 5586.0000000 5586.0000000 -6.449999809 2.3800001144 1.8099999428 1.8099999428
 5587.0000000 5587.0000000 -6.769999981 2.4200000763 1.8099999428 1.8099999428
 5588.0000000 5588.0000000 -6.989999771 2.4200000763 1.8500000238 1.8500000238
 5589.0000000 5589.0000000 -7.030000210 2.2799999714 1.9099999666 1.9099999666
 5590.0000000 5590.0000000 -6.929999828 2.1800000668 1.9800000191 1.9800000191
 5591.0000000 5591.0000000 -6.869999886 2.1199998856 2.0399999619 2.0399999619
 5592.0000000 5592.0000000 -6.980000019 2.0899999142 2.0799999237 2.0799999237
 5593.0000000 5593.0000000 -7.039999962 2.0699999332 2.0999999046 2.0999999046
 5594.0000000 5594.0000000 -6.920000076 2.0799999237 2.1199998856 2.1199998856
 5595.0000000 5595.0000000 -6.809999943 2.0899999142 2.1300001144 2.1300001144
 5596.0000000 5596.0000000 -6.750000000 2.0999999046 2.1199998856 2.1199998856
 5597.0000000 5597.0000000 -6.789999962 2.1199998856 2.1400001049 2.1400001049
 5598.0000000 5598.0000000 -6.989999771 2.1800000668 2.1700000763 2.1700000763
 5599.0000000 5599.0000000 -7.329999924 2.2500000000 2.2100000381 2.2100000381
 5600.0000000 5600.0000000 -7.699999809 2.5599999428 2.2400000095 2.2400000095
 5601.0000000 5601.0000000 -8.199999809 2.9300000668 2.1199998856 2.1199998856
 5602.0000000 5602.0000000 -8.520000458 3.0699999332 2.0199999809 2.0199999809
 5603.0000000 5603.0000000 -8.109999657 2.9600000381 1.9900000095 1.9900000095
 5604.0000000 5604.0000000 -7.010000229 2.7100000381 2.0099999905 2.0099999905
 5605.0000000 5605.0000000 -5.940000057 2.4000000954 2.0899999142 2.0899999142
 5606.0000000 5606.0000000 -4.380000114 2.0599999428 2.1800000668 2.1800000668
 5607.0000000 5607.0000000 -3.900000095 1.9800000191 2.2300000191 2.2300000191
 5608.0000000 5608.0000000 -4.110000134 2.0099999905 2.2100000381 2.2100000381
 5609.0000000 5609.0000000 -5.389999866 2.2400000095 2.0799999237 2.0799999237
 5610.0000000 5610.0000000 -6.400000095 2.5199999809 2.0000000000 2.0000000000
 5611.0000000 5611.0000000 -7.190000057 2.6600000858 1.9500000477 1.9500000477
 5612.0000000 5612.0000000 -6.840000153 2.5699999332 1.9700000286 1.9700000286
 5613.0000000 5613.0000000 -6.219999790 2.3599998951 1.9900000095 1.9900000095
 5614.0000000 5614.0000000 -5.610000134 2.1800000668 2.0499999523 2.0499999523
 5615.0000000 5615.0000000 -5.309999943 2.0999999046 2.1500000954 2.1500000954
 5616.0000000 5616.0000000 -6.010000229 2.1900000572 2.2799999714 2.2799999714
 5617.0000000 5617.0000000 -7.469999790 2.2300000191 2.3399999142 2.3399999142
 5618.0000000 5618.0000000 -7.849999905 2.2599999905 2.4100000858 2.4100000858
 5619.0000000 5619.0000000 -7.690000057 2.3499999046 2.5000000000 2.5000000000
 5620.0000000 5620.0000000 -7.380000114 2.5199999809 2.5799999237 2.5799999237
 5621.0000000 5621.0000000 -7.110000134 2.8299999237 2.6099998951 2.6099998951
 5622.0000000 5622.0000000 -8.319999695 3.2200000286 2.5499999523 2.5499999523
 5623.0000000 5623.0000000 -9.470000267 3.5899999142 2.4800000191 2.4800000191
 5624.0000000 5624.0000000 -10.69999981 3.8099999428 2.4500000477 2.4500000477
 5625.0000000 5625.0000000 -10.84000015 3.6500000954 2.5000000000 2.5000000000
 5626.0000000 5626.0000000 -10.60000038 3.3800001144 2.5499999523 2.5499999523
 5627.0000000 5627.0000000 -10.15999985 3.1900000572 2.5399999619 2.5399999619
 5628.0000000 5628.0000000 -9.609999657 3.0299999714 2.4600000381 2.4600000381
 5629.0000000 5629.0000000 -9.199999809 2.9300000668 2.3699998856 2.3699998856
 5630.0000000 5630.0000000 -8.979999542 2.8399999142 2.2200000286 2.2200000286
 5631.0000000 5631.0000000 -8.550000191 2.7599999905 2.0799999237 2.0799999237
 5632.0000000 5632.0000000 -7.900000095 2.6300001144 1.9900000095 1.9900000095
 5633.0000000 5633.0000000 -6.800000191 2.3299999237 1.9700000286 1.9700000286
 5634.0000000 5634.0000000 -5.900000095 2.1099998951 1.9800000191 1.9800000191
 5635.0000000 5635.0000000 -5.329999924 2.0299999714 2.0000000000 2.0000000000
 5636.0000000 5636.0000000 -4.989999771 2.0099999905 2.0199999809 2.0199999809
 5637.0000000 5637.0000000 -4.840000153 2.0000000000 2.0299999714 2.0299999714
 5638.0000000 5638.0000000 -4.690000057 2.0000000000 2.0499999523 2.0499999523
 5639.0000000 5639.0000000 -4.460000038 2.0199999809 2.0899999142 2.0899999142
 5640.0000000 5640.0000000 -4.900000095 2.0499999523 2.1600000858 2.1600000858
 5641.0000000 5641.0000000 -5.949999809 2.1500000954 2.2699999809 2.2699999809
 5642.0000000 5642.0000000 -6.750000000 2.4300000668 2.2799999714 2.2799999714
 5643.0000000 5643.0000000 -7.530000210 2.7599999905 2.1400001049 2.1400001049
 5644.0000000 5644.0000000 -7.929999828 3.0699999332 2.0499999523 2.0499999523
 5645.0000000 5645.0000000 -7.719999790 3.2599999905 1.9800000191 1.9800000191
 5646.0000000 5646.0000000 -6.840000153 3.1099998951 1.9700000286 1.9700000286
 5647.0000000 5647.0000000 -5.860000134 2.7300000191 2.0499999523 2.0499999523
 5648.0000000 5648.0000000 -5.409999847 2.5199999809 2.2300000191 2.2300000191
 5649.0000000 5649.0000000 -5.670000076 2.4100000858 2.3399999142 2.3399999142
 5650.0000000 5650.0000000 -6.530000210 2.4900000095 2.3800001144 2.3800001144
 5651.0000000 5651.0000000 -7.599999905 2.5699999332 2.3599998951 2.3599998951
