# LAS format log file from PETREL
# Project units are specified as depth units
#==================================================================
~Version information
VERS.   2.0:
WRAP.   NO:
#==================================================================
~Well
STRT .m      4450.0000000 :
STOP .m      7050.0000000 :
STEP .m     1.00000000 :
NULL .        -999.250000 :
COMP.           : COMPANY
WELL.  WELL_4   : WELL
FLD.            : FIELD
LOC.            : LOCATION
SRVC.           : SERVICE COMPANY
DATE.  2023-03-20 17:52:46   : Log Export Date {yyyy-MM-dd HH:mm:ss}
PROV.           : PROVINCE
UWI.   WELL_4   : UNIQUE WELL ID
API.            : API NUMBER
#==================================================================
~Curve
DEPT .m                   : DEPTH
Depth .m                  : Depth
SP .mV                    : SP
SN .ohm.m                 : SN
LN .ohm.m                 : LN
LAT .ohm.m                : LAT
~Parameter
#==================================================================
~Ascii
# ...
 5470.0000000 5470.0000000 -28.96999931 6.2500000000 5.7199997902 3.8699998856
 5471.0000000 5471.0000000 -28.84000015 6.2600002289 5.8200001717 3.9700000286
 5472.0000000 5472.0000000 -28.51000023 6.4099998474 5.8400001526 4.0500001907
 5473.0000000 5473.0000000 -28.04000092 6.5799999237 5.7399997711 4.1700000763
 5474.0000000 5474.0000000 -27.39999962 6.5399999619 5.6399998665 4.2600002289
 5475.0000000 5475.0000000 -26.73999977 6.3699998856 5.5900001526 4.2600002289
 5476.0000000 5476.0000000 -26.03000069 6.0300002098 5.4800000191 4.3000001907
 5477.0000000 5477.0000000 -25.35000038 5.7600002289 5.3299999237 4.3800001144
 5478.0000000 5478.0000000 -24.88999939 5.6399998665 5.0199999809 4.5199999809
 5479.0000000 5479.0000000 -24.75000000 5.6199998856 4.3800001144 4.7100000381
 5480.0000000 5480.0000000 -24.07999992 5.5799999237 3.4800000191 5.0500001907
 5481.0000000 5481.0000000 -22.14999962 5.0399999619 3.0799999237 5.5599999428
 5482.0000000 5482.0000000 -19.86000061 3.9000000954 3.0099999905 5.9000000954
 5483.0000000 5483.0000000 -17.12999916 2.9800000191 3.0199999809 5.6599998474
 5484.0000000 5484.0000000 -13.81000042 2.5699999332 2.9800000191 4.8299999237
 5485.0000000 5485.0000000 -12.34000015 2.4000000954 2.8299999237 3.4100000858
 5486.0000000 5486.0000000 -11.88000011 2.4100000858 2.6099998951 2.9200000763
 5487.0000000 5487.0000000 -11.86999989 2.4200000763 2.4300000668 2.8599998951
 5488.0000000 5488.0000000 -11.64999962 2.3599998951 2.3599998951 2.9400000572
 5489.0000000 5489.0000000 -10.72999954 2.2200000286 2.4100000858 2.8699998856
 5490.0000000 5490.0000000 -10.15999985 2.1400001049 2.4500000477 2.6400001049
 5491.0000000 5491.0000000 -10.14999962 2.1500000954 2.4500000477 2.3900001049
 5492.0000000 5492.0000000 -10.39999962 2.2500000000 2.4200000763 2.2799999714
 5493.0000000 5493.0000000 -10.71000004 2.4000000954 2.3800001144 2.2799999714
 5494.0000000 5494.0000000 -10.96000004 2.5399999619 2.3900001049 2.4000000954
 5495.0000000 5495.0000000 -11.23999977 2.6099998951 2.4400000572 2.5299999714
 5496.0000000 5496.0000000 -11.64999962 2.6199998856 2.5099999905 2.5999999046
 5497.0000000 5497.0000000 -12.19999981 2.6199998856 2.5699999332 2.6300001144
 5498.0000000 5498.0000000 -12.81000042 2.6600000858 2.5899999142 2.6500000954
 5499.0000000 5499.0000000 -13.36999989 2.7400000095 2.5399999619 2.7300000191
 5500.0000000 5500.0000000 -13.82999992 2.7999999523 2.4700000286 2.8699998856
 5501.0000000 5501.0000000 -13.98999977 2.8299999237 2.3699998856 3.0000000000
 5502.0000000 5502.0000000 -13.71000004 2.8199999332 2.2699999809 3.0599999428
 5503.0000000 5503.0000000 -13.14000034 2.7300000191 2.1900000572 3.0499999523
 5504.0000000 5504.0000000 -12.32999992 2.4500000477 2.2000000477 2.9700000286
 5505.0000000 5505.0000000 -11.14999962 2.1900000572 2.2300000191 2.6600000858
 5506.0000000 5506.0000000 -10.30000019 2.0399999619 2.2599999905 2.3499999046
 5507.0000000 5507.0000000 -9.800000191 1.9299999475 2.2699999809 2.1300001144
 5508.0000000 5508.0000000 -9.590000153 1.9500000477 2.2400000095 1.9299999475
 5509.0000000 5509.0000000 -9.630000114 2.0499999523 2.2300000191 1.8799999952
 5510.0000000 5510.0000000 -9.680000305 2.1300001144 2.2500000000 1.8899999857
 5511.0000000 5511.0000000 -9.609999657 2.1900000572 2.2999999523 1.8799999952
 5512.0000000 5512.0000000 -9.779999733 2.2999999523 2.3699998856 1.8400000334
 5513.0000000 5513.0000000 -10.47000027 2.4800000191 2.4600000381 1.8500000238
 5514.0000000 5514.0000000 -11.81000042 2.6500000954 2.5499999523 1.9099999666
 5515.0000000 5515.0000000 -12.82999992 2.8699998856 2.6500000954 1.9900000095
 5516.0000000 5516.0000000 -13.96000004 3.0599999428 2.7799999714 2.0499999523
 5517.0000000 5517.0000000 -15.06999969 3.2100000381 2.9000000954 2.1099998951
 5518.0000000 5518.0000000 -15.92000008 3.3399999142 2.9800000191 2.1600000858
 5519.0000000 5519.0000000 -16.44000053 3.4800000191 3.0899999142 2.2200000286
 5520.0000000 5520.0000000 -16.54999924 3.6199998856 3.1900000572 2.3599998951
 5521.0000000 5521.0000000 -16.55999947 3.7400000095 3.2400000095 2.5299999714
 5522.0000000 5522.0000000 -16.56999969 3.8099999428 3.2699999809 2.7000000477
 5523.0000000 5523.0000000 -16.64999962 3.8399999142 3.2999999523 2.8800001144
 5524.0000000 5524.0000000 -16.80999947 3.8699998856 3.3399999142 3.0799999237
 5525.0000000 5525.0000000 -16.97999954 3.9100000858 3.4400000572 3.2100000381
 5526.0000000 5526.0000000 -17.15999985 4.0199999809 3.5899999142 3.2000000477
 5527.0000000 5527.0000000 -17.37999916 4.2300000191 3.6199998856 3.1800000668
 5528.0000000 5528.0000000 -17.69000053 4.5799999237 3.4900000095 3.2200000286
 5529.0000000 5529.0000000 -18.11000061 4.9200000763 3.2000000477 3.4300000668
 5530.0000000 5530.0000000 -18.45000076 5.0900001526 3.0699999332 3.7799999714
 5531.0000000 5531.0000000 -18.35000038 4.6500000954 3.0999999046 3.8199999332
 5532.0000000 5532.0000000 -17.29000092 3.7599999905 3.2400000095 3.5499999523
 5533.0000000 5533.0000000 -16.12000084 3.2400000095 3.2300000191 2.9700000286
 5534.0000000 5534.0000000 -15.86999989 3.1900000572 2.9600000381 2.6500000954
 5535.0000000 5535.0000000 -16.20000076 3.3399999142 2.5299999714 2.6300001144
 5536.0000000 5536.0000000 -16.55999947 3.4600000381 2.2799999714 2.8099999428
 5537.0000000 5537.0000000 -16.43000031 3.4200000763 2.1199998856 3.0199999809
 5538.0000000 5538.0000000 -15.68000031 3.1199998856 2.0499999523 3.0899999142
 5539.0000000 5539.0000000 -14.48999977 2.6400001049 2.0799999237 2.9300000668
 5540.0000000 5540.0000000 -13.02000046 2.2999999523 2.1400001049 2.6099998951
 5541.0000000 5541.0000000 -11.77000046 2.0599999428 2.1700000763 2.2000000477
 5542.0000000 5542.0000000 -10.63000011 1.9099999666 2.1800000668 1.9400000572
 5543.0000000 5543.0000000 -9.989999771 1.8500000238 2.1700000763 1.7500000000
 5544.0000000 5544.0000000 -9.729999542 1.8500000238 2.1700000763 1.6399999857
 5545.0000000 5545.0000000 -9.760000229 1.8999999762 2.1500000954 1.6000000238
 5546.0000000 5546.0000000 -10.34000015 2.1300001144 2.0799999237 1.7400000095
 5547.0000000 5547.0000000 -11.85000038 2.4500000477 1.9800000191 1.9600000381
 5548.0000000 5548.0000000 -12.93000031 2.7200000286 1.9400000572 2.3599998951
 5549.0000000 5549.0000000 -12.98999977 2.7400000095 2.0099999905 2.5899999142
 5550.0000000 5550.0000000 -12.69999981 2.6199998856 2.1500000954 2.6300001144
 5551.0000000 5551.0000000 -12.42000008 2.4600000381 2.2000000477 2.4700000286
 5552.0000000 5552.0000000 -12.17000008 2.3699998856 2.1600000858 2.2599999905
 5553.0000000 5553.0000000 -12.19999981 2.4100000858 2.0599999428 2.1500000954
 5554.0000000 5554.0000000 -12.35000038 2.4300000668 1.9800000191 2.1700000763
 5555.0000000 5555.0000000 -12.38000011 2.3900001049 1.9400000572 2.2300000191
 5556.0000000 5556.0000000 -12.02000046 2.1500000954 1.9600000381 2.2699999809
 5557.0000000 5557.0000000 -11.68999958 1.9600000381 2.0000000000 2.1199998856
 5558.0000000 5558.0000000 -11.53999996 1.8999999762 2.0199999809 1.9400000572
 5559.0000000 5559.0000000 -11.52999973 1.9299999475 2.0299999714 1.7899999619
 5560.0000000 5560.0000000 -11.55000019 2.0199999809 2.0099999905 1.7400000095
 5561.0000000 5561.0000000 -11.52999973 2.0999999046 2.0000000000 1.7400000095
 5562.0000000 5562.0000000 -11.59000015 2.1700000763 2.0099999905 1.7300000191
 5563.0000000 5563.0000000 -11.81000042 2.2200000286 2.0399999619 1.7300000191
 5564.0000000 5564.0000000 -12.25000000 2.2999999523 2.0999999046 1.7400000095
 5565.0000000 5565.0000000 -12.67000008 2.3499999046 2.1900000572 1.7599999905
 5566.0000000 5566.0000000 -12.71000004 2.3699998856 2.2500000000 1.7699999809
 5567.0000000 5567.0000000 -12.84000015 2.4400000572 2.2699999809 1.8200000525
 5568.0000000 5568.0000000 -13.14999962 2.5999999046 2.2599999905 1.9400000572
 5569.0000000 5569.0000000 -13.22000027 2.7799999714 2.2300000191 2.0999999046
 5570.0000000 5570.0000000 -13.57999992 2.8800001144 2.1900000572 2.2400000095
 5571.0000000 5571.0000000 -13.71000004 2.8699998856 2.1900000572 2.3399999142
