# LAS format log file from PETREL
# Project units are specified as depth units
#==================================================================
~Version information
VERS.   2.0:
WRAP.   NO:
#==================================================================
~Well
STRT .m      4450.0000000 :
STOP .m      7050.0000000 :
STEP .m     1.00000000 :
NULL .        -999.250000 :
COMP.           : COMPANY
WELL.  WELL_4   : WELL
FLD.            : FIELD
LOC.            : LOCATION
SRVC.           : SERVICE COMPANY
DATE.  2023-03-20 17:52:46   : Log Export Date {yyyy-MM-dd HH:mm:ss}
PROV.           : PROVINCE
UWI.   WELL_4   : UNIQUE WELL ID
API.            : API NUMBER
#==================================================================
~Curve
DEPT .m                   : DEPTH
Depth .m                  : Depth
SP .mV                    : SP
SN .ohm.m                 : SN
LN .ohm.m                 : LN
LAT .ohm.m                : LAT
~Parameter
#==================================================================
~Ascii
# ...
 4756.0000000 4756.0000000 -6.940000057 1.4700000286 1.8600000143 1.4900000095
 4757.0000000 4757.0000000 -7.559999943 1.4299999475 1.8099999428 1.5900000334
 4758.0000000 4758.0000000 -7.869999886 1.4500000477 1.7899999619 1.7200000286
 4759.0000000 4759.0000000 -7.760000229 1.5099999905 1.7300000191 1.7799999714
 4760.0000000 4760.0000000 -7.679999828 1.5099999905 1.7899999619 1.7799999714
 4761.0000000 4761.0000000 -7.750000000 1.4700000286 1.8500000238 1.8400000334
 4762.0000000 4762.0000000 -7.320000172 1.5000000000 1.8300000429 1.9900000095
 4763.0000000 4763.0000000 -7.219999790 1.5299999714 1.7699999809 2.0299999714
 4764.0000000 4764.0000000 -7.329999924 1.5399999619 1.7500000000 2.0499999523
 4765.0000000 4765.0000000 -7.329999924 1.5099999905 1.7000000477 2.1300001144
 4766.0000000 4766.0000000 -7.139999866 1.5199999809 1.6299999952 2.2200000286
 4767.0000000 4767.0000000 -7.170000076 1.5199999809 1.6399999857 2.2100000381
 4768.0000000 4768.0000000 -6.940000057 1.5299999714 1.6799999475 2.1300001144
 4769.0000000 4769.0000000 -7.130000114 1.6000000238 1.7300000191 2.0000000000
 4770.0000000 4770.0000000 -7.900000095 1.7599999905 1.7200000286 1.8700000048
 4771.0000000 4771.0000000 -8.329999924 2.0000000000 1.6299999952 1.8500000238
 4772.0000000 4772.0000000 -8.739999771 2.0699999332 1.5800000429 1.8899999857
 4773.0000000 4773.0000000 -9.180000305 1.9800000191 1.6000000238 1.9800000191
 4774.0000000 4774.0000000 -8.949999809 1.7200000286 1.6599999666 1.9500000477
 4775.0000000 4775.0000000 -9.119999886 1.6200000048 1.6399999857 1.6599999666
 4776.0000000 4776.0000000 -10.67000008 1.6499999762 1.5900000334 1.5099999905
 4777.0000000 4777.0000000 -12.53999996 1.8799999952 1.5499999523 1.5199999809
 4778.0000000 4778.0000000 -12.14000034 1.9700000286 1.5900000334 1.6799999475
 4779.0000000 4779.0000000 -9.829999924 1.9299999475 1.7799999714 1.6399999857
 4780.0000000 4780.0000000 -9.130000114 1.7699999809 1.9900000095 1.3899999857
 4781.0000000 4781.0000000 -10.06999969 1.7000000477 2.1400001049 1.1699999571
 4782.0000000 4782.0000000 -12.00000000 1.7799999714 2.1500000954 1.0700000525
 4783.0000000 4783.0000000 -14.03999996 1.8799999952 2.1099998951 1.0800000429
 4784.0000000 4784.0000000 -15.34000015 1.9500000477 2.0699999332 1.1499999762
 4785.0000000 4785.0000000 -15.88000011 2.0599999428 2.0499999523 1.2200000286
 4786.0000000 4786.0000000 -16.11000061 2.0999999046 2.0499999523 1.2899999619
 4787.0000000 4787.0000000 -15.93000031 2.0899999142 2.0799999237 1.3400000334
 4788.0000000 4788.0000000 -15.47999954 2.0599999428 2.1300001144 1.3899999857
 4789.0000000 4789.0000000 -14.60000038 2.0399999619 2.2200000286 1.3600000143
 4790.0000000 4790.0000000 -13.72999954 2.0199999809 2.3299999237 1.3400000334
 4791.0000000 4791.0000000 -13.14000034 2.0299999714 2.3900001049 1.3500000238
 4792.0000000 4792.0000000 -12.85000038 2.0799999237 2.4100000858 1.4099999666
 4793.0000000 4793.0000000 -12.72000027 2.1600000858 2.4200000763 1.5199999809
 4794.0000000 4794.0000000 -12.64999962 2.2400000095 2.5499999523 1.6200000048
 4795.0000000 4795.0000000 -12.09000015 2.2599999905 2.7000000477 1.6799999475
 4796.0000000 4796.0000000 -11.55000019 2.3699998856 2.7899999619 1.7400000095
 4797.0000000 4797.0000000 -12.72000027 2.6300001144 2.8299999237 1.8500000238
 4798.0000000 4798.0000000 -16.02000046 3.0099999905 2.7999999523 2.1600000858
 4799.0000000 4799.0000000 -20.78000069 3.3900001049 2.7300000191 2.4800000191
 4800.0000000 4800.0000000 -24.15999985 3.5499999523 2.7599999905 2.6700000763
 4801.0000000 4801.0000000 -26.25000000 3.5999999046 2.8900001049 2.6700000763
 4802.0000000 4802.0000000 -27.85000038 3.7200000286 2.9900000095 2.6199998856
 4803.0000000 4803.0000000 -28.87999916 3.8099999428 2.9900000095 2.5999999046
 4804.0000000 4804.0000000 -29.82999992 3.7500000000 2.9700000286 2.6500000954
 4805.0000000 4805.0000000 -30.92000008 3.5999999046 2.9300000668 2.5699999332
 4806.0000000 4806.0000000 -32.36000061 3.4600000381 2.8699998856 2.4400000572
 4807.0000000 4807.0000000 -33.13000107 3.3499999046 2.7999999523 2.3199999332
 4808.0000000 4808.0000000 -33.33000183 3.2300000191 2.7400000095 2.2599999905
 4809.0000000 4809.0000000 -31.79000092 3.1099998951 2.6600000858 2.1900000572
 4810.0000000 4810.0000000 -29.55999947 3.0299999714 2.5899999142 2.1300001144
 4811.0000000 4811.0000000 -27.76000023 3.0599999428 2.5099999905 2.1600000858
 4812.0000000 4812.0000000 -27.82999992 3.2200000286 2.4300000668 2.3299999237
 4813.0000000 4813.0000000 -27.84000015 3.2699999809 2.3399999142 2.5199999809
 4814.0000000 4814.0000000 -25.88999939 3.0999999046 2.2400000095 2.7100000381
 4815.0000000 4815.0000000 -23.85000038 3.0499999523 2.2200000286 2.8800001144
 4816.0000000 4816.0000000 -21.88999939 3.0699999332 2.3199999332 3.0199999809
 4817.0000000 4817.0000000 -20.54000092 2.8699998856 2.4400000572 3.0499999523
 4818.0000000 4818.0000000 -19.71999931 2.8199999332 2.5699999332 2.7699999809
 4819.0000000 4819.0000000 -22.54000092 2.8399999142 2.6400001049 2.4700000286
 4820.0000000 4820.0000000 -25.47999954 2.9900000095 2.6099998951 2.3299999237
 4821.0000000 4821.0000000 -27.56999969 3.0899999142 2.5099999905 2.3399999142
 4822.0000000 4822.0000000 -28.62999916 2.9600000381 2.4400000572 2.1900000572
 4823.0000000 4823.0000000 -29.65999985 2.9800000191 2.4500000477 2.1300001144
 4824.0000000 4824.0000000 -30.44000053 3.1099998951 2.4000000954 2.1099998951
 4825.0000000 4825.0000000 -30.55999947 3.1300001144 2.3199999332 2.0599999428
 4826.0000000 4826.0000000 -30.07999992 3.0599999428 2.2300000191 1.9600000381
 4827.0000000 4827.0000000 -29.01000023 3.0199999809 2.0999999046 1.9299999475
 4828.0000000 4828.0000000 -27.06999969 2.9500000477 1.9700000286 2.0499999523
 4829.0000000 4829.0000000 -21.96999931 2.7899999619 1.9099999666 2.3199999332
 4830.0000000 4830.0000000 -14.10999966 2.4500000477 1.9299999475 2.4500000477
 4831.0000000 4831.0000000 -9.829999924 2.3499999046 2.1600000858 2.4400000572
 4832.0000000 4832.0000000 -8.079999924 2.2899999619 2.4300000668 2.3399999142
 4833.0000000 4833.0000000 -7.309999943 2.3299999237 2.5399999619 2.1600000858
 4834.0000000 4834.0000000 -7.079999924 2.3499999046 2.5499999523 1.9500000477
 4835.0000000 4835.0000000 -7.280000210 2.3699998856 2.5099999905 1.9400000572
 4836.0000000 4836.0000000 -7.639999866 2.4300000668 2.4000000954 2.0899999142
 4837.0000000 4837.0000000 -7.889999866 2.3699998856 2.4000000954 2.1700000763
 4838.0000000 4838.0000000 -7.739999771 2.2400000095 2.5399999619 2.1300001144
 4839.0000000 4839.0000000 -7.579999924 2.1700000763 2.5499999523 1.9900000095
 4840.0000000 4840.0000000 -7.800000191 2.1800000668 2.4700000286 1.8099999428
 4841.0000000 4841.0000000 -8.500000000 2.1900000572 2.3299999237 1.7799999714
 4842.0000000 4842.0000000 -9.289999962 2.1400001049 2.1800000668 1.8799999952
 4843.0000000 4843.0000000 -9.689999580 2.0799999237 2.0799999237 1.9800000191
 4844.0000000 4844.0000000 -9.680000305 2.0000000000 2.0499999523 1.9400000572
 4845.0000000 4845.0000000 -9.229999542 1.8799999952 2.0399999619 1.8700000048
 4846.0000000 4846.0000000 -8.300000191 1.7599999905 2.0199999809 1.8400000334
 4847.0000000 4847.0000000 -7.239999771 1.6699999571 1.8999999762 1.8700000048
 4848.0000000 4848.0000000 -7.239999771 1.6900000572 1.7999999523 2.0199999809
 4849.0000000 4849.0000000 -7.789999962 1.7200000286 1.7200000286 2.2899999619
 4850.0000000 4850.0000000 -7.809999943 1.7300000191 1.7100000381 2.4700000286
 4851.0000000 4851.0000000 -7.210000038 1.6699999571 1.7100000381 2.5000000000
 4852.0000000 4852.0000000 -6.889999866 1.6000000238 1.6799999475 2.3099999428
 4853.0000000 4853.0000000 -7.099999905 1.5099999905 1.6299999952 2.1600000858
 4854.0000000 4854.0000000 -6.739999771 1.4299999475 1.5900000334 2.1400001049
 4855.0000000 4855.0000000 -6.170000076 1.3600000143 1.5700000525 2.1400001049
 4856.0000000 4856.0000000 -5.880000114 1.3099999428 1.5900000334 2.0599999428
 4857.0000000 4857.0000000 -6.030000210 1.2999999523 1.6399999857 1.8799999952
