# LAS format log file from PETREL
# Project units are specified as depth units
#==================================================================
~Version information
VERS.   2.0:
WRAP.   NO:
#==================================================================
~Well
STRT .m      4450.0000000 :
STOP .m      7050.0000000 :
STEP .m     1.00000000 :
NULL .        -999.250000 :
COMP.           : COMPANY
WELL.  WELL_4   : WELL
FLD.            : FIELD
LOC.            : LOCATION
SRVC.           : SERVICE COMPANY
DATE.  2023-03-20 17:52:46   : Log Export Date {yyyy-MM-dd HH:mm:ss}
PROV.           : PROVINCE
UWI.   WELL_4   : UNIQUE WELL ID
API.            : API NUMBER
#==================================================================
~Curve
DEPT .m                   : DEPTH
Depth .m                  : Depth
SP .mV                    : SP
SN .ohm.m                 : SN
LN .ohm.m                 : LN
LAT .ohm.m                : LAT
~Parameter
#==================================================================
~Ascii
# ...
 6286.0000000 6286.0000000 -14.28999996 4.0700001717 3.5899999142 5.0300002098
 6287.0000000 6287.0000000 -14.13000011 3.8299999237 3.4500000477 5.1300001144
 6288.0000000 6288.0000000 -13.69999981 3.4600000381 3.2699999809 4.6700000763
 6289.0000000 6289.0000000 -13.06000042 3.1099998951 3.1199998856 4.3499999046
 6290.0000000 6290.0000000 -12.21000004 2.7200000286 3.0299999714 4.2899999619
 6291.0000000 6291.0000000 -11.14000034 2.2999999523 3.1300001144 4.2600002289
 6292.0000000 6292.0000000 -10.27000046 2.0599999428 3.2500000000 3.6400001049
 6293.0000000 6293.0000000 -10.51000023 2.0699999332 3.3399999142 2.7300000191
 6294.0000000 6294.0000000 -12.61999989 2.4000000954 3.3800001144 2.3399999142
 6295.0000000 6295.0000000 -14.96000004 2.8199999332 3.4200000763 2.4300000668
 6296.0000000 6296.0000000 -17.18000031 3.3199999332 3.5699999332 2.6099998951
 6297.0000000 6297.0000000 -18.81999969 3.7000000477 3.9200000763 2.7000000477
 6298.0000000 6298.0000000 -19.37999916 4.1599998474 4.3200001717 2.7999999523
 6299.0000000 6299.0000000 -19.89999962 4.6900000572 4.6999998093 3.0599999428
 6300.0000000 6300.0000000 -20.75000000 5.1799998283 5.1999998093 3.5399999619
 6301.0000000 6301.0000000 -21.55999947 5.5599999428 5.6500000954 3.9600000381
 6302.0000000 6302.0000000 -21.95000076 6.1900000572 6.0700001717 4.3899998665
 6303.0000000 6303.0000000 -21.55999947 6.9000000954 6.2899999619 5.0100002289
 6304.0000000 6304.0000000 -21.37000084 7.5000000000 6.2199997902 5.8499999046
 6305.0000000 6305.0000000 -21.31999969 7.4600000381 6.2199997902 6.4800000191
 6306.0000000 6306.0000000 -21.04000092 6.6900000572 6.0900001526 6.9299998283
 6307.0000000 6307.0000000 -20.02000046 6.0900001526 5.2699999809 6.9899997711
 6308.0000000 6308.0000000 -18.01000023 5.4200000763 3.7899999619 7.0300002098
 6309.0000000 6309.0000000 -15.06999969 4.4299998283 2.9300000668 7.2199997902
 6310.0000000 6310.0000000 -12.42000008 3.5599999428 2.6099998951 7.5999999046
 6311.0000000 6311.0000000 -9.430000305 2.4200000763 2.4600000381 6.8899998665
 6312.0000000 6312.0000000 -7.360000134 1.8999999762 2.3299999237 5.3000001907
 6313.0000000 6313.0000000 -7.360000134 1.5599999428 2.2400000095 3.4600000381
 6314.0000000 6314.0000000 -7.409999847 1.4199999571 2.2300000191 2.5299999714
 6315.0000000 6315.0000000 -6.989999771 1.3300000429 2.2100000381 2.1400001049
 6316.0000000 6316.0000000 -5.980000019 1.3400000334 2.2899999619 1.6599999666
 6317.0000000 6317.0000000 -5.949999809 1.4500000477 2.4200000763 1.3899999857
 6318.0000000 6318.0000000 -7.289999962 1.6499999762 2.4400000572 1.3700000048
 6319.0000000 6319.0000000 -8.829999924 2.2000000477 2.3299999237 1.5900000334
 6320.0000000 6320.0000000 -10.14999962 2.7200000286 2.1800000668 2.0899999142
 6321.0000000 6321.0000000 -11.10000038 3.1900000572 2.2100000381 2.7400000095
 6322.0000000 6322.0000000 -11.47000027 3.0699999332 2.4400000572 3.3499999046
 6323.0000000 6323.0000000 -11.18000031 2.6600000858 2.8399999142 3.3199999332
 6324.0000000 6324.0000000 -10.82999992 2.4500000477 3.4800000191 2.5999999046
 6325.0000000 6325.0000000 -10.86999989 2.5899999142 3.7400000095 2.0799999237
 6326.0000000 6326.0000000 -11.27000046 3.0000000000 3.6500000954 2.0099999905
 6327.0000000 6327.0000000 -11.82999992 3.5499999523 3.2400000095 2.4700000286
 6328.0000000 6328.0000000 -12.26000023 3.9100000858 3.0199999809 3.0299999714
 6329.0000000 6329.0000000 -11.94999981 3.6500000954 3.2400000095 3.3800001144
 6330.0000000 6330.0000000 -10.98999977 2.8800001144 3.8800001144 3.1500000954
 6331.0000000 6331.0000000 -10.61999989 2.6400001049 4.5300002098 2.1199998856
 6332.0000000 6332.0000000 -11.47999954 2.8599998951 4.8499999046 1.7300000191
 6333.0000000 6333.0000000 -13.21000004 3.9900000095 4.9499998093 1.8999999762
 6334.0000000 6334.0000000 -15.72000027 5.5399999619 5.0199999809 2.6500000954
 6335.0000000 6335.0000000 -17.50000000 7.4400000572 5.5700001717 3.3900001049
 6336.0000000 6336.0000000 -18.70000076 8.3299999237 6.8299999237 3.9100000858
 6337.0000000 6337.0000000 -19.48999977 8.8500003815 8.7299995422 4.2100000381
 6338.0000000 6338.0000000 -19.96999931 9.1300001144 10.029999733 4.6100001335
 6339.0000000 6339.0000000 -20.22999954 9.5299997330 10.010000229 5.3600001335
 6340.0000000 6340.0000000 -20.36000061 9.7299995422 10.010000229 6.3800001144
 6341.0000000 6341.0000000 -20.37999916 9.6300001144 10.020000458 6.7600002289
 6342.0000000 6342.0000000 -20.28000069 9.3999996185 10.020000458 6.8899998665
 6343.0000000 6343.0000000 -19.97999954 9.1599998474 10.020000458 6.6500000954
 6344.0000000 6344.0000000 -19.57999992 8.8999996185 10.020000458 6.4699997902
 6345.0000000 6345.0000000 -19.12999916 8.4399995804 9.9899997711 6.4699997902
 6346.0000000 6346.0000000 -18.68000031 7.5100002289 8.0100002289 6.8699998856
 6347.0000000 6347.0000000 -18.12000084 6.6100001335 6.3800001144 7.6599998474
 6348.0000000 6348.0000000 -17.26000023 5.6399998665 4.5599999428 7.9800000191
 6349.0000000 6349.0000000 -16.02000046 4.3600001335 3.1600000858 7.4299998283
 6350.0000000 6350.0000000 -14.15999985 3.4900000095 2.5999999046 6.4299998283
 6351.0000000 6351.0000000 -11.42000008 2.7200000286 2.4800000191 5.7100000381
 6352.0000000 6352.0000000 -7.960000038 1.7999999523 2.4900000095 4.8099999428
 6353.0000000 6353.0000000 -5.960000038 1.4600000381 2.5199999809 4.0000000000
 6354.0000000 6354.0000000 -5.920000076 1.4299999475 2.4600000381 3.2400000095
 6355.0000000 6355.0000000 -6.809999943 1.6200000048 2.2200000286 2.8299999237
 6356.0000000 6356.0000000 -7.400000095 1.7999999523 2.1199998856 3.2400000095
 6357.0000000 6357.0000000 -7.460000038 1.8700000048 2.2899999619 3.5999999046
 6358.0000000 6358.0000000 -7.400000095 1.8200000525 2.5799999237 3.5999999046
 6359.0000000 6359.0000000 -8.939999580 2.0999999046 2.8599998951 2.9300000668
 6360.0000000 6360.0000000 -10.63000011 2.6400001049 3.1600000858 2.6400001049
 6361.0000000 6361.0000000 -12.31999969 3.3599998951 3.3599998951 2.9600000381
 6362.0000000 6362.0000000 -12.93999958 4.1300001144 3.5699999332 3.5799999237
 6363.0000000 6363.0000000 -12.97999954 4.8400001526 4.0999999046 4.1700000763
 6364.0000000 6364.0000000 -12.92000008 5.3600001335 4.7300000191 4.6199998856
 6365.0000000 6365.0000000 -12.89000034 5.6700000763 5.4299998283 4.9299998283
 6366.0000000 6366.0000000 -12.86999989 5.9200000763 5.7699999809 5.2300000191
 6367.0000000 6367.0000000 -12.81999969 6.1100001335 5.8600001335 5.5399999619
 6368.0000000 6368.0000000 -12.76000023 6.1900000572 5.7699999809 5.8099999428
 6369.0000000 6369.0000000 -12.59000015 6.1900000572 5.2399997711 6.1599998474
 6370.0000000 6370.0000000 -12.27000046 6.0500001907 4.8699998856 6.3699998856
 6371.0000000 6371.0000000 -11.55000019 5.4400000572 4.4899997711 6.3400001526
 6372.0000000 6372.0000000 -10.34000015 4.6700000763 4.2899999619 5.7899999619
 6373.0000000 6373.0000000 -9.670000076 4.0599999428 3.8800001144 4.9800000191
 6374.0000000 6374.0000000 -9.510000229 3.6500000954 3.3099999428 4.3899998665
 6375.0000000 6375.0000000 -9.329999924 3.2400000095 2.7599999905 4.2300000191
 6376.0000000 6376.0000000 -8.520000458 2.5999999046 2.4900000095 4.2600002289
 6377.0000000 6377.0000000 -7.780000210 2.2100000381 2.2899999619 3.7899999619
 6378.0000000 6378.0000000 -7.440000057 2.0699999332 2.1400001049 3.1199998856
 6379.0000000 6379.0000000 -7.429999828 1.9600000381 1.9500000477 2.7000000477
 6380.0000000 6380.0000000 -7.329999924 1.8799999952 1.7200000286 2.5999999046
 6381.0000000 6381.0000000 -6.980000019 1.6699999571 1.6699999571 2.5599999428
 6382.0000000 6382.0000000 -6.610000134 1.3999999762 1.6900000572 2.3900001049
 6383.0000000 6383.0000000 -5.909999847 1.1900000572 1.7000000477 2.0999999046
 6384.0000000 6384.0000000 -5.739999771 1.0700000525 1.7000000477 1.7799999714
 6385.0000000 6385.0000000 -6.179999828 1.0299999714 1.7100000381 1.5599999428
 6386.0000000 6386.0000000 -7.010000229 1.1100000143 1.7200000286 1.4900000095
 6387.0000000 6387.0000000 -9.119999886 1.2799999714 1.7100000381 1.5599999428
