# LAS format log file from PETREL
# Project units are specified as depth units
#==================================================================
~Version information
VERS.   2.0:
WRAP.   NO:
#==================================================================
~Well
STRT .m      4650.0000000 :
STOP .m      7050.0000000 :
STEP .m     1.00000000 :
NULL .        -999.250000 :
COMP.           : COMPANY
WELL.  WELL_3   : WELL
FLD.            : FIELD
LOC.            : LOCATION
SRVC.           : SERVICE COMPANY
DATE.  2023-03-20 17:52:46   : Log Export Date {yyyy-MM-dd HH:mm:ss}
PROV.           : PROVINCE
UWI.   WELL_3   : UNIQUE WELL ID
API.            : API NUMBER
#==================================================================
~Curve
DEPT .m                   : DEPTH
Depth .m                  : Depth
SP .mV                    : SP
SN .ohm.m                 : SN
LN .ohm.m                 : LN
LAT .ohm.m                : LAT
~Parameter
#==================================================================
~Ascii
# ...
 6792.0000000 6792.0000000 -6.710000038 1.8500000238 2.1900000572 1.7500000000
 6793.0000000 6793.0000000 -8.050000191 2.1700000763 2.2100000381 1.7699999809
 6794.0000000 6794.0000000 -9.270000458 2.4500000477 2.2000000477 1.9099999666
 6795.0000000 6795.0000000 -9.689999580 2.6700000763 2.1800000668 2.1500000954
 6796.0000000 6796.0000000 -9.149999619 2.7599999905 2.1700000763 2.4200000763
 6797.0000000 6797.0000000 -8.569999695 2.6800000668 2.1400001049 2.6099998951
 6798.0000000 6798.0000000 -8.180000305 2.5000000000 2.1800000668 2.5799999237
 6799.0000000 6799.0000000 -7.909999847 2.2799999714 2.2599999905 2.3900001049
 6800.0000000 6800.0000000 -7.719999790 2.1600000858 2.2799999714 2.1400001049
 6801.0000000 6801.0000000 -7.659999847 2.0000000000 2.2599999905 1.9900000095
 6802.0000000 6802.0000000 -7.519999981 1.8899999857 2.2799999714 1.9299999475
 6803.0000000 6803.0000000 -7.019999981 1.8300000429 2.3599998951 1.8700000048
 6804.0000000 6804.0000000 -6.630000114 1.8899999857 2.4200000763 1.7799999714
 6805.0000000 6805.0000000 -7.179999828 2.0899999142 2.4400000572 1.8600000143
 6806.0000000 6806.0000000 -8.369999886 2.3800001144 2.3699998856 2.2500000000
 6807.0000000 6807.0000000 -9.510000229 2.6300001144 2.2100000381 2.7999999523
 6808.0000000 6808.0000000 -10.11999989 2.7899999619 2.0199999809 3.3399999142
 6809.0000000 6809.0000000 -10.47000027 2.7000000477 2.0499999523 3.6800000668
 6810.0000000 6810.0000000 -10.07999992 2.5299999714 2.1099998951 3.6400001049
 6811.0000000 6811.0000000 -9.130000114 2.3599998951 2.0199999809 3.1800000668
 6812.0000000 6812.0000000 -8.810000420 2.2899999619 1.8400000334 2.7699999809
 6813.0000000 6813.0000000 -8.680000305 2.2000000477 1.6900000572 2.6800000668
 6814.0000000 6814.0000000 -7.679999828 1.8600000143 1.5900000334 2.7000000477
 6815.0000000 6815.0000000 -6.780000210 1.5599999428 1.5700000525 2.4800000191
 6816.0000000 6816.0000000 -6.079999924 1.3700000048 1.5599999428 2.0000000000
 6817.0000000 6817.0000000 -5.650000095 1.2000000477 1.5399999619 1.6499999762
 6818.0000000 6818.0000000 -5.480000019 1.0900000334 1.4900000095 1.4400000572
 6819.0000000 6819.0000000 -5.110000134 1.0299999714 1.4600000381 1.2599999905
 6820.0000000 6820.0000000 -4.519999981 0.9900000095 1.4800000191 1.1200000048
 6821.0000000 6821.0000000 -4.099999905 0.9700000286 1.5199999809 1.0099999905
 6822.0000000 6822.0000000 -4.039999962 1.0499999523 1.5599999428 0.9300000072
 6823.0000000 6823.0000000 -4.989999771 1.2300000191 1.6000000238 0.8700000048
 6824.0000000 6824.0000000 -6.760000229 1.5000000000 1.6200000048 0.9499999881
 6825.0000000 6825.0000000 -8.810000420 1.8300000429 1.6399999857 1.1299999952
 6826.0000000 6826.0000000 -10.19999981 2.1300001144 1.6699999571 1.3899999857
 6827.0000000 6827.0000000 -11.02999973 2.3399999142 1.8600000143 1.7300000191
 6828.0000000 6828.0000000 -11.11999989 2.5000000000 2.0999999046 2.0299999714
 6829.0000000 6829.0000000 -10.72000027 2.6700000763 2.2400000095 2.2599999905
 6830.0000000 6830.0000000 -11.22000027 3.1099998951 2.2500000000 2.5199999809
 6831.0000000 6831.0000000 -12.43999958 3.4200000763 2.2200000286 3.0099999905
 6832.0000000 6832.0000000 -12.89999962 3.4200000763 2.3099999428 3.4700000286
 6833.0000000 6833.0000000 -12.21000004 3.1700000763 2.5299999714 3.5199999809
 6834.0000000 6834.0000000 -11.18000031 3.0399999619 2.5299999714 3.1500000954
 6835.0000000 6835.0000000 -10.82999992 3.0799999237 2.3199999332 2.9500000477
 6836.0000000 6836.0000000 -10.25000000 3.0299999714 2.0799999237 3.0399999619
 6837.0000000 6837.0000000 -9.210000038 2.5999999046 1.8700000048 3.0999999046
 6838.0000000 6838.0000000 -8.109999657 2.2599999905 1.7500000000 2.7000000477
 6839.0000000 6839.0000000 -7.489999771 2.0099999905 1.7000000477 2.2599999905
 6840.0000000 6840.0000000 -7.159999847 1.8300000429 1.6699999571 2.0000000000
 6841.0000000 6841.0000000 -6.739999771 1.6699999571 1.5800000429 1.7400000095
 6842.0000000 6842.0000000 -6.400000095 1.5399999619 1.5199999809 1.4400000572
 6843.0000000 6843.0000000 -6.159999847 1.3899999857 1.5000000000 1.2599999905
 6844.0000000 6844.0000000 -5.820000172 1.2799999714 1.4900000095 1.1499999762
 6845.0000000 6845.0000000 -5.510000229 1.2100000381 1.4900000095 1.0700000525
 6846.0000000 6846.0000000 -5.500000000 1.1699999571 1.4800000191 0.9900000095
 6847.0000000 6847.0000000 -5.309999943 1.1299999952 1.4700000286 0.9499999881
 6848.0000000 6848.0000000 -5.010000229 1.1100000143 1.4600000381 0.9900000095
 6849.0000000 6849.0000000 -4.949999809 1.1299999952 1.4299999475 1.0700000525
 6850.0000000 6850.0000000 -4.920000076 1.1900000572 1.3799999952 1.2200000286
 6851.0000000 6851.0000000 -5.159999847 1.2500000000 1.2999999523 1.4500000477
 6852.0000000 6852.0000000 -5.809999943 1.3099999428 1.2400000095 1.7699999809
 6853.0000000 6853.0000000 -5.920000076 1.3600000143 1.2300000191 1.9299999475
 6854.0000000 6854.0000000 -5.659999847 1.3500000238 1.2200000286 1.9500000477
 6855.0000000 6855.0000000 -5.309999943 1.2899999619 1.2200000286 1.8899999857
 6856.0000000 6856.0000000 -5.079999924 1.2400000095 1.2000000477 1.9199999571
 6857.0000000 6857.0000000 -4.929999828 1.2000000477 1.1499999762 2.0399999619
 6858.0000000 6858.0000000 -4.800000191 1.1699999571 1.0800000429 2.1400001049
 6859.0000000 6859.0000000 -4.820000172 1.1399999857 1.0399999619 2.1400001049
 6860.0000000 6860.0000000 -5.110000134 1.0900000334 1.0299999714 2.0399999619
 6861.0000000 6861.0000000 -5.250000000 1.0099999905 1.0299999714 1.8899999857
 6862.0000000 6862.0000000 -5.159999847 0.9399999976 1.0299999714 1.7200000286
 6863.0000000 6863.0000000 -4.800000191 0.8899999857 1.0199999809 1.5800000429
 6864.0000000 6864.0000000 -4.340000153 0.8899999857 1.0099999905 1.4299999475
 6865.0000000 6865.0000000 -4.059999943 0.8899999857 1.0299999714 1.2699999809
 6866.0000000 6866.0000000 -4.090000153 0.8899999857 1.0399999619 1.1799999475
 6867.0000000 6867.0000000 -4.360000134 0.8999999762 1.0499999523 1.1399999857
 6868.0000000 6868.0000000 -4.610000134 0.9100000262 1.0599999428 1.1100000143
 6869.0000000 6869.0000000 -4.690000057 0.9100000262 1.0399999619 1.1000000238
 6870.0000000 6870.0000000 -4.389999866 0.8999999762 1.0099999905 1.1299999952
 6871.0000000 6871.0000000 -4.139999866 0.8899999857 0.9800000191 1.1799999475
 6872.0000000 6872.0000000 -4.159999847 0.9100000262 0.9499999881 1.2500000000
 6873.0000000 6873.0000000 -4.380000114 0.8700000048 0.9399999976 1.2999999523
 6874.0000000 6874.0000000 -4.510000229 0.8100000024 0.9399999976 1.2999999523
 6875.0000000 6875.0000000 -4.349999905 0.8100000024 0.9900000095 1.2500000000
 6876.0000000 6876.0000000 -5.550000191 0.8799999952 1.0199999809 1.1799999475
 6877.0000000 6877.0000000 -7.639999866 1.0199999809 1.0499999523 1.1499999762
 6878.0000000 6878.0000000 -12.01000023 1.2699999809 1.0700000525 1.1900000572
 6879.0000000 6879.0000000 -18.70000076 1.7899999619 1.1000000238 1.2799999714
 6880.0000000 6880.0000000 -25.06999969 2.0899999142 1.1699999571 1.3899999857
 6881.0000000 6881.0000000 -28.22999954 2.2699999809 1.3200000525 1.4400000572
 6882.0000000 6882.0000000 -29.93000031 2.2200000286 1.5099999905 1.3600000143
 6883.0000000 6883.0000000 -30.69000053 2.0899999142 1.6799999475 1.2400000095
 6884.0000000 6884.0000000 -30.15999985 1.9199999571 1.6299999952 1.1299999952
 6885.0000000 6885.0000000 -27.45000076 1.7300000191 1.5000000000 1.1000000238
 6886.0000000 6886.0000000 -21.70000076 1.4900000095 1.4199999571 1.1799999475
 6887.0000000 6887.0000000 -15.39999962 1.3700000048 1.4199999571 1.3099999428
 6888.0000000 6888.0000000 -13.81000042 1.5399999619 1.4299999475 1.3799999952
 6889.0000000 6889.0000000 -17.30999947 1.9700000286 1.3600000143 1.3500000238
 6890.0000000 6890.0000000 -19.81999969 2.2500000000 1.2300000191 1.4500000477
 6891.0000000 6891.0000000 -17.80999947 2.3099999428 1.1200000048 1.8799999952
 6892.0000000 6892.0000000 -13.06000042 1.9600000381 1.1200000048 2.1700000763
 6893.0000000 6893.0000000 -9.930000305 1.5399999619 1.2300000191 2.0299999714
