# LAS format log file from PETREL
# Project units are specified as depth units
#==================================================================
~Version information
VERS.   2.0:
WRAP.   NO:
#==================================================================
~Well
STRT .m      4561.0000000 :
STOP .m      7034.0000000 :
STEP .m     1.00000000 :
NULL .        -999.250000 :
COMP.           : COMPANY
WELL.  WELL_5   : WELL
FLD.            : FIELD
LOC.            : LOCATION
SRVC.           : SERVICE COMPANY
DATE.  2023-03-20 17:52:46   : Log Export Date {yyyy-MM-dd HH:mm:ss}
PROV.           : PROVINCE
UWI.   WELL_5   : UNIQUE WELL ID
API.            : API NUMBER
#==================================================================
~Curve
DEPT .m                   : DEPTH
Depth .m                  : Depth
SN .ohm.m                 : SN
ILD .ohm.m                : ILD
~Parameter
#==================================================================
~Ascii
# ...
 6826.0000000 6826.0000000 4.8000001907 3.4900000095
 6827.0000000 6827.0000000 4.8600001335 2.6300001144
 6828.0000000 6828.0000000 3.1400001049 2.1199998856
 6829.0000000 6829.0000000 2.3699998856 1.6699999571
 6830.0000000 6830.0000000 2.1300001144 1.4600000381
 6831.0000000 6831.0000000 2.1199998856 1.4800000191
 6832.0000000 6832.0000000 2.2799999714 1.6900000572
 6833.0000000 6833.0000000 2.6800000668 1.9299999475
 6834.0000000 6834.0000000 3.2000000477 2.1900000572
 6835.0000000 6835.0000000 3.2400000095 2.4900000095
 6836.0000000 6836.0000000 3.1400001049 2.5499999523
 6837.0000000 6837.0000000 3.0699999332 2.4900000095
 6838.0000000 6838.0000000 3.1900000572 2.5499999523
 6839.0000000 6839.0000000 3.5499999523 2.6900000572
 6840.0000000 6840.0000000 3.8499999046 2.7300000191
 6841.0000000 6841.0000000 3.7899999619 2.3900001049
 6842.0000000 6842.0000000 2.9000000954 1.7699999809
 6843.0000000 6843.0000000 2.1700000763 1.4600000381
 6844.0000000 6844.0000000 1.6299999952 1.2100000381
 6845.0000000 6845.0000000 1.3500000238 1.0399999619
 6846.0000000 6846.0000000 1.2300000191 0.9800000191
 6847.0000000 6847.0000000 1.1699999571 0.9499999881
 6848.0000000 6848.0000000 1.1100000143 0.9399999976
 6849.0000000 6849.0000000 1.0599999428 0.9100000262
 6850.0000000 6850.0000000 1.0099999905 0.8799999952
 6851.0000000 6851.0000000 0.9700000286 0.8199999928
 6852.0000000 6852.0000000 0.9499999881 0.7799999714
 6853.0000000 6853.0000000 0.9399999976 0.7799999714
 6854.0000000 6854.0000000 0.9700000286 0.8199999928
 6855.0000000 6855.0000000 1.0199999809 0.8799999952
 6856.0000000 6856.0000000 1.0800000429 0.9399999976
 6857.0000000 6857.0000000 1.1299999952 0.9700000286
 6858.0000000 6858.0000000 1.1399999857 0.9700000286
 6859.0000000 6859.0000000 1.1599999666 0.9700000286
 6860.0000000 6860.0000000 1.2100000381 1.0499999523
 6861.0000000 6861.0000000 1.3200000525 1.2000000477
 6862.0000000 6862.0000000 1.4900000095 1.3899999857
 6863.0000000 6863.0000000 1.8500000238 1.6799999475
 6864.0000000 6864.0000000 2.3199999332 2.1400001049
 6865.0000000 6865.0000000 2.6400001049 2.4800000191
 6866.0000000 6866.0000000 2.8699998856 2.6700000763
 6867.0000000 6867.0000000 3.0000000000 2.6300001144
 6868.0000000 6868.0000000 2.9200000763 2.5399999619
 6869.0000000 6869.0000000 2.7200000286 2.3399999142
 6870.0000000 6870.0000000 2.5000000000 2.1199998856
 6871.0000000 6871.0000000 2.2999999523 1.8899999857
 6872.0000000 6872.0000000 2.0299999714 1.5199999809
 6873.0000000 6873.0000000 1.6000000238 1.2799999714
 6874.0000000 6874.0000000 1.3799999952 1.1000000238
 6875.0000000 6875.0000000 1.2899999619 1.0399999619
 6876.0000000 6876.0000000 1.2500000000 1.0199999809
 6877.0000000 6877.0000000 1.2200000286 1.0299999714
 6878.0000000 6878.0000000 1.2200000286 1.0499999523
 6879.0000000 6879.0000000 1.2100000381 1.0499999523
 6880.0000000 6880.0000000 1.1900000572 1.0199999809
 6881.0000000 6881.0000000 1.1599999666 1.0000000000
 6882.0000000 6882.0000000 1.1399999857 0.9800000191
 6883.0000000 6883.0000000 1.1200000048 0.9700000286
 6884.0000000 6884.0000000 1.1100000143 0.9900000095
 6885.0000000 6885.0000000 1.1399999857 1.0900000334
 6886.0000000 6886.0000000 1.2599999905 1.2200000286
 6887.0000000 6887.0000000 1.3400000334 1.3099999428
 6888.0000000 6888.0000000 1.4299999475 1.3400000334
 6889.0000000 6889.0000000 1.3999999762 1.2999999523
 6890.0000000 6890.0000000 1.3200000525 1.2100000381
 6891.0000000 6891.0000000 1.2400000095 1.1100000143
 6892.0000000 6892.0000000 1.1699999571 1.0199999809
 6893.0000000 6893.0000000 1.1599999666 0.9800000191
 6894.0000000 6894.0000000 1.1499999762 0.9599999785
 6895.0000000 6895.0000000 1.1499999762 0.9499999881
 6896.0000000 6896.0000000 1.1299999952 0.9200000167
 6897.0000000 6897.0000000 1.0900000334 0.9100000262
 6898.0000000 6898.0000000 1.0199999809 0.9100000262
 6899.0000000 6899.0000000 0.9900000095 0.9100000262
 6900.0000000 6900.0000000 1.0399999619 0.9100000262
 6901.0000000 6901.0000000 1.0700000525 0.9399999976
 6902.0000000 6902.0000000 1.1000000238 0.9700000286
 6903.0000000 6903.0000000 1.1100000143 0.9900000095
 6904.0000000 6904.0000000 1.1000000238 1.0000000000
 6905.0000000 6905.0000000 1.0900000334 1.0099999905
 6906.0000000 6906.0000000 1.0900000334 1.0000000000
 6907.0000000 6907.0000000 1.0900000334 0.9800000191
 6908.0000000 6908.0000000 1.0800000429 0.9599999785
 6909.0000000 6909.0000000 1.0700000525 0.9100000262
 6910.0000000 6910.0000000 1.0599999428 0.8799999952
 6911.0000000 6911.0000000 1.0199999809 0.8399999738
 6912.0000000 6912.0000000 0.9599999785 0.7799999714
 6913.0000000 6913.0000000 0.9200000167 0.7400000095
 6914.0000000 6914.0000000 0.9200000167 0.7300000191
 6915.0000000 6915.0000000 1.0000000000 0.7699999809
 6916.0000000 6916.0000000 1.1200000048 0.8899999857
 6917.0000000 6917.0000000 1.3799999952 1.1299999952
 6918.0000000 6918.0000000 1.9400000572 1.4700000286
 6919.0000000 6919.0000000 2.8699998856 1.9700000286
 6920.0000000 6920.0000000 3.5899999142 2.5399999619
 6921.0000000 6921.0000000 4.0599999428 2.6199998856
 6922.0000000 6922.0000000 3.6400001049 2.1099998951
 6923.0000000 6923.0000000 2.3299999237 1.6499999762
 6924.0000000 6924.0000000 1.4900000095 1.3899999857
 6925.0000000 6925.0000000 1.3099999428 1.2599999905
 6926.0000000 6926.0000000 1.3200000525 1.2000000477
 6927.0000000 6927.0000000 1.3600000143 1.1900000572
 6928.0000000 6928.0000000 1.3700000048 1.1799999475
 6929.0000000 6929.0000000 1.2899999619 1.0299999714
 6930.0000000 6930.0000000 1.1599999666 0.8799999952
 6931.0000000 6931.0000000 0.9700000286 0.7200000286
 6932.0000000 6932.0000000 0.8100000024 0.6000000238
 6933.0000000 6933.0000000 0.7699999809 0.5500000119
 6934.0000000 6934.0000000 0.7900000215 0.5500000119
 6935.0000000 6935.0000000 0.8600000143 0.5799999833
 6936.0000000 6936.0000000 0.9300000072 0.6800000072
 6937.0000000 6937.0000000 1.0000000000 0.8100000024
 6938.0000000 6938.0000000 1.0700000525 0.7799999714
 6939.0000000 6939.0000000 0.9700000286 0.7500000000
 6940.0000000 6940.0000000 0.9100000262 0.7699999809
 6941.0000000 6941.0000000 0.9700000286 0.7699999809
 6942.0000000 6942.0000000 1.0900000334 0.9100000262
 6943.0000000 6943.0000000 1.2300000191 1.1299999952
 6944.0000000 6944.0000000 1.3099999428 1.2500000000
 6945.0000000 6945.0000000 1.3999999762 1.3300000429
 6946.0000000 6946.0000000 1.4299999475 1.3899999857
 6947.0000000 6947.0000000 1.4299999475 1.3600000143
 6948.0000000 6948.0000000 1.3600000143 1.2000000477
 6949.0000000 6949.0000000 1.2200000286 0.9300000072
 6950.0000000 6950.0000000 1.0299999714 0.7799999714
 6951.0000000 6951.0000000 0.9100000262 0.6800000072
 6952.0000000 6952.0000000 0.8600000143 0.6000000238
 6953.0000000 6953.0000000 0.8199999928 0.5500000119
 6954.0000000 6954.0000000 0.8299999833 0.6200000048
 6955.0000000 6955.0000000 0.9499999881 0.7099999785
 6956.0000000 6956.0000000 1.0199999809 0.7799999714
 6957.0000000 6957.0000000 1.0700000525 0.8999999762
 6958.0000000 6958.0000000 1.0700000525 0.8600000143
 6959.0000000 6959.0000000 1.0299999714 0.8000000119
 6960.0000000 6960.0000000 1.0000000000 0.7699999809
 6961.0000000 6961.0000000 0.9700000286 0.8000000119
 6962.0000000 6962.0000000 0.9800000191 0.8999999762
 6963.0000000 6963.0000000 1.1499999762 1.0000000000
 6964.0000000 6964.0000000 1.5399999619 1.2599999905
 6965.0000000 6965.0000000 1.8400000334 1.5299999714
 6966.0000000 6966.0000000 1.9900000095 1.6299999952
 6967.0000000 6967.0000000 1.8099999428 1.5399999619
 6968.0000000 6968.0000000 1.6200000048 1.4400000572
 6969.0000000 6969.0000000 1.5499999523 1.3700000048
 6970.0000000 6970.0000000 1.5199999809 1.2300000191
 6971.0000000 6971.0000000 1.5000000000 0.9800000191
 6972.0000000 6972.0000000 1.3500000238 0.7300000191
 6973.0000000 6973.0000000 1.0599999428 0.6499999762
 6974.0000000 6974.0000000 0.9399999976 0.6800000072
 6975.0000000 6975.0000000 1.0000000000 0.7200000286
 6976.0000000 6976.0000000 1.3099999428 0.8000000119
