# LAS format log file from PETREL
# Project units are specified as depth units
#==================================================================
~Version information
VERS.   2.0:
WRAP.   NO:
#==================================================================
~Well
STRT .m      4561.0000000 :
STOP .m      7034.0000000 :
STEP .m     1.00000000 :
NULL .        -999.250000 :
COMP.           : COMPANY
WELL.  WELL_5   : WELL
FLD.            : FIELD
LOC.            : LOCATION
SRVC.           : SERVICE COMPANY
DATE.  2023-03-20 17:52:46   : Log Export Date {yyyy-MM-dd HH:mm:ss}
PROV.           : PROVINCE
UWI.   WELL_5   : UNIQUE WELL ID
API.            : API NUMBER
#==================================================================
~Curve
DEPT .m                   : DEPTH
Depth .m                  : Depth
SN .ohm.m                 : SN
ILD .ohm.m                : ILD
~Parameter
#==================================================================
~Ascii
 4561.0000000 4561.0000000 1.3799999952 1.2899999619
 4562.0000000 4562.0000000 1.3700000048 1.2799999714
 4563.0000000 4563.0000000 1.3600000143 1.2400000095
 4564.0000000 4564.0000000 1.2899999619 1.1699999571
 4565.0000000 4565.0000000 1.2300000191 1.1100000143
 4566.0000000 4566.0000000 1.1699999571 1.0499999523
 4567.0000000 4567.0000000 1.1499999762 1.0399999619
 4568.0000000 4568.0000000 1.1799999475 1.0700000525
 4569.0000000 4569.0000000 1.2100000381 1.0900000334
 4570.0000000 4570.0000000 1.2599999905 1.1100000143
 4571.0000000 4571.0000000 1.2300000191 1.1000000238
 4572.0000000 4572.0000000 1.1799999475 1.0599999428
 4573.0000000 4573.0000000 1.1599999666 1.0399999619
 4574.0000000 4574.0000000 1.1599999666 1.0399999619
 4575.0000000 4575.0000000 1.1900000572 1.0900000334
 4576.0000000 4576.0000000 1.2500000000 1.1599999666
 4577.0000000 4577.0000000 1.3300000429 1.0900000334
 4578.0000000 4578.0000000 1.2799999714 1.0199999809
 4579.0000000 4579.0000000 1.1799999475 0.9800000191
 4580.0000000 4580.0000000 1.0800000429 0.9100000262
 4581.0000000 4581.0000000 1.0399999619 0.8799999952
 4582.0000000 4582.0000000 1.0700000525 0.9300000072
 4583.0000000 4583.0000000 1.1100000143 0.9800000191
 4584.0000000 4584.0000000 1.1399999857 1.0499999523
 4585.0000000 4585.0000000 1.1799999475 1.1000000238
 4586.0000000 4586.0000000 1.2200000286 1.1200000048
 4587.0000000 4587.0000000 1.2400000095 1.1200000048
 4588.0000000 4588.0000000 1.2599999905 1.1100000143
 4589.0000000 4589.0000000 1.2799999714 1.1200000048
 4590.0000000 4590.0000000 1.3200000525 1.1900000572
 4591.0000000 4591.0000000 1.3899999857 1.2999999523
 4592.0000000 4592.0000000 1.5199999809 1.4400000572
 4593.0000000 4593.0000000 1.6599999666 1.5800000429
 4594.0000000 4594.0000000 1.8099999428 1.7000000477
 4595.0000000 4595.0000000 1.9199999571 1.7799999714
 4596.0000000 4596.0000000 1.9800000191 1.8300000429
 4597.0000000 4597.0000000 2.0499999523 1.9299999475
 4598.0000000 4598.0000000 2.2100000381 2.0699999332
 4599.0000000 4599.0000000 2.4600000381 2.2500000000
 4600.0000000 4600.0000000 2.6900000572 2.5000000000
 4601.0000000 4601.0000000 2.7200000286 2.5699999332
 4602.0000000 4602.0000000 2.6199998856 2.5000000000
 4603.0000000 4603.0000000 2.5199999809 2.4000000954
 4604.0000000 4604.0000000 2.4400000572 2.2500000000
 4605.0000000 4605.0000000 2.3399999142 2.0399999619
 4606.0000000 4606.0000000 2.2100000381 1.8099999428
 4607.0000000 4607.0000000 1.9700000286 1.5299999714
 4608.0000000 4608.0000000 1.7300000191 1.3200000525
 4609.0000000 4609.0000000 1.5499999523 1.2400000095
 4610.0000000 4610.0000000 1.4299999475 1.2200000286
 4611.0000000 4611.0000000 1.4299999475 1.2200000286
 4612.0000000 4612.0000000 1.5000000000 1.2500000000
 4613.0000000 4613.0000000 1.5399999619 1.2799999714
 4614.0000000 4614.0000000 1.5700000525 1.3300000429
 4615.0000000 4615.0000000 1.6299999952 1.4299999475
 4616.0000000 4616.0000000 1.7599999905 1.5900000334
 4617.0000000 4617.0000000 2.0099999905 1.8799999952
 4618.0000000 4618.0000000 2.3800001144 2.2699999809
 4619.0000000 4619.0000000 2.7599999905 2.5199999809
 4620.0000000 4620.0000000 2.8299999237 2.5699999332
 4621.0000000 4621.0000000 2.6800000668 2.3399999142
 4622.0000000 4622.0000000 2.3599998951 2.1099998951
 4623.0000000 4623.0000000 2.1500000954 2.0399999619
 4624.0000000 4624.0000000 2.0799999237 1.8899999857
 4625.0000000 4625.0000000 1.8999999762 1.6799999475
 4626.0000000 4626.0000000 1.7000000477 1.4500000477
 4627.0000000 4627.0000000 1.5399999619 1.2400000095
 4628.0000000 4628.0000000 1.3600000143 1.1000000238
 4629.0000000 4629.0000000 1.3099999428 1.0599999428
 4630.0000000 4630.0000000 1.2799999714 1.0499999523
 4631.0000000 4631.0000000 1.2699999809 1.0599999428
 4632.0000000 4632.0000000 1.2899999619 1.1000000238
 4633.0000000 4633.0000000 1.3400000334 1.1799999475
 4634.0000000 4634.0000000 1.4299999475 1.2999999523
 4635.0000000 4635.0000000 1.5199999809 1.4099999666
 4636.0000000 4636.0000000 1.5800000429 1.5000000000
 4637.0000000 4637.0000000 1.6100000143 1.5399999619
 4638.0000000 4638.0000000 1.6000000238 1.5399999619
 4639.0000000 4639.0000000 1.5900000334 1.4900000095
 4640.0000000 4640.0000000 1.5700000525 1.4700000286
 4641.0000000 4641.0000000 1.5499999523 1.4700000286
 4642.0000000 4642.0000000 1.5399999619 1.3999999762
 4643.0000000 4643.0000000 1.4900000095 1.2500000000
 4644.0000000 4644.0000000 1.3999999762 1.1299999952
 4645.0000000 4645.0000000 1.3099999428 1.0499999523
 4646.0000000 4646.0000000 1.2300000191 1.0199999809
 4647.0000000 4647.0000000 1.2200000286 1.0499999523
 4648.0000000 4648.0000000 1.2699999809 1.1000000238
 4649.0000000 4649.0000000 1.3400000334 1.1499999762
 4650.0000000 4650.0000000 1.3899999857 1.1900000572
 4651.0000000 4651.0000000 1.4099999666 1.2500000000
 4652.0000000 4652.0000000 1.4199999571 1.3300000429
 4653.0000000 4653.0000000 1.4800000191 1.4500000477
 4654.0000000 4654.0000000 1.6599999666 1.6200000048
 4655.0000000 4655.0000000 1.9099999666 1.8799999952
 4656.0000000 4656.0000000 2.0299999714 1.8999999762
 4657.0000000 4657.0000000 1.8700000048 1.7100000381
 4658.0000000 4658.0000000 1.5900000334 1.5000000000
 4659.0000000 4659.0000000 1.4600000381 1.2899999619
 4660.0000000 4660.0000000 1.3799999952 1.2300000191
 4661.0000000 4661.0000000 1.3500000238 1.2400000095
 4662.0000000 4662.0000000 1.2999999523 1.1900000572
 4663.0000000 4663.0000000 1.2500000000 1.1599999666
 4664.0000000 4664.0000000 1.2200000286 1.1599999666
 4665.0000000 4665.0000000 1.2300000191 1.1799999475
 4666.0000000 4666.0000000 1.2500000000 1.1900000572
 4667.0000000 4667.0000000 1.2500000000 1.1699999571
 4668.0000000 4668.0000000 1.2599999905 1.1599999666
 4669.0000000 4669.0000000 1.2100000381 1.1000000238
 4670.0000000 4670.0000000 1.1699999571 1.0399999619
 4671.0000000 4671.0000000 1.1499999762 0.9900000095
 4672.0000000 4672.0000000 1.1200000048 0.9399999976
 4673.0000000 4673.0000000 1.1100000143 0.9100000262
 4674.0000000 4674.0000000 1.1000000238 0.8899999857
 4675.0000000 4675.0000000 1.1100000143 0.8999999762
 4676.0000000 4676.0000000 1.1200000048 0.9399999976
 4677.0000000 4677.0000000 1.1499999762 0.9800000191
 4678.0000000 4678.0000000 1.1499999762 1.0199999809
 4679.0000000 4679.0000000 1.1599999666 1.0499999523
 4680.0000000 4680.0000000 1.2000000477 1.0599999428
 4681.0000000 4681.0000000 1.2300000191 1.0800000429
 4682.0000000 4682.0000000 1.2500000000 1.0900000334
 4683.0000000 4683.0000000 1.2599999905 1.1200000048
 4684.0000000 4684.0000000 1.2899999619 1.1599999666
 4685.0000000 4685.0000000 1.3500000238 1.2400000095
 4686.0000000 4686.0000000 1.4400000572 1.3999999762
 4687.0000000 4687.0000000 1.5499999523 1.6200000048
 4688.0000000 4688.0000000 1.7200000286 1.7699999809
 4689.0000000 4689.0000000 1.8799999952 1.8099999428
 4690.0000000 4690.0000000 1.9400000572 1.7400000095
 4691.0000000 4691.0000000 1.8400000334 1.6100000143
 4692.0000000 4692.0000000 1.6900000572 1.5299999714
 4693.0000000 4693.0000000 1.6599999666 1.4700000286
 4694.0000000 4694.0000000 1.6799999475 1.5900000334
 4695.0000000 4695.0000000 1.7799999714 1.7999999523
 4696.0000000 4696.0000000 1.9600000381 1.9099999666
 4697.0000000 4697.0000000 2.1300001144 1.9500000477
 4698.0000000 4698.0000000 2.1500000954 1.7799999714
 4699.0000000 4699.0000000 1.7699999809 1.5099999905
 4700.0000000 4700.0000000 1.4900000095 1.3200000525
 4701.0000000 4701.0000000 1.3400000334 1.1399999857
 4702.0000000 4702.0000000 1.2999999523 1.0599999428
 4703.0000000 4703.0000000 1.2599999905 1.0599999428
 4704.0000000 4704.0000000 1.2599999905 1.0900000334
 4705.0000000 4705.0000000 1.2599999905 1.1299999952
 4706.0000000 4706.0000000 1.3200000525 1.1699999571
 4707.0000000 4707.0000000 1.3700000048 1.2000000477
 4708.0000000 4708.0000000 1.3799999952 1.2200000286
 4709.0000000 4709.0000000 1.3500000238 1.2200000286
 4710.0000000 4710.0000000 1.3099999428 1.2000000477
 4711.0000000 4711.0000000 1.2899999619 1.1799999475
