# LAS format log file from PETREL
# Project units are specified as depth units
#==================================================================
~Version information
VERS.   2.0:
WRAP.   NO:
#==================================================================
~Well
STRT .m      4650.0000000 :
STOP .m      7050.0000000 :
STEP .m     1.00000000 :
NULL .        -999.250000 :
COMP.           : COMPANY
WELL.  WELL_3   : WELL
FLD.            : FIELD
LOC.            : LOCATION
SRVC.           : SERVICE COMPANY
DATE.  2023-03-20 17:52:46   : Log Export Date {yyyy-MM-dd HH:mm:ss}
PROV.           : PROVINCE
UWI.   WELL_3   : UNIQUE WELL ID
API.            : API NUMBER
#==================================================================
~Curve
DEPT .m                   : DEPTH
Depth .m                  : Depth
SP .mV                    : SP
SN .ohm.m                 : SN
LN .ohm.m                 : LN
LAT .ohm.m                : LAT
~Parameter
#==================================================================
~Ascii
# ...
 6486.0000000 6486.0000000 -8.829999924 2.4500000477 2.6099998951 3.3599998951
 6487.0000000 6487.0000000 -8.130000114 2.4100000858 2.6400001049 3.1900000572
 6488.0000000 6488.0000000 -7.590000153 2.4200000763 2.5299999714 3.2899999619
 6489.0000000 6489.0000000 -7.440000057 2.4500000477 2.4000000954 3.4800000191
 6490.0000000 6490.0000000 -7.449999809 2.3299999237 2.2899999619 3.5399999619
 6491.0000000 6491.0000000 -6.920000076 2.0499999523 2.2200000286 3.4700000286
 6492.0000000 6492.0000000 -6.170000076 1.8200000525 2.2699999809 3.1099998951
 6493.0000000 6493.0000000 -5.619999886 1.7000000477 2.3099999428 2.6300001144
 6494.0000000 6494.0000000 -5.750000000 1.7100000381 2.2300000191 2.4900000095
 6495.0000000 6495.0000000 -5.889999866 1.7400000095 2.0899999142 2.6199998856
 6496.0000000 6496.0000000 -5.800000191 1.7100000381 2.0099999905 2.7000000477
 6497.0000000 6497.0000000 -5.440000057 1.5900000334 1.9600000381 2.7400000095
 6498.0000000 6498.0000000 -5.219999790 1.4700000286 1.9299999475 2.9200000763
 6499.0000000 6499.0000000 -5.340000153 1.4199999571 1.9299999475 2.8800001144
 6500.0000000 6500.0000000 -5.460000038 1.4099999666 1.9500000477 2.5199999809
 6501.0000000 6501.0000000 -5.590000153 1.4099999666 1.9400000572 2.2200000286
 6502.0000000 6502.0000000 -6.039999962 1.4299999475 1.9500000477 2.1099998951
 6503.0000000 6503.0000000 -6.590000153 1.4700000286 2.0000000000 1.9800000191
 6504.0000000 6504.0000000 -6.989999771 1.5900000334 2.0899999142 1.9199999571
 6505.0000000 6505.0000000 -7.250000000 1.8799999952 2.1600000858 2.0699999332
 6506.0000000 6506.0000000 -8.109999657 2.3699998856 2.1800000668 2.2599999905
 6507.0000000 6507.0000000 -9.640000343 2.8499999046 2.2100000381 2.7400000095
 6508.0000000 6508.0000000 -10.22999954 3.0699999332 2.2699999809 3.1400001049
 6509.0000000 6509.0000000 -10.11999989 2.9800000191 2.3599998951 3.2999999523
 6510.0000000 6510.0000000 -9.779999733 2.8900001049 2.4100000858 3.2699999809
 6511.0000000 6511.0000000 -9.630000114 2.7699999809 2.2799999714 3.2899999619
 6512.0000000 6512.0000000 -9.119999886 2.5299999714 2.0599999428 3.3599998951
 6513.0000000 6513.0000000 -8.020000458 2.0599999428 2.0000000000 3.1099998951
 6514.0000000 6514.0000000 -6.519999981 1.6699999571 2.0499999523 2.6900000572
 6515.0000000 6515.0000000 -4.900000095 1.4500000477 2.1800000668 2.1800000668
 6516.0000000 6516.0000000 -4.059999943 1.3200000525 2.2599999905 1.5800000429
 6517.0000000 6517.0000000 -3.460000038 1.2799999714 2.3599998951 1.2999999523
 6518.0000000 6518.0000000 -3.289999962 1.3600000143 2.4100000858 1.1799999475
 6519.0000000 6519.0000000 -4.349999905 1.6399999857 2.4100000858 1.1499999762
 6520.0000000 6520.0000000 -6.449999809 2.0199999809 2.4300000668 1.2400000095
 6521.0000000 6521.0000000 -8.789999962 2.5000000000 2.5000000000 1.4600000381
 6522.0000000 6522.0000000 -10.69999981 3.0699999332 2.7000000477 1.7400000095
 6523.0000000 6523.0000000 -12.19999981 3.6600000858 3.0899999142 2.0699999332
 6524.0000000 6524.0000000 -13.81000042 4.1799998283 3.4900000095 2.4300000668
 6525.0000000 6525.0000000 -15.81000042 4.6599998474 3.8299999237 2.8699998856
 6526.0000000 6526.0000000 -16.76000023 5.0599999428 4.0300002098 3.4100000858
 6527.0000000 6527.0000000 -17.17000008 5.0900001526 4.0300002098 3.9100000858
 6528.0000000 6528.0000000 -16.95999908 4.8899998665 3.5399999619 4.3200001717
 6529.0000000 6529.0000000 -15.44999981 4.3299999237 2.8399999142 4.8200001717
 6530.0000000 6530.0000000 -13.18999958 3.4200000763 2.3499999046 5.3899998665
 6531.0000000 6531.0000000 -10.14999962 2.3599998951 2.0599999428 5.3600001335
 6532.0000000 6532.0000000 -8.069999695 1.8099999428 1.8899999857 4.4699997902
 6533.0000000 6533.0000000 -6.289999962 1.4600000381 1.6900000572 3.3699998856
 6534.0000000 6534.0000000 -5.449999809 1.2500000000 1.4900000095 2.6700000763
 6535.0000000 6535.0000000 -5.389999866 1.0900000334 1.3999999762 2.1400001049
 6536.0000000 6536.0000000 -5.150000095 0.9900000095 1.3400000334 1.7799999714
 6537.0000000 6537.0000000 -4.840000153 0.9399999976 1.2899999619 1.4600000381
 6538.0000000 6538.0000000 -4.699999809 0.9200000167 1.2400000095 1.2000000477
 6539.0000000 6539.0000000 -4.719999790 0.9200000167 1.1900000572 1.1100000143
 6540.0000000 6540.0000000 -4.539999962 0.9399999976 1.1499999762 1.0900000334
 6541.0000000 6541.0000000 -4.150000095 0.9499999881 1.1100000143 1.2699999809
 6542.0000000 6542.0000000 -3.609999895 0.9499999881 1.0700000525 1.3799999952
 6543.0000000 6543.0000000 -3.440000057 0.9200000167 1.0599999428 1.4099999666
 6544.0000000 6544.0000000 -3.750000000 0.8999999762 1.0299999714 1.5099999905
 6545.0000000 6545.0000000 -4.570000172 0.8799999952 1.0099999905 1.7200000286
 6546.0000000 6546.0000000 -5.389999866 0.8999999762 0.9900000095 1.8400000334
 6547.0000000 6547.0000000 -6.059999943 0.9200000167 0.9800000191 1.7899999619
 6548.0000000 6548.0000000 -6.599999905 0.9499999881 0.9800000191 1.6900000572
 6549.0000000 6549.0000000 -6.889999866 0.9700000286 0.9599999785 1.6599999666
 6550.0000000 6550.0000000 -7.019999981 1.0099999905 0.9900000095 1.7300000191
 6551.0000000 6551.0000000 -6.719999790 1.0700000525 1.0000000000 1.7400000095
 6552.0000000 6552.0000000 -6.889999866 1.0900000334 1.0199999809 1.6699999571
 6553.0000000 6553.0000000 -7.039999962 1.1200000048 1.0199999809 1.6699999571
 6554.0000000 6554.0000000 -6.559999943 1.1499999762 1.1000000238 1.6299999952
 6555.0000000 6555.0000000 -6.409999847 1.1499999762 1.2000000477 1.4700000286
 6556.0000000 6556.0000000 -6.809999943 1.2100000381 1.2599999905 1.3500000238
 6557.0000000 6557.0000000 -6.909999847 1.2999999523 1.2799999714 1.3099999428
 6558.0000000 6558.0000000 -6.380000114 1.3600000143 1.2599999905 1.3200000525
 6559.0000000 6559.0000000 -5.519999981 1.3799999952 1.2300000191 1.3899999857
 6560.0000000 6560.0000000 -5.260000229 1.3799999952 1.2200000286 1.4700000286
 6561.0000000 6561.0000000 -5.519999981 1.4099999666 1.2100000381 1.5299999714
 6562.0000000 6562.0000000 -5.409999847 1.3600000143 1.2000000477 1.4900000095
 6563.0000000 6563.0000000 -4.789999962 1.1599999666 1.2699999809 1.3099999428
 6564.0000000 6564.0000000 -4.159999847 1.1100000143 1.4199999571 1.1000000238
 6565.0000000 6565.0000000 -4.389999866 1.0900000334 1.5199999809 0.9499999881
 6566.0000000 6566.0000000 -4.730000019 1.1499999762 1.5299999714 0.8799999952
 6567.0000000 6567.0000000 -4.960000038 1.2599999905 1.5199999809 0.9399999976
 6568.0000000 6568.0000000 -5.250000000 1.3799999952 1.5499999523 1.0299999714
 6569.0000000 6569.0000000 -5.710000038 1.4700000286 1.6699999571 1.1000000238
 6570.0000000 6570.0000000 -6.710000038 1.5900000334 1.8200000525 1.2100000381
 6571.0000000 6571.0000000 -9.300000191 1.7699999809 1.9900000095 1.2599999905
 6572.0000000 6572.0000000 -12.26000023 2.0299999714 2.1400001049 1.2400000095
 6573.0000000 6573.0000000 -14.68000031 2.3599998951 2.2899999619 1.2000000477
 6574.0000000 6574.0000000 -15.76000023 2.6800000668 2.4900000095 1.2400000095
 6575.0000000 6575.0000000 -16.37000084 3.0000000000 2.6800000668 1.3999999762
 6576.0000000 6576.0000000 -16.56999969 3.3299999237 2.9600000381 1.6299999952
 6577.0000000 6577.0000000 -16.93000031 3.6700000763 3.2699999809 1.8999999762
 6578.0000000 6578.0000000 -17.35000038 3.8900001049 3.6600000858 2.1800000668
 6579.0000000 6579.0000000 -17.68000031 4.1300001144 4.0199999809 2.4400000572
 6580.0000000 6580.0000000 -17.90999985 4.3400001526 4.2600002289 2.7300000191
 6581.0000000 6581.0000000 -17.75000000 4.5199999809 4.3200001717 3.0299999714
 6582.0000000 6582.0000000 -17.15999985 4.6399998665 3.8499999046 3.4500000477
 6583.0000000 6583.0000000 -16.20999908 4.6399998665 3.4200000763 3.8900001049
 6584.0000000 6584.0000000 -14.85000038 4.0999999046 3.0899999142 4.2600002289
 6585.0000000 6585.0000000 -13.31000042 3.2899999619 2.9500000477 4.3000001907
 6586.0000000 6586.0000000 -11.47999954 2.7500000000 2.8499999046 3.6800000668
 6587.0000000 6587.0000000 -10.68000031 2.4100000858 2.7999999523 2.9100000858
