# LAS format log file from PETREL
# Project units are specified as depth units
#==================================================================
~Version information
VERS.   2.0:
WRAP.   NO:
#==================================================================
~Well
STRT .m      3000.0000000 :
STOP .m      6457.0000000 :
STEP .m     1.00000000 :
NULL .        -999.250000 :
COMP.           : COMPANY
WELL.  WELL_1   : WELL
FLD.            : FIELD
LOC.            : LOCATION
SRVC.           : SERVICE COMPANY
DATE.  2023-03-20 17:52:46   : Log Export Date {yyyy-MM-dd HH:mm:ss}
PROV.           : PROVINCE
UWI.   WELL_1   : UNIQUE WELL ID
API.            : API NUMBER
#==================================================================
~Curve
DEPT .m                   : DEPTH
Depth .m                  : Depth
SP .mV                    : SP
SN .ohm.m                 : SN
LN .ohm.m                 : LN
~Parameter
#==================================================================
~Ascii
# ...
 3244.0000000 3244.0000000 4.4099998474 2.2699999809 2.3699998856
 3245.0000000 3245.0000000 3.0000000000 2.1600000858 2.2799999714
 3246.0000000 3246.0000000 1.3899999857 2.0399999619 2.1400001049
 3247.0000000 3247.0000000 1.9400000572 1.8899999857 2.0099999905
 3248.0000000 3248.0000000 3.5699999332 1.7400000095 1.8700000048
 3249.0000000 3249.0000000 4.5100002289 1.5900000334 1.7400000095
 3250.0000000 3250.0000000 5.0399999619 1.5099999905 1.6399999857
 3251.0000000 3251.0000000 5.3899998665 1.4500000477 1.5700000525
 3252.0000000 3252.0000000 5.1199998856 1.3899999857 1.4900000095
 3253.0000000 3253.0000000 4.3899998665 1.3999999762 1.4600000381
 3254.0000000 3254.0000000 3.6600000858 1.4400000572 1.4500000477
 3255.0000000 3255.0000000 2.8800001144 1.4800000191 1.4500000477
 3256.0000000 3256.0000000 2.0799999237 1.5199999809 1.5000000000
 3257.0000000 3257.0000000 1.1299999952 1.5599999428 1.6000000238
 3258.0000000 3258.0000000 1.6399999857 1.6299999952 1.7400000095
 3259.0000000 3259.0000000 2.8900001049 1.6900000572 1.8899999857
 3260.0000000 3260.0000000 4.1399998665 1.7599999905 2.1300001144
 3261.0000000 3261.0000000 5.3699998856 1.7699999809 2.3499999046
 3262.0000000 3262.0000000 6.2199997902 1.7599999905 2.3800001144
 3263.0000000 3263.0000000 6.9099998474 1.7400000095 2.3699998856
 3264.0000000 3264.0000000 6.9299998283 1.7000000477 2.3599998951
 3265.0000000 3265.0000000 6.7100000381 1.6100000143 2.3399999142
 3266.0000000 3266.0000000 6.0500001907 1.5199999809 2.3199999332
 3267.0000000 3267.0000000 5.4000000954 1.4299999475 2.2899999619
 3268.0000000 3268.0000000 4.9600000381 1.3799999952 2.2500000000
 3269.0000000 3269.0000000 5.1700000763 1.3600000143 2.2200000286
 3270.0000000 3270.0000000 5.7399997711 1.3500000238 2.1700000763
 3271.0000000 3271.0000000 6.3200001717 1.3500000238 2.1199998856
 3272.0000000 3272.0000000 6.8600001335 1.3899999857 2.0599999428
 3273.0000000 3273.0000000 6.6900000572 1.4199999571 1.9800000191
 3274.0000000 3274.0000000 6.5300002098 1.4500000477 1.8799999952
 3275.0000000 3275.0000000 6.4299998283 1.4700000286 1.7899999619
 3276.0000000 3276.0000000 6.3299999237 1.4800000191 1.6900000572
 3277.0000000 3277.0000000 6.2199997902 1.4800000191 1.5900000334
 3278.0000000 3278.0000000 6.0900001526 1.4800000191 1.4900000095
 3279.0000000 3279.0000000 5.6900000572 1.4800000191 1.3999999762
 3280.0000000 3280.0000000 5.0599999428 1.4500000477 1.3200000525
 3281.0000000 3281.0000000 3.9300000668 1.3999999762 1.3099999428
 3282.0000000 3282.0000000 2.6800000668 1.3700000048 1.3500000238
 3283.0000000 3283.0000000 2.6199998856 1.4099999666 1.3899999857
 3284.0000000 3284.0000000 3.4000000954 1.4400000572 1.4400000572
 3285.0000000 3285.0000000 3.4800000191 1.4800000191 1.5299999714
 3286.0000000 3286.0000000 2.4000000954 1.5900000334 1.6200000048
 3287.0000000 3287.0000000 1.5700000525 1.7200000286 1.7799999714
 3288.0000000 3288.0000000 1.7699999809 1.8600000143 1.9500000477
 3289.0000000 3289.0000000 2.9900000095 2.0199999809 2.0999999046
 3290.0000000 3290.0000000 5.4099998474 2.1800000668 2.2200000286
 3291.0000000 3291.0000000 7.5799999237 2.1700000763 2.2200000286
 3292.0000000 3292.0000000 8.1999998093 2.1500000954 2.1099998951
 3293.0000000 3293.0000000 8.1099996567 2.1300001144 1.9900000095
 3294.0000000 3294.0000000 7.7899999619 2.1300001144 1.8600000143
 3295.0000000 3295.0000000 7.4000000954 2.1300001144 1.7300000191
 3296.0000000 3296.0000000 6.5000000000 2.1400001049 1.6299999952
 3297.0000000 3297.0000000 5.5900001526 2.1500000954 1.5700000525
 3298.0000000 3298.0000000 4.5999999046 2.1500000954 1.6599999666
 3299.0000000 3299.0000000 3.6500000954 2.1900000572 1.7699999809
 3300.0000000 3300.0000000 3.2899999619 2.2200000286 1.9299999475
 3301.0000000 3301.0000000 2.9300000668 2.1900000572 2.0899999142
 3302.0000000 3302.0000000 3.0199999809 2.1099998951 2.2100000381
 3303.0000000 3303.0000000 3.4600000381 2.0299999714 2.2400000095
 3304.0000000 3304.0000000 4.4299998283 1.9299999475 2.1800000668
 3305.0000000 3305.0000000 5.4099998474 1.7999999523 2.1199998856
 3306.0000000 3306.0000000 7.0500001907 1.6599999666 2.0599999428
 3307.0000000 3307.0000000 8.1000003815 1.5299999714 2.0299999714
 3308.0000000 3308.0000000 8.8599996567 1.4199999571 2.0099999905
 3309.0000000 3309.0000000 9.1199998856 1.3500000238 1.9900000095
 3310.0000000 3310.0000000 8.6800003052 1.2799999714 1.9700000286
 3311.0000000 3311.0000000 8.1400003433 1.2100000381 1.9600000381
 3312.0000000 3312.0000000 7.1100001335 1.1699999571 1.9500000477
 3313.0000000 3313.0000000 6.0500001907 1.1499999762 1.9400000572
 3314.0000000 3314.0000000 5.0799999237 1.1399999857 1.9199999571
 3315.0000000 3315.0000000 4.1300001144 1.1200000048 1.8799999952
 3316.0000000 3316.0000000 3.5699999332 1.1000000238 1.8300000429
 3317.0000000 3317.0000000 3.5099999905 1.0800000429 1.7699999809
 3318.0000000 3318.0000000 4.5199999809 1.0700000525 1.7000000477
 3319.0000000 3319.0000000 5.9499998093 1.0599999428 1.6399999857
 3320.0000000 3320.0000000 7.4699997902 1.0599999428 1.4900000095
 3321.0000000 3321.0000000 7.2800002098 1.0499999523 1.3200000525
 3322.0000000 3322.0000000 7.0900001526 1.0399999619 1.2300000191
 3323.0000000 3323.0000000 6.8899998665 1.0399999619 1.1799999475
 3324.0000000 3324.0000000 6.5100002289 1.0499999523 1.1399999857
 3325.0000000 3325.0000000 5.9600000381 1.0599999428 1.1599999666
 3326.0000000 3326.0000000 5.2699999809 1.0700000525 1.1900000572
 3327.0000000 3327.0000000 4.5700001717 1.0800000429 1.2100000381
 3328.0000000 3328.0000000 3.2699999809 1.1000000238 1.2400000095
 3329.0000000 3329.0000000 2.5399999619 1.1299999952 1.2699999809
 3330.0000000 3330.0000000 2.4800000191 1.1799999475 1.2999999523
 3331.0000000 3331.0000000 2.4100000858 1.2300000191 1.3600000143
 3332.0000000 3332.0000000 2.7899999619 1.2799999714 1.4199999571
 3333.0000000 3333.0000000 3.2999999523 1.3300000429 1.4800000191
 3334.0000000 3334.0000000 4.2199997902 1.3400000334 1.5499999523
 3335.0000000 3335.0000000 5.5199999809 1.3400000334 1.6200000048
 3336.0000000 3336.0000000 4.7500000000 1.3500000238 1.6100000143
 3337.0000000 3337.0000000 3.8299999237 1.3500000238 1.6100000143
 3338.0000000 3338.0000000 2.9300000668 1.3300000429 1.6100000143
 3339.0000000 3339.0000000 2.3099999428 1.2899999619 1.5900000334
 3340.0000000 3340.0000000 2.5899999142 1.2500000000 1.5499999523
 3341.0000000 3341.0000000 3.4700000286 1.2000000477 1.5099999905
 3342.0000000 3342.0000000 4.6199998856 1.1699999571 1.4700000286
 3343.0000000 3343.0000000 6.2100000381 1.1599999666 1.4299999475
 3344.0000000 3344.0000000 7.7899999619 1.1599999666 1.3799999952
 3345.0000000 3345.0000000 9.2500000000 1.1499999762 1.3400000334
 3346.0000000 3346.0000000 9.4499998093 1.1599999666 1.3099999428
 3347.0000000 3347.0000000 9.4799995422 1.1699999571 1.3099999428
 3348.0000000 3348.0000000 9.5600004196 1.1799999475 1.3200000525
 3349.0000000 3349.0000000 9.6400003433 1.1900000572 1.3200000525
 3350.0000000 3350.0000000 9.7299995422 1.2100000381 1.3600000143
 3351.0000000 3351.0000000 9.8800001144 1.2400000095 1.3899999857
 3352.0000000 3352.0000000 10.069999695 1.2699999809 1.4299999475
 3353.0000000 3353.0000000 10.260000229 1.2999999523 1.4700000286
 3354.0000000 3354.0000000 10.420000076 1.3700000048 1.5000000000
 3355.0000000 3355.0000000 10.270000458 1.4400000572 1.5299999714
 3356.0000000 3356.0000000 10.119999886 1.5099999905 1.5499999523
 3357.0000000 3357.0000000 10.010000229 1.5599999428 1.5399999619
 3358.0000000 3358.0000000 9.9399995804 1.6000000238 1.5299999714
 3359.0000000 3359.0000000 9.8699998856 1.6499999762 1.5299999714
 3360.0000000 3360.0000000 9.8100004196 1.6799999475 1.5399999619
 3361.0000000 3361.0000000 10.050000191 1.6399999857 1.5299999714
 3362.0000000 3362.0000000 9.9899997711 1.6000000238 1.5000000000
 3363.0000000 3363.0000000 9.7299995422 1.5599999428 1.4600000381
 3364.0000000 3364.0000000 9.4700002670 1.5000000000 1.4299999475
 3365.0000000 3365.0000000 9.2100000381 1.4400000572 1.3999999762
