# LAS format log file from PETREL
# Project units are specified as depth units
#==================================================================
~Version information
VERS.   2.0:
WRAP.   NO:
#==================================================================
~Well
STRT .m      3000.0000000 :
STOP .m      6457.0000000 :
STEP .m     1.00000000 :
NULL .        -999.250000 :
COMP.           : COMPANY
WELL.  WELL_1   : WELL
FLD.            : FIELD
LOC.            : LOCATION
SRVC.           : SERVICE COMPANY
DATE.  2023-03-20 17:52:46   : Log Export Date {yyyy-MM-dd HH:mm:ss}
PROV.           : PROVINCE
UWI.   WELL_1   : UNIQUE WELL ID
API.            : API NUMBER
#==================================================================
~Curve
DEPT .m                   : DEPTH
Depth .m                  : Depth
SP .mV                    : SP
SN .ohm.m                 : SN
LN .ohm.m                 : LN
~Parameter
#==================================================================
~Ascii
# ...
 3854.0000000 3854.0000000 -38.95999908 4.2100000381 1.5299999714
 3855.0000000 3855.0000000 -39.61000061 3.8399999142 1.3799999952
 3856.0000000 3856.0000000 -38.27999878 3.8699998856 1.3400000334
 3857.0000000 3857.0000000 -36.18999863 3.9600000381 1.3400000334
 3858.0000000 3858.0000000 -32.75999832 4.0399999619 1.3799999952
 3859.0000000 3859.0000000 -26.92000008 4.1100001335 1.4199999571
 3860.0000000 3860.0000000 -18.62999916 3.5699999332 1.5000000000
 3861.0000000 3861.0000000 -14.01000023 3.0599999428 1.5900000334
 3862.0000000 3862.0000000 -15.31000042 3.1600000858 1.6499999762
 3863.0000000 3863.0000000 -29.73999977 3.2799999714 1.5900000334
 3864.0000000 3864.0000000 -40.90999985 3.4300000668 1.5299999714
 3865.0000000 3865.0000000 -46.61999893 3.3299999237 1.4400000572
 3866.0000000 3866.0000000 -49.83000183 3.2200000286 1.3099999428
 3867.0000000 3867.0000000 -51.06000137 3.2500000000 1.1699999571
 3868.0000000 3868.0000000 -51.02999878 3.3900001049 1.0900000334
 3869.0000000 3869.0000000 -51.72000122 3.5799999237 1.0199999809
 3870.0000000 3870.0000000 -52.65999985 3.8199999332 0.9499999881
 3871.0000000 3871.0000000 -53.08000183 3.5899999142 0.8999999762
 3872.0000000 3872.0000000 -45.38000107 3.2999999523 0.8700000048
 3873.0000000 3873.0000000 -38.04999924 3.0799999237 0.8399999738
 3874.0000000 3874.0000000 -29.56999969 2.8900001049 0.8600000143
 3875.0000000 3875.0000000 -19.90999985 2.6700000763 0.8899999857
 3876.0000000 3876.0000000 -13.71000004 2.0799999237 0.9300000072
 3877.0000000 3877.0000000 -7.840000153 1.6699999571 0.9599999785
 3878.0000000 3878.0000000 -1.679999948 1.3600000143 1.0099999905
 3879.0000000 3879.0000000 2.4600000381 1.1399999857 1.0599999428
 3880.0000000 3880.0000000 4.6199998856 1.0399999619 1.1000000238
 3881.0000000 3881.0000000 6.0700001717 0.9499999881 1.1200000048
 3882.0000000 3882.0000000 7.1100001335 0.9100000262 1.1200000048
 3883.0000000 3883.0000000 7.5599999428 0.8799999952 1.1100000143
 3884.0000000 3884.0000000 7.7500000000 0.8600000143 1.0900000334
 3885.0000000 3885.0000000 8.0699996948 0.8700000048 1.0599999428
 3886.0000000 3886.0000000 8.4700002670 0.8899999857 1.0299999714
 3887.0000000 3887.0000000 9.5399999619 0.9200000167 0.9900000095
 3888.0000000 3888.0000000 9.9300003052 0.9800000191 0.9300000072
 3889.0000000 3889.0000000 9.4499998093 1.0599999428 0.8700000048
 3890.0000000 3890.0000000 8.9799995422 1.1299999952 0.8199999928
 3891.0000000 3891.0000000 8.5100002289 1.2100000381 0.8100000024
 3892.0000000 3892.0000000 8.0500001907 1.2999999523 0.8799999952
 3893.0000000 3893.0000000 7.5999999046 1.3899999857 1.0099999905
 3894.0000000 3894.0000000 7.1100001335 1.4800000191 1.2100000381
 3895.0000000 3895.0000000 6.5000000000 1.6100000143 1.4099999666
 3896.0000000 3896.0000000 5.8800001144 1.7300000191 1.6200000048
 3897.0000000 3897.0000000 5.0999999046 1.8099999428 1.7300000191
 3898.0000000 3898.0000000 4.2699999809 1.8300000429 1.3200000525
 3899.0000000 3899.0000000 3.3199999332 1.6900000572 0.9200000167
 3900.0000000 3900.0000000 3.9300000668 1.5599999428 0.6100000143
 3901.0000000 3901.0000000 4.9400000572 1.4199999571 0.3799999952
 3902.0000000 3902.0000000 6.1300001144 1.2699999809 0.3799999952
 3903.0000000 3903.0000000 7.3800001144 1.2599999905 0.4099999964
 3904.0000000 3904.0000000 7.8899998665 1.2899999619 0.4399999976
 3905.0000000 3905.0000000 7.7500000000 1.3200000525 0.5099999905
 3906.0000000 3906.0000000 7.6100001335 1.3600000143 0.5799999833
 3907.0000000 3907.0000000 7.5100002289 1.4199999571 0.6499999762
 3908.0000000 3908.0000000 7.4499998093 1.4800000191 0.6999999881
 3909.0000000 3909.0000000 7.7899999619 1.5000000000 0.7099999785
 3910.0000000 3910.0000000 8.7600002289 1.5000000000 0.7200000286
 3911.0000000 3911.0000000 9.6199998856 1.5099999905 0.7699999809
 3912.0000000 3912.0000000 10.119999886 1.5199999809 0.8199999928
 3913.0000000 3913.0000000 10.310000420 1.5199999809 0.8999999762
 3914.0000000 3914.0000000 10.449999809 1.5199999809 1.0099999905
 3915.0000000 3915.0000000 10.590000153 1.5199999809 1.1200000048
 3916.0000000 3916.0000000 10.729999542 1.5199999809 1.2200000286
 3917.0000000 3917.0000000 10.869999886 1.5299999714 1.2799999714
 3918.0000000 3918.0000000 11.010000229 1.5499999523 1.3500000238
 3919.0000000 3919.0000000 11.149999619 1.5700000525 1.4199999571
 3920.0000000 3920.0000000 11.289999962 1.6000000238 1.4800000191
 3921.0000000 3921.0000000 11.449999809 1.6200000048 1.4700000286
 3922.0000000 3922.0000000 11.619999886 1.6299999952 1.4700000286
 3923.0000000 3923.0000000 11.789999962 1.6399999857 1.4600000381
 3924.0000000 3924.0000000 11.689999580 1.6499999762 1.4600000381
 3925.0000000 3925.0000000 11.449999809 1.6299999952 1.4199999571
 3926.0000000 3926.0000000 11.210000038 1.5800000429 1.3799999952
 3927.0000000 3927.0000000 10.909999847 1.5199999809 1.3400000334
 3928.0000000 3928.0000000 10.489999771 1.4500000477 1.2999999523
 3929.0000000 3929.0000000 10.069999695 1.3400000334 1.2599999905
 3930.0000000 3930.0000000 9.7600002289 1.2300000191 1.2200000286
 3931.0000000 3931.0000000 9.5000000000 1.4299999475 1.2599999905
 3932.0000000 3932.0000000 9.2700004578 1.6000000238 1.3300000429
 3933.0000000 3933.0000000 9.0299997330 1.7599999905 1.4099999666
 3934.0000000 3934.0000000 8.8900003433 1.9199999571 1.4700000286
 3935.0000000 3935.0000000 8.8900003433 2.0299999714 1.5299999714
 3936.0000000 3936.0000000 8.8999996185 2.0899999142 1.6000000238
 3937.0000000 3937.0000000 8.9099998474 2.1500000954 1.6200000048
 3938.0000000 3938.0000000 9.0799999237 2.2000000477 1.6200000048
 3939.0000000 3939.0000000 9.2700004578 2.2400000095 1.6100000143
 3940.0000000 3940.0000000 9.4600000381 2.2899999619 1.6000000238
 3941.0000000 3941.0000000 9.5500001907 2.3299999237 1.6399999857
 3942.0000000 3942.0000000 9.6199998856 2.4200000763 1.6699999571
 3943.0000000 3943.0000000 9.6800003052 2.5099999905 1.7100000381
 3944.0000000 3944.0000000 8.9499998093 2.5799999237 1.7599999905
 3945.0000000 3945.0000000 8.1800003052 2.5999999046 1.8099999428
 3946.0000000 3946.0000000 7.4299998283 2.5899999142 1.8200000525
 3947.0000000 3947.0000000 6.6900000572 2.2899999619 1.8099999428
 3948.0000000 3948.0000000 5.9600000381 2.0299999714 1.7899999619
 3949.0000000 3949.0000000 5.3499999046 1.9400000572 1.7999999523
 3950.0000000 3950.0000000 4.9099998474 1.8799999952 1.8200000525
 3951.0000000 3951.0000000 4.4699997902 1.8999999762 1.8400000334
 3952.0000000 3952.0000000 4.3099999428 1.9199999571 1.8899999857
 3953.0000000 3953.0000000 4.8499999046 1.9400000572 1.9800000191
 3954.0000000 3954.0000000 5.5999999046 1.9900000095 2.0599999428
 3955.0000000 3955.0000000 6.3699998856 2.0499999523 2.1900000572
 3956.0000000 3956.0000000 7.1599998474 2.1500000954 2.3599998951
 3957.0000000 3957.0000000 7.7100000381 2.3599998951 2.4300000668
 3958.0000000 3958.0000000 6.3699998856 2.5199999809 2.3499999046
 3959.0000000 3959.0000000 5.0700001717 2.4400000572 2.1099998951
 3960.0000000 3960.0000000 4.0700001717 2.2200000286 1.8700000048
 3961.0000000 3961.0000000 3.2500000000 2.0099999905 1.7400000095
 3962.0000000 3962.0000000 3.6199998856 1.8500000238 1.6399999857
 3963.0000000 3963.0000000 3.9900000095 1.6900000572 1.6499999762
 3964.0000000 3964.0000000 4.4099998474 1.6799999475 1.7400000095
 3965.0000000 3965.0000000 5.0199999809 1.7000000477 1.8799999952
 3966.0000000 3966.0000000 5.6300001144 1.7200000286 2.0199999809
 3967.0000000 3967.0000000 6.0000000000 1.7300000191 2.1800000668
 3968.0000000 3968.0000000 6.0799999237 1.7400000095 2.1199998856
 3969.0000000 3969.0000000 6.1599998474 1.7400000095 1.9800000191
 3970.0000000 3970.0000000 6.1300001144 1.6399999857 1.8400000334
 3971.0000000 3971.0000000 6.1100001335 1.5399999619 1.7300000191
 3972.0000000 3972.0000000 6.0900001526 1.4700000286 1.6200000048
 3973.0000000 3973.0000000 6.2100000381 1.4700000286 1.5599999428
 3974.0000000 3974.0000000 6.3699998856 1.4800000191 1.5099999905
 3975.0000000 3975.0000000 6.5199999809 1.4900000095 1.4600000381
