# LAS format log file from PETREL
# Project units are specified as depth units
#==================================================================
~Version information
VERS.   2.0:
WRAP.   NO:
#==================================================================
~Well
STRT .m      4650.0000000 :
STOP .m      7300.0000000 :
STEP .m     1.00000000 :
NULL .        -999.250000 :
COMP.           : COMPANY
WELL.  WELL_6   : WELL
FLD.            : FIELD
LOC.            : LOCATION
SRVC.           : SERVICE COMPANY
DATE.  2023-03-20 17:52:46   : Log Export Date {yyyy-MM-dd HH:mm:ss}
PROV.           : PROVINCE
UWI.   WELL_6   : UNIQUE WELL ID
API.            : API NUMBER
#==================================================================
~Curve
DEPT .m                   : DEPTH
Depth .m                  : Depth
GR .gAPI                  : GR
SP .mV                    : SP
RT .ohm.m                 : RT
~Parameter
#==================================================================
~Ascii
# ...
 5870.0000000 5870.0000000 139.91000366 -3.329999924 2.5999999046
 5871.0000000 5871.0000000 120.76000214 -2.880000114 2.1099998951
 5872.0000000 5872.0000000 103.58999634 -3.180000067 1.7699999809
 5873.0000000 5873.0000000 101.48000336 -3.029999971 1.6299999952
 5874.0000000 5874.0000000 99.019996643 -2.460000038 1.5399999619
 5875.0000000 5875.0000000 99.000000000 -2.630000114 1.4900000095
 5876.0000000 5876.0000000 114.83000183 -3.769999981 1.5299999714
 5877.0000000 5877.0000000 122.27999878 -4.190000057 1.6000000238
 5878.0000000 5878.0000000 127.16000366 -3.759999990 1.5700000525
 5879.0000000 5879.0000000 130.11000061 -3.849999905 1.5499999523
 5880.0000000 5880.0000000 129.02999878 -4.500000000 1.7200000286
 5881.0000000 5881.0000000 114.73999786 -6.159999847 2.1500000954
 5882.0000000 5882.0000000 111.55000305 -7.960000038 2.5099999905
 5883.0000000 5883.0000000 113.34999847 -6.789999962 3.0799999237
 5884.0000000 5884.0000000 120.26000214 -5.530000210 2.9100000858
 5885.0000000 5885.0000000 111.45999908 -5.010000229 2.8699998856
 5886.0000000 5886.0000000 113.45999908 -6.000000000 2.7799999714
 5887.0000000 5887.0000000 119.50000000 -7.269999981 2.7599999905
 5888.0000000 5888.0000000 106.73000336 -7.849999905 2.9500000477
 5889.0000000 5889.0000000 100.66000366 -8.939999580 3.2200000286
 5890.0000000 5890.0000000 111.50000000 -8.760000229 4.2300000191
 5891.0000000 5891.0000000 118.51999664 -7.119999886 2.8599998951
 5892.0000000 5892.0000000 109.73999786 -5.900000095 2.3099999428
 5893.0000000 5893.0000000 105.23999786 -3.559999943 1.9900000095
 5894.0000000 5894.0000000 120.72000122 -2.069999933 1.8600000143
 5895.0000000 5895.0000000 125.08000183 -3.589999914 1.9700000286
 5896.0000000 5896.0000000 124.72000122 -4.239999771 1.9299999475
 5897.0000000 5897.0000000 120.22000122 -5.099999905 1.9900000095
 5898.0000000 5898.0000000 114.75000000 -7.010000229 2.2300000191
 5899.0000000 5899.0000000 111.22000122 -8.250000000 2.8399999142
 5900.0000000 5900.0000000 103.62999725 -8.659999847 3.4000000954
 5901.0000000 5901.0000000 109.26999664 -8.399999619 4.1300001144
 5902.0000000 5902.0000000 116.20999908 -7.389999866 2.8199999332
 5903.0000000 5903.0000000 113.94000244 -5.849999905 2.1500000954
 5904.0000000 5904.0000000 117.23000336 -4.349999905 1.7899999619
 5905.0000000 5905.0000000 104.18000031 -3.029999971 1.6399999857
 5906.0000000 5906.0000000 99.010002136 -2.599999905 1.6299999952
 5907.0000000 5907.0000000 99.169998169 -3.099999905 1.5299999714
 5908.0000000 5908.0000000 105.62000275 -3.309999943 1.4900000095
 5909.0000000 5909.0000000 109.19000244 -3.319999933 1.4500000477
 5910.0000000 5910.0000000 102.34999847 -3.309999943 1.4800000191
 5911.0000000 5911.0000000 108.08000183 -3.460000038 1.5099999905
 5912.0000000 5912.0000000 115.52999878 -3.829999924 1.5800000429
 5913.0000000 5913.0000000 112.88999939 -4.449999809 1.6399999857
 5914.0000000 5914.0000000 107.66999817 -5.309999943 1.8999999762
 5915.0000000 5915.0000000 106.00000000 -5.800000191 2.2999999523
 5916.0000000 5916.0000000 108.87999725 -4.659999847 2.6300001144
 5917.0000000 5917.0000000 108.98000336 -4.880000114 2.8299999237
 5918.0000000 5918.0000000 109.73999786 -5.940000057 2.9200000763
 5919.0000000 5919.0000000 116.20999908 -6.050000191 2.9000000954
 5920.0000000 5920.0000000 123.23999786 -6.130000114 2.7000000477
 5921.0000000 5921.0000000 127.30999756 -6.250000000 2.5399999619
 5922.0000000 5922.0000000 124.01999664 -4.969999790 2.4100000858
 5923.0000000 5923.0000000 117.69999695 -5.550000191 2.2599999905
 5924.0000000 5924.0000000 116.30999756 -5.699999809 2.0999999046
 5925.0000000 5925.0000000 125.08000183 -4.929999828 1.9400000572
 5926.0000000 5926.0000000 131.35000610 -3.589999914 1.8300000429
 5927.0000000 5927.0000000 137.72000122 -2.119999886 1.7300000191
 5928.0000000 5928.0000000 137.50000000 -1.899999976 1.7000000477
 5929.0000000 5929.0000000 138.72999573 -2.970000029 1.8200000525
 5930.0000000 5930.0000000 130.74000549 -4.250000000 2.0000000000
 5931.0000000 5931.0000000 126.25000000 -4.500000000 2.0899999142
 5932.0000000 5932.0000000 131.83000183 -3.660000086 2.3299999237
 5933.0000000 5933.0000000 134.41999817 -4.329999924 1.9099999666
 5934.0000000 5934.0000000 141.91000366 -5.760000229 1.9700000286
 5935.0000000 5935.0000000 140.17999268 -6.989999771 2.2100000381
 5936.0000000 5936.0000000 139.63000488 -8.010000229 2.6099998951
 5937.0000000 5937.0000000 143.86000061 -7.650000095 2.8599998951
 5938.0000000 5938.0000000 139.69999695 -6.420000076 2.8099999428
 5939.0000000 5939.0000000 135.21000671 -7.219999790 2.8499999046
 5940.0000000 5940.0000000 131.55000305 -6.619999886 2.9800000191
 5941.0000000 5941.0000000 141.49000549 -7.690000057 3.1600000858
 5942.0000000 5942.0000000 146.16000366 -6.449999809 3.3499999046
 5943.0000000 5943.0000000 129.11000061 -5.409999847 2.4000000954
 5944.0000000 5944.0000000 125.26000214 -5.320000172 1.9700000286
 5945.0000000 5945.0000000 126.33999634 -5.530000210 1.6100000143
 5946.0000000 5946.0000000 116.66999817 -5.659999847 1.4099999666
 5947.0000000 5947.0000000 123.19000244 -5.420000076 1.3999999762
 5948.0000000 5948.0000000 144.30000305 -4.230000019 1.5099999905
 5949.0000000 5949.0000000 145.66000366 -3.450000048 1.8700000048
 5950.0000000 5950.0000000 128.77000427 -4.309999943 2.4100000858
 5951.0000000 5951.0000000 132.27999878 -3.740000010 1.9900000095
 5952.0000000 5952.0000000 139.89999390 -3.230000019 1.7000000477
 5953.0000000 5953.0000000 130.27999878 -2.160000086 1.6000000238
 5954.0000000 5954.0000000 126.05000305 -2.440000057 1.6100000143
 5955.0000000 5955.0000000 153.75999451 -5.170000076 1.8799999952
 5956.0000000 5956.0000000 167.02999878 -6.309999943 2.1199998856
 5957.0000000 5957.0000000 172.14999390 -6.440000057 2.0599999428
 5958.0000000 5958.0000000 174.91999817 -5.849999905 2.2899999619
 5959.0000000 5959.0000000 150.22999573 -6.159999847 2.5299999714
 5960.0000000 5960.0000000 138.13000488 -5.500000000 2.8199999332
 5961.0000000 5961.0000000 132.82000732 -4.369999886 3.2699999809
 5962.0000000 5962.0000000 131.25000000 -3.470000029 2.9000000954
 5963.0000000 5963.0000000 104.45999908 -2.430000067 2.2300000191
 5964.0000000 5964.0000000 96.610000610 -1.899999976 1.8799999952
 5965.0000000 5965.0000000 121.76999664 -3.230000019 1.7899999619
 5966.0000000 5966.0000000 121.94999695 -4.940000057 1.8300000429
 5967.0000000 5967.0000000 116.05999756 -5.949999809 2.1300001144
 5968.0000000 5968.0000000 119.66999817 -4.900000095 2.2200000286
 5969.0000000 5969.0000000 116.98999786 -4.369999886 1.9700000286
 5970.0000000 5970.0000000 113.54000092 -4.960000038 1.9099999666
 5971.0000000 5971.0000000 114.62000275 -5.219999790 1.9400000572
 5972.0000000 5972.0000000 113.55000305 -5.130000114 2.1500000954
 5973.0000000 5973.0000000 105.19000244 -4.840000153 2.5199999809
 5974.0000000 5974.0000000 101.00000000 -4.010000229 3.0299999714
 5975.0000000 5975.0000000 103.19999695 -4.190000057 3.4400000572
 5976.0000000 5976.0000000 111.75000000 -4.699999809 2.1400001049
 5977.0000000 5977.0000000 113.48000336 -3.789999962 1.8700000048
 5978.0000000 5978.0000000 116.79000092 -3.579999924 1.6699999571
 5979.0000000 5979.0000000 110.47000122 -3.509999990 1.7100000381
 5980.0000000 5980.0000000 103.90000153 -4.179999828 1.9099999666
 5981.0000000 5981.0000000 107.12000275 -5.170000076 1.9199999571
 5982.0000000 5982.0000000 105.15000153 -4.150000095 1.8700000048
 5983.0000000 5983.0000000 106.15000153 -2.710000038 1.7200000286
 5984.0000000 5984.0000000 111.59999847 -1.639999986 1.5700000525
 5985.0000000 5985.0000000 114.41000366 -1.850000024 1.5199999809
 5986.0000000 5986.0000000 117.66000366 -3.279999971 1.6399999857
 5987.0000000 5987.0000000 121.62999725 -4.829999924 1.9900000095
 5988.0000000 5988.0000000 113.11000061 -5.949999809 2.3099999428
 5989.0000000 5989.0000000 107.94000244 -5.960000038 2.9000000954
 5990.0000000 5990.0000000 115.00000000 -5.559999943 2.6199998856
 5991.0000000 5991.0000000 135.30000305 -5.139999866 2.1400001049
