# LAS format log file from PETREL
# Project units are specified as depth units
#==================================================================
~Version information
VERS.   2.0:
WRAP.   NO:
#==================================================================
~Well
STRT .m      4650.0000000 :
STOP .m      7300.0000000 :
STEP .m     1.00000000 :
NULL .        -999.250000 :
COMP.           : COMPANY
WELL.  WELL_6   : WELL
FLD.            : FIELD
LOC.            : LOCATION
SRVC.           : SERVICE COMPANY
DATE.  2023-03-20 17:52:46   : Log Export Date {yyyy-MM-dd HH:mm:ss}
PROV.           : PROVINCE
UWI.   WELL_6   : UNIQUE WELL ID
API.            : API NUMBER
#==================================================================
~Curve
DEPT .m                   : DEPTH
Depth .m                  : Depth
GR .gAPI                  : GR
SP .mV                    : SP
RT .ohm.m                 : RT
~Parameter
#==================================================================
~Ascii
# ...
 6358.0000000 6358.0000000 88.139999390 -2.980000019 2.0399999619
 6359.0000000 6359.0000000 97.900001526 -1.769999981 1.8500000238
 6360.0000000 6360.0000000 108.36000061 -3.089999914 1.7999999523
 6361.0000000 6361.0000000 93.000000000 -4.320000172 2.2400000095
 6362.0000000 6362.0000000 91.000000000 -4.570000172 2.4400000572
 6363.0000000 6363.0000000 110.26999664 -3.640000105 1.3999999762
 6364.0000000 6364.0000000 115.12999725 -2.549999952 1.3099999428
 6365.0000000 6365.0000000 102.91000366 -2.450000048 1.2999999523
 6366.0000000 6366.0000000 88.250000000 -2.880000114 1.4500000477
 6367.0000000 6367.0000000 88.959999084 -3.480000019 1.9700000286
 6368.0000000 6368.0000000 88.730003357 -3.960000038 2.0299999714
 6369.0000000 6369.0000000 82.940002441 -4.579999924 2.5199999809
 6370.0000000 6370.0000000 81.580001831 -5.440000057 3.2699999809
 6371.0000000 6371.0000000 72.199996948 -7.980000019 5.4600000381
 6372.0000000 6372.0000000 67.040000916 -8.699999809 7.5300002098
 6373.0000000 6373.0000000 75.010002136 -8.069999695 2.8199999332
 6374.0000000 6374.0000000 79.819999695 -7.190000057 2.2400000095
 6375.0000000 6375.0000000 83.940002441 -6.280000210 2.0599999428
 6376.0000000 6376.0000000 87.190002441 -6.130000114 2.1400001049
 6377.0000000 6377.0000000 83.940002441 -6.119999886 2.6600000858
 6378.0000000 6378.0000000 75.029998779 -6.090000153 3.7300000191
 6379.0000000 6379.0000000 76.430000305 -7.179999828 3.6300001144
 6380.0000000 6380.0000000 76.360000610 -9.859999657 4.0199999809
 6381.0000000 6381.0000000 70.019996643 -12.56999969 4.4699997902
 6382.0000000 6382.0000000 71.230003357 -15.22000027 5.2199997902
 6383.0000000 6383.0000000 64.769996643 -16.92000008 5.6700000763
 6384.0000000 6384.0000000 60.310001373 -18.20999908 5.8499999046
 6385.0000000 6385.0000000 61.380001068 -18.52000046 6.0300002098
 6386.0000000 6386.0000000 64.529998779 -18.10000038 6.0100002289
 6387.0000000 6387.0000000 60.389999390 -18.40999985 5.4800000191
 6388.0000000 6388.0000000 63.330001831 -17.75000000 5.2600002289
 6389.0000000 6389.0000000 71.230003357 -16.03000069 5.1199998856
 6390.0000000 6390.0000000 68.629997253 -15.52000046 4.4899997711
 6391.0000000 6391.0000000 76.519996643 -14.42000008 4.3299999237
 6392.0000000 6392.0000000 88.779998779 -14.02000046 4.4899997711
 6393.0000000 6393.0000000 95.639999390 -13.38000011 4.0199999809
 6394.0000000 6394.0000000 98.949996948 -10.61999989 3.2200000286
 6395.0000000 6395.0000000 107.01999664 -6.539999962 2.4100000858
 6396.0000000 6396.0000000 115.44000244 -2.960000038 1.2799999714
 6397.0000000 6397.0000000 111.66000366 -1.000000000 1.0800000429
 6398.0000000 6398.0000000 108.77999878 -0.819999993 1.0399999619
 6399.0000000 6399.0000000 109.37000275 -1.149999976 1.2100000381
 6400.0000000 6400.0000000 112.73000336 -0.560000002 1.4199999571
 6401.0000000 6401.0000000 102.65000153 0.0500000007 1.9900000095
 6402.0000000 6402.0000000 94.730003357 0.0500000007 2.3900001049
 6403.0000000 6403.0000000 100.69000244 -0.319999993 1.7699999809
 6404.0000000 6404.0000000 101.26000214 -0.709999979 1.5399999619
 6405.0000000 6405.0000000 94.110000610 -0.509999990 1.3899999857
 6406.0000000 6406.0000000 86.750000000 -0.699999988 1.4299999475
 6407.0000000 6407.0000000 81.190002441 -2.470000029 1.6599999666
 6408.0000000 6408.0000000 80.300003052 -3.819999933 2.2599999905
 6409.0000000 6409.0000000 79.680000305 -3.950000048 3.1099998951
 6410.0000000 6410.0000000 75.720001221 -3.250000000 3.8299999237
 6411.0000000 6411.0000000 71.500000000 -1.950000048 4.3800001144
 6412.0000000 6412.0000000 67.940002441 -1.480000019 4.5199999809
 6413.0000000 6413.0000000 68.680000305 -2.259999990 4.8800001144
 6414.0000000 6414.0000000 74.019996643 -2.940000057 4.3299999237
 6415.0000000 6415.0000000 81.180000305 -2.940000057 3.9100000858
 6416.0000000 6416.0000000 82.089996338 -2.150000095 3.7799999714
 6417.0000000 6417.0000000 76.400001526 -2.529999971 3.2799999714
 6418.0000000 6418.0000000 86.209999084 -3.109999895 3.0199999809
 6419.0000000 6419.0000000 90.830001831 -3.019999981 2.6900000572
 6420.0000000 6420.0000000 86.139999390 -2.119999886 2.2899999619
 6421.0000000 6421.0000000 88.769996643 -1.029999971 1.7999999523
 6422.0000000 6422.0000000 94.569999695 -0.829999983 1.5900000334
 6423.0000000 6423.0000000 96.870002747 -1.750000000 1.6599999666
 6424.0000000 6424.0000000 92.769996643 -2.819999933 2.0299999714
 6425.0000000 6425.0000000 83.400001526 -3.289999962 2.9300000668
 6426.0000000 6426.0000000 71.139999390 -3.190000057 4.6999998093
 6427.0000000 6427.0000000 82.459999084 -2.849999905 2.9300000668
 6428.0000000 6428.0000000 91.830001831 -2.720000029 1.6100000143
 6429.0000000 6429.0000000 101.76000214 -2.289999962 1.2500000000
 6430.0000000 6430.0000000 114.04000092 -0.970000029 1.0099999905
 6431.0000000 6431.0000000 117.76999664 -0.129999995 0.8899999857
 6432.0000000 6432.0000000 114.33999634 -0.159999996 0.8399999738
 6433.0000000 6433.0000000 112.90000153 -1.279999971 0.9100000262
 6434.0000000 6434.0000000 108.41999817 -2.900000095 1.2899999619
 6435.0000000 6435.0000000 93.580001831 -4.489999771 2.2599999905
 6436.0000000 6436.0000000 77.330001831 -5.920000076 4.5599999428
 6437.0000000 6437.0000000 62.119998932 -6.989999771 5.9899997711
 6438.0000000 6438.0000000 64.529998779 -7.710000038 5.0599999428
 6439.0000000 6439.0000000 76.750000000 -6.380000114 4.6100001335
 6440.0000000 6440.0000000 75.150001526 -5.659999847 3.1600000858
 6441.0000000 6441.0000000 74.339996338 -3.450000048 2.3599998951
 6442.0000000 6442.0000000 90.480003357 -1.500000000 1.4900000095
 6443.0000000 6443.0000000 94.980003357 -0.200000003 1.0700000525
 6444.0000000 6444.0000000 92.930000305 -0.180000007 0.9300000072
 6445.0000000 6445.0000000 95.110000610 -0.529999971 0.8700000048
 6446.0000000 6446.0000000 88.690002441 -0.560000002 0.9900000095
 6447.0000000 6447.0000000 91.250000000 -0.529999971 1.2400000095
 6448.0000000 6448.0000000 93.330001831 -1.750000000 1.4900000095
 6449.0000000 6449.0000000 89.800003052 -2.549999952 1.6900000572
 6450.0000000 6450.0000000 90.739997864 -3.099999905 1.7899999619
 6451.0000000 6451.0000000 94.650001526 -3.440000057 1.8400000334
 6452.0000000 6452.0000000 95.959999084 -2.150000095 1.8600000143
 6453.0000000 6453.0000000 89.819999695 -1.860000014 1.8899999857
 6454.0000000 6454.0000000 86.300003052 -2.109999895 1.7500000000
 6455.0000000 6455.0000000 88.569999695 -1.490000010 1.6100000143
 6456.0000000 6456.0000000 91.959999084 -0.490000010 1.2599999905
 6457.0000000 6457.0000000 104.05999756 -0.119999997 1.0399999619
 6458.0000000 6458.0000000 108.87000275 -0.649999976 0.9800000191
 6459.0000000 6459.0000000 104.29000092 -1.830000043 1.0800000429
 6460.0000000 6460.0000000 102.73999786 -2.779999971 1.2100000381
 6461.0000000 6461.0000000 94.790000916 -3.019999981 1.5800000429
 6462.0000000 6462.0000000 87.879997253 -2.339999914 1.9500000477
 6463.0000000 6463.0000000 94.860000610 -1.850000024 1.3799999952
 6464.0000000 6464.0000000 104.84999847 -1.850000024 1.2899999619
 6465.0000000 6465.0000000 115.06999969 -1.259999990 1.2699999809
 6466.0000000 6466.0000000 125.04000092 -0.360000014 1.1200000048
 6467.0000000 6467.0000000 128.27000427 0.0000000000 1.0000000000
 6468.0000000 6468.0000000 114.25000000 -0.119999997 0.9200000167
 6469.0000000 6469.0000000 92.739997864 -0.860000014 0.8700000048
 6470.0000000 6470.0000000 88.510002136 -2.470000029 0.8899999857
 6471.0000000 6471.0000000 84.559997559 -4.280000210 0.9499999881
 6472.0000000 6472.0000000 80.330001831 -4.900000095 1.1799999475
 6473.0000000 6473.0000000 82.040000916 -5.039999962 1.4400000572
 6474.0000000 6474.0000000 86.529998779 -4.960000038 1.8300000429
 6475.0000000 6475.0000000 84.169998169 -4.739999771 2.1199998856
 6476.0000000 6476.0000000 81.230003357 -4.409999847 2.0000000000
 6477.0000000 6477.0000000 86.180000305 -3.880000114 1.8899999857
 6478.0000000 6478.0000000 96.040000916 -2.470000029 1.7799999714
 6479.0000000 6479.0000000 100.04000092 -3.000000000 1.7400000095
