# LAS format log file from PETREL
# Project units are specified as depth units
#==================================================================
~Version information
VERS.   2.0:
WRAP.   NO:
#==================================================================
~Well
STRT .m      4650.0000000 :
STOP .m      7050.0000000 :
STEP .m     1.00000000 :
NULL .        -999.250000 :
COMP.           : COMPANY
WELL.  WELL_3   : WELL
FLD.            : FIELD
LOC.            : LOCATION
SRVC.           : SERVICE COMPANY
DATE.  2023-03-20 17:52:46   : Log Export Date {yyyy-MM-dd HH:mm:ss}
PROV.           : PROVINCE
UWI.   WELL_3   : UNIQUE WELL ID
API.            : API NUMBER
#==================================================================
~Curve
DEPT .m                   : DEPTH
Depth .m                  : Depth
SP .mV                    : SP
SN .ohm.m                 : SN
LN .ohm.m                 : LN
LAT .ohm.m                : LAT
~Parameter
#==================================================================
~Ascii
# ...
 5874.0000000 5874.0000000 -11.82999992 2.4200000763 2.7599999905 2.0599999428
 5875.0000000 5875.0000000 -13.68000031 2.8099999428 2.9400000572 2.0199999809
 5876.0000000 5876.0000000 -16.39999962 3.4200000763 3.0799999237 2.0899999142
 5877.0000000 5877.0000000 -19.18000031 3.9600000381 3.2000000477 2.2899999619
 5878.0000000 5878.0000000 -21.69000053 4.3499999046 3.3900001049 2.5499999523
 5879.0000000 5879.0000000 -23.27000046 4.5199999809 3.6600000858 2.7999999523
 5880.0000000 5880.0000000 -23.95999908 4.5000000000 3.8599998951 2.9700000286
 5881.0000000 5881.0000000 -24.37000084 4.4200000763 3.9600000381 3.0399999619
 5882.0000000 5882.0000000 -24.47999954 4.3099999428 4.0000000000 3.0499999523
 5883.0000000 5883.0000000 -23.52000046 4.1100001335 3.8499999046 3.0599999428
 5884.0000000 5884.0000000 -21.72999954 3.8599998951 3.2899999619 3.1199998856
 5885.0000000 5885.0000000 -19.46999931 3.4300000668 2.8599998951 3.2599999905
 5886.0000000 5886.0000000 -17.23999977 2.8800001144 2.6300001144 3.4700000286
 5887.0000000 5887.0000000 -14.35000038 2.3599998951 2.5199999809 3.4400000572
 5888.0000000 5888.0000000 -11.42000008 2.0399999619 2.4800000191 3.0099999905
 5889.0000000 5889.0000000 -10.22999954 1.9299999475 2.3499999046 2.3800001144
 5890.0000000 5890.0000000 -10.09000015 1.9099999666 2.2000000477 2.2000000477
 5891.0000000 5891.0000000 -10.19999981 1.8700000048 2.0499999523 2.2799999714
 5892.0000000 5892.0000000 -9.850000381 1.7799999714 1.9700000286 2.4200000763
 5893.0000000 5893.0000000 -9.220000267 1.6699999571 1.9600000381 2.2200000286
 5894.0000000 5894.0000000 -8.590000153 1.6000000238 2.0000000000 2.0099999905
 5895.0000000 5895.0000000 -7.550000191 1.5700000525 2.0399999619 1.9500000477
 5896.0000000 5896.0000000 -7.019999981 1.5499999523 2.0499999523 1.8899999857
 5897.0000000 5897.0000000 -7.369999886 1.5399999619 2.0499999523 1.8899999857
 5898.0000000 5898.0000000 -8.100000381 1.6100000143 2.0499999523 2.0699999332
 5899.0000000 5899.0000000 -8.850000381 1.7999999523 2.0299999714 2.2100000381
 5900.0000000 5900.0000000 -9.949999809 2.0599999428 2.0000000000 2.4100000858
 5901.0000000 5901.0000000 -10.72999954 2.2599999905 1.9400000572 2.7500000000
 5902.0000000 5902.0000000 -10.81000042 2.3299999237 1.8500000238 3.0699999332
 5903.0000000 5903.0000000 -9.569999695 2.0299999714 1.8200000525 3.2699999809
 5904.0000000 5904.0000000 -7.760000229 1.7400000095 1.8700000048 3.1900000572
 5905.0000000 5905.0000000 -5.920000076 1.5299999714 1.9400000572 2.6400001049
 5906.0000000 5906.0000000 -4.769999981 1.3600000143 2.0099999905 2.2200000286
 5907.0000000 5907.0000000 -4.510000229 1.2899999619 2.0599999428 1.9400000572
 5908.0000000 5908.0000000 -4.929999828 1.3099999428 2.0899999142 1.7999999523
 5909.0000000 5909.0000000 -6.289999962 1.3500000238 2.0999999046 1.7000000477
 5910.0000000 5910.0000000 -7.670000076 1.4299999475 2.1099998951 1.6000000238
 5911.0000000 5911.0000000 -8.859999657 1.5900000334 2.1099998951 1.5499999523
 5912.0000000 5912.0000000 -9.979999542 1.8300000429 2.1300001144 1.5599999428
 5913.0000000 5913.0000000 -10.68999958 2.0899999142 2.2300000191 1.6499999762
 5914.0000000 5914.0000000 -11.14999962 2.4100000858 2.3199999332 1.7599999905
 5915.0000000 5915.0000000 -11.69999981 2.6800000668 2.4600000381 1.9299999475
 5916.0000000 5916.0000000 -12.18000031 2.8599998951 2.6099998951 2.1099998951
 5917.0000000 5917.0000000 -12.60999966 2.9900000095 2.7999999523 2.2599999905
 5918.0000000 5918.0000000 -13.02000046 3.0699999332 3.0000000000 2.3900001049
 5919.0000000 5919.0000000 -13.07999992 3.1600000858 3.1300001144 2.5199999809
 5920.0000000 5920.0000000 -12.97000027 3.2699999809 3.2599999905 2.6800000668
 5921.0000000 5921.0000000 -13.00000000 3.3499999046 3.4100000858 2.8099999428
 5922.0000000 5922.0000000 -13.39999962 3.3800001144 3.5699999332 2.9000000954
 5923.0000000 5923.0000000 -14.73999977 3.5599999428 3.7100000381 2.9900000095
 5924.0000000 5924.0000000 -16.87000084 3.9000000954 3.7799999714 3.0499999523
 5925.0000000 5925.0000000 -19.69000053 4.1900000572 3.7699999809 3.1900000572
 5926.0000000 5926.0000000 -22.10000038 4.3400001526 3.7000000477 3.2500000000
 5927.0000000 5927.0000000 -22.81999969 4.2600002289 3.6099998951 3.2300000191
 5928.0000000 5928.0000000 -21.98999977 3.8699998856 3.5599999428 3.1800000668
 5929.0000000 5929.0000000 -20.18000031 3.3900001049 3.4800000191 3.1500000954
 5930.0000000 5930.0000000 -18.04000092 3.0199999809 3.1600000858 3.0199999809
 5931.0000000 5931.0000000 -15.75000000 2.7100000381 2.9200000763 2.8599998951
 5932.0000000 5932.0000000 -14.17000008 2.3800001144 2.8800001144 2.9300000668
 5933.0000000 5933.0000000 -11.02999973 2.2000000477 2.8800001144 2.8499999046
 5934.0000000 5934.0000000 -9.750000000 2.1099998951 2.8299999237 2.3399999142
 5935.0000000 5935.0000000 -9.779999733 2.1199998856 2.7300000191 2.0499999523
 5936.0000000 5936.0000000 -10.68999958 2.2400000095 2.6199998856 2.1900000572
 5937.0000000 5937.0000000 -11.10000038 2.3299999237 2.5599999428 2.4400000572
 5938.0000000 5938.0000000 -10.64000034 2.2899999619 2.5999999046 2.4600000381
 5939.0000000 5939.0000000 -10.31999969 2.2899999619 2.7100000381 2.2899999619
 5940.0000000 5940.0000000 -11.40999985 2.4100000858 2.7400000095 2.2999999523
 5941.0000000 5941.0000000 -12.50000000 2.5599999428 2.7200000286 2.5199999809
 5942.0000000 5942.0000000 -13.22999954 2.6800000668 2.7300000191 2.7300000191
 5943.0000000 5943.0000000 -13.56999969 2.7400000095 2.8599998951 2.9000000954
 5944.0000000 5944.0000000 -13.80000019 2.7799999714 3.0799999237 2.9900000095
 5945.0000000 5945.0000000 -14.39000034 2.8399999142 3.1400001049 2.9800000191
 5946.0000000 5946.0000000 -14.89999962 2.9200000763 3.1800000668 3.0000000000
 5947.0000000 5947.0000000 -14.94999981 2.9400000572 3.1400001049 3.1500000954
 5948.0000000 5948.0000000 -14.55000019 2.8499999046 3.0299999714 3.2000000477
 5949.0000000 5949.0000000 -13.98999977 2.7200000286 2.8900001049 3.2699999809
 5950.0000000 5950.0000000 -13.27999973 2.5399999619 2.7500000000 3.3900001049
 5951.0000000 5951.0000000 -12.55000019 2.4100000858 2.6500000954 3.4500000477
 5952.0000000 5952.0000000 -11.85000038 2.2599999905 2.5599999428 3.4400000572
 5953.0000000 5953.0000000 -11.27999973 2.0799999237 2.5099999905 3.2799999714
 5954.0000000 5954.0000000 -10.85000038 1.9299999475 2.4900000095 2.9500000477
 5955.0000000 5955.0000000 -10.61999989 1.8799999952 2.4600000381 2.6700000763
 5956.0000000 5956.0000000 -10.52999973 1.9500000477 2.3900001049 2.5199999809
 5957.0000000 5957.0000000 -10.52999973 2.0699999332 2.2899999619 2.5199999809
 5958.0000000 5958.0000000 -10.52999973 2.1400001049 2.2200000286 2.5999999046
 5959.0000000 5959.0000000 -10.30000019 2.1199998856 2.2300000191 2.6800000668
 5960.0000000 5960.0000000 -10.02000046 2.0399999619 2.2699999809 2.6600000858
 5961.0000000 5961.0000000 -10.32999992 2.0399999619 2.2200000286 2.6099998951
 5962.0000000 5962.0000000 -10.75000000 2.0999999046 2.0599999428 2.7300000191
 5963.0000000 5963.0000000 -10.47999954 2.0599999428 1.9400000572 3.0099999905
 5964.0000000 5964.0000000 -9.359999657 1.8600000143 1.8700000048 3.1400001049
 5965.0000000 5965.0000000 -8.109999657 1.6599999666 1.8300000429 2.9900000095
 5966.0000000 5966.0000000 -6.829999924 1.4900000095 1.8400000334 2.6900000572
 5967.0000000 5967.0000000 -5.739999771 1.3899999857 1.8799999952 2.3900001049
 5968.0000000 5968.0000000 -5.349999905 1.3899999857 1.8999999762 2.1199998856
 5969.0000000 5969.0000000 -5.449999809 1.4099999666 1.8700000048 1.9400000572
 5970.0000000 5970.0000000 -5.699999809 1.4500000477 1.8400000334 1.8700000048
 5971.0000000 5971.0000000 -5.900000095 1.4900000095 1.8400000334 1.9299999475
 5972.0000000 5972.0000000 -5.929999828 1.5099999905 1.8899999857 1.9700000286
 5973.0000000 5973.0000000 -6.079999924 1.5399999619 1.9700000286 1.8999999762
 5974.0000000 5974.0000000 -7.130000114 1.5900000334 2.0799999237 1.7599999905
 5975.0000000 5975.0000000 -7.969999790 1.6599999666 2.1500000954 1.7400000095
