# LAS format log file from PETREL
# Project units are specified as depth units
#==================================================================
~Version information
VERS.   2.0:
WRAP.   NO:
#==================================================================
~Well
STRT .m      4650.0000000 :
STOP .m      7050.0000000 :
STEP .m     1.00000000 :
NULL .        -999.250000 :
COMP.           : COMPANY
WELL.  WELL_3   : WELL
FLD.            : FIELD
LOC.            : LOCATION
SRVC.           : SERVICE COMPANY
DATE.  2023-03-20 17:52:46   : Log Export Date {yyyy-MM-dd HH:mm:ss}
PROV.           : PROVINCE
UWI.   WELL_3   : UNIQUE WELL ID
API.            : API NUMBER
#==================================================================
~Curve
DEPT .m                   : DEPTH
Depth .m                  : Depth
SP .mV                    : SP
SN .ohm.m                 : SN
LN .ohm.m                 : LN
LAT .ohm.m                : LAT
~Parameter
#==================================================================
~Ascii
# ...
 5466.0000000 5466.0000000 -9.470000267 1.5499999523 1.7400000095 1.7599999905
 5467.0000000 5467.0000000 -9.609999657 1.6200000048 1.7699999809 1.7699999809
 5468.0000000 5468.0000000 -10.21000004 1.6799999475 1.8099999428 1.7599999905
 5469.0000000 5469.0000000 -10.63000011 1.7200000286 1.8300000429 1.7899999619
 5470.0000000 5470.0000000 -10.25000000 1.7599999905 1.7699999809 1.8600000143
 5471.0000000 5471.0000000 -9.289999962 1.7699999809 1.8200000525 1.9700000286
 5472.0000000 5472.0000000 -8.279999733 1.7400000095 1.9800000191 1.9600000381
 5473.0000000 5473.0000000 -7.699999809 1.7200000286 2.1199998856 1.8300000429
 5474.0000000 5474.0000000 -8.369999886 1.7899999619 2.2500000000 1.6699999571
 5475.0000000 5475.0000000 -10.42000008 1.9600000381 2.4000000954 1.6100000143
 5476.0000000 5476.0000000 -13.01000023 2.2799999714 2.5000000000 1.6100000143
 5477.0000000 5477.0000000 -15.78999996 2.5999999046 2.6099998951 1.6299999952
 5478.0000000 5478.0000000 -17.88999939 3.1199998856 2.8399999142 1.6100000143
 5479.0000000 5479.0000000 -20.80999947 3.5299999714 3.0899999142 1.6900000572
 5480.0000000 5480.0000000 -22.85000038 3.9700000286 3.2899999619 1.8799999952
 5481.0000000 5481.0000000 -24.15999985 4.3899998665 3.4600000381 2.1300001144
 5482.0000000 5482.0000000 -24.62999916 4.6900000572 3.6900000572 2.4500000477
 5483.0000000 5483.0000000 -24.81999969 4.6700000763 4.0300002098 2.6600000858
 5484.0000000 5484.0000000 -24.34000015 4.5399999619 4.4899997711 2.7400000095
 5485.0000000 5485.0000000 -23.65999985 4.4800000191 4.8400001526 2.7100000381
 5486.0000000 5486.0000000 -24.25000000 4.6999998093 4.9899997711 2.6600000858
 5487.0000000 5487.0000000 -25.46999931 5.0100002289 4.9899997711 2.6900000572
 5488.0000000 5488.0000000 -26.05999947 5.1900000572 5.0199999809 2.9400000572
 5489.0000000 5489.0000000 -26.52000046 5.2399997711 5.2899999619 3.2799999714
 5490.0000000 5490.0000000 -26.93000031 5.3299999237 5.4499998093 3.5499999523
 5491.0000000 5491.0000000 -27.19000053 5.4600000381 5.4000000954 3.7799999714
 5492.0000000 5492.0000000 -27.13999939 5.4200000763 4.9800000191 4.0300002098
 5493.0000000 5493.0000000 -26.06999969 5.1700000763 4.4600000381 4.3299999237
 5494.0000000 5494.0000000 -23.60000038 4.6100001335 3.4500000477 4.7399997711
 5495.0000000 5495.0000000 -20.31999969 3.7400000095 2.9100000858 5.0700001717
 5496.0000000 5496.0000000 -16.29999924 2.7799999714 2.7300000191 5.2100000381
 5497.0000000 5497.0000000 -13.07999992 2.2599999905 2.6800000668 4.3499999046
 5498.0000000 5498.0000000 -11.21000004 1.9500000477 2.7200000286 3.4000000954
 5499.0000000 5499.0000000 -10.42000008 1.8600000143 2.6600000858 2.4700000286
 5500.0000000 5500.0000000 -9.850000381 1.8899999857 2.5199999809 2.1700000763
 5501.0000000 5501.0000000 -9.930000305 1.9400000572 2.3099999428 2.2100000381
 5502.0000000 5502.0000000 -10.02000046 1.9600000381 2.1800000668 2.3699998856
 5503.0000000 5503.0000000 -9.829999924 1.8700000048 2.1700000763 2.5000000000
 5504.0000000 5504.0000000 -9.500000000 1.7899999619 2.2000000477 2.4300000668
 5505.0000000 5505.0000000 -9.369999886 1.7999999523 2.2300000191 2.3499999046
 5506.0000000 5506.0000000 -9.590000153 1.8799999952 2.2300000191 2.3399999142
 5507.0000000 5507.0000000 -9.939999580 1.9700000286 2.2200000286 2.4200000763
 5508.0000000 5508.0000000 -10.10000038 2.0499999523 2.2200000286 2.5699999332
 5509.0000000 5509.0000000 -10.06000042 2.0999999046 2.2200000286 2.7000000477
 5510.0000000 5510.0000000 -10.06999969 2.1300001144 2.2500000000 2.7999999523
 5511.0000000 5511.0000000 -10.31000042 2.1500000954 2.3199999332 2.8699998856
 5512.0000000 5512.0000000 -10.65999985 2.1600000858 2.3599998951 2.9100000858
 5513.0000000 5513.0000000 -10.92000008 2.1800000668 2.3699998856 2.9500000477
 5514.0000000 5514.0000000 -11.17000008 2.3099999428 2.4100000858 3.0099999905
 5515.0000000 5515.0000000 -11.56000042 2.3399999142 2.3399999142 3.0699999332
 5516.0000000 5516.0000000 -11.80000019 2.3399999142 2.2799999714 3.1199998856
 5517.0000000 5517.0000000 -11.77000046 2.2899999619 2.2000000477 3.0499999523
 5518.0000000 5518.0000000 -11.44999981 2.1600000858 2.0999999046 2.9200000763
 5519.0000000 5519.0000000 -10.78999996 1.9600000381 2.0499999523 2.8099999428
 5520.0000000 5520.0000000 -9.840000153 1.7500000000 2.0599999428 2.6500000954
 5521.0000000 5521.0000000 -8.939999580 1.6200000048 2.0799999237 2.3800001144
 5522.0000000 5522.0000000 -8.600000381 1.5499999523 2.1099998951 2.1099998951
 5523.0000000 5523.0000000 -8.680000305 1.5499999523 2.1500000954 1.9299999475
 5524.0000000 5524.0000000 -8.689999580 1.6299999952 2.1500000954 1.8500000238
 5525.0000000 5525.0000000 -8.609999657 1.7699999809 2.1300001144 1.8700000048
 5526.0000000 5526.0000000 -9.359999657 1.9299999475 2.1400001049 1.9400000572
 5527.0000000 5527.0000000 -10.13000011 2.0499999523 2.1600000858 2.0199999809
 5528.0000000 5528.0000000 -10.85000038 2.1400001049 2.2599999905 2.0999999046
 5529.0000000 5529.0000000 -11.46000004 2.2300000191 2.4100000858 2.1500000954
 5530.0000000 5530.0000000 -12.32999992 2.3199999332 2.5699999332 2.1300001144
 5531.0000000 5531.0000000 -13.38000011 2.4400000572 2.7300000191 2.0899999142
 5532.0000000 5532.0000000 -14.64000034 2.7100000381 2.8599998951 2.1099998951
 5533.0000000 5533.0000000 -15.47000027 3.0799999237 2.9200000763 2.2899999619
 5534.0000000 5534.0000000 -16.02000046 3.3900001049 2.9500000477 2.5899999142
 5535.0000000 5535.0000000 -16.45000076 3.5999999046 2.9900000095 2.9700000286
 5536.0000000 5536.0000000 -16.75000000 3.5999999046 3.0499999523 3.2799999714
 5537.0000000 5537.0000000 -16.85000038 3.5399999619 3.1500000954 3.4200000763
 5538.0000000 5538.0000000 -16.87000084 3.4300000668 3.2599999905 3.4200000763
 5539.0000000 5539.0000000 -16.97999954 3.3699998856 3.2899999619 3.2799999714
 5540.0000000 5540.0000000 -17.45999908 3.3599998951 3.2400000095 3.1199998856
 5541.0000000 5541.0000000 -17.73999977 3.4300000668 3.1600000858 3.0699999332
 5542.0000000 5542.0000000 -17.39999962 3.4400000572 3.0799999237 3.1700000763
 5543.0000000 5543.0000000 -16.12999916 3.2200000286 3.0699999332 3.1400001049
 5544.0000000 5544.0000000 -14.47000027 2.9400000572 3.1800000668 2.9300000668
 5545.0000000 5545.0000000 -13.27000046 2.7999999523 3.0999999046 2.7899999619
 5546.0000000 5546.0000000 -12.56000042 2.7500000000 2.8900001049 2.7999999523
 5547.0000000 5547.0000000 -12.60999966 2.7400000095 2.6700000763 3.0699999332
 5548.0000000 5548.0000000 -12.84000015 2.7400000095 2.4500000477 3.3399999142
 5549.0000000 5549.0000000 -12.69999981 2.7100000381 2.2699999809 3.4400000572
 5550.0000000 5550.0000000 -12.56999969 2.5699999332 2.1800000668 3.2699999809
 5551.0000000 5551.0000000 -11.89000034 2.3900001049 2.1199998856 3.1300001144
 5552.0000000 5552.0000000 -10.75000000 2.0599999428 2.0699999332 3.0799999237
 5553.0000000 5553.0000000 -9.600000381 1.8400000334 2.0699999332 2.7799999714
 5554.0000000 5554.0000000 -8.789999962 1.7200000286 2.0799999237 2.4300000668
 5555.0000000 5555.0000000 -8.409999847 1.6699999571 2.0799999237 2.1500000954
 5556.0000000 5556.0000000 -8.199999809 1.6200000048 2.0599999428 2.0499999523
 5557.0000000 5557.0000000 -7.389999866 1.5700000525 2.0199999809 1.9800000191
 5558.0000000 5558.0000000 -6.510000229 1.5499999523 2.0000000000 1.9099999666
 5559.0000000 5559.0000000 -6.349999905 1.6100000143 1.9400000572 1.8600000143
 5560.0000000 5560.0000000 -7.050000191 1.7699999809 1.8799999952 1.9900000095
 5561.0000000 5561.0000000 -7.619999886 1.8999999762 1.8400000334 2.3199999332
 5562.0000000 5562.0000000 -7.869999886 1.9299999475 1.8200000525 2.5499999523
 5563.0000000 5563.0000000 -7.369999886 1.8600000143 1.8700000048 2.4100000858
 5564.0000000 5564.0000000 -6.949999809 1.8099999428 1.9900000095 2.1900000572
 5565.0000000 5565.0000000 -8.170000076 1.8099999428 2.0399999619 2.0999999046
 5566.0000000 5566.0000000 -9.300000191 1.8600000143 2.0199999809 2.1900000572
 5567.0000000 5567.0000000 -9.720000267 1.9199999571 1.9600000381 2.3399999142
