# LAS format log file from PETREL
# Project units are specified as depth units
#==================================================================
~Version information
VERS.   2.0:
WRAP.   NO:
#==================================================================
~Well
STRT .m      3000.0000000 :
STOP .m      6457.0000000 :
STEP .m     1.00000000 :
NULL .        -999.250000 :
COMP.           : COMPANY
WELL.  WELL_1   : WELL
FLD.            : FIELD
LOC.            : LOCATION
SRVC.           : SERVICE COMPANY
DATE.  2023-03-20 17:52:46   : Log Export Date {yyyy-MM-dd HH:mm:ss}
PROV.           : PROVINCE
UWI.   WELL_1   : UNIQUE WELL ID
API.            : API NUMBER
#==================================================================
~Curve
DEPT .m                   : DEPTH
Depth .m                  : Depth
SP .mV                    : SP
SN .ohm.m                 : SN
LN .ohm.m                 : LN
~Parameter
#==================================================================
~Ascii
# ...
 5684.0000000 5684.0000000 -3.099999905 7.6199998856 3.8199999332
 5685.0000000 5685.0000000 1.2200000286 4.8099999428 3.4400000572
 5686.0000000 5686.0000000 3.7000000477 3.8399999142 3.0000000000
 5687.0000000 5687.0000000 5.7800002098 3.8800001144 2.5499999523
 5688.0000000 5688.0000000 6.8499999046 3.7699999809 2.5099999905
 5689.0000000 5689.0000000 7.3600001335 3.6500000954 2.8299999237
 5690.0000000 5690.0000000 7.3499999046 4.0199999809 3.1700000763
 5691.0000000 5691.0000000 6.8400001526 5.1999998093 3.2799999714
 5692.0000000 5692.0000000 6.1199998856 5.6599998474 3.3099999428
 5693.0000000 5693.0000000 5.9899997711 4.6799998283 3.3900001049
 5694.0000000 5694.0000000 6.0300002098 4.3600001335 3.5999999046
 5695.0000000 5695.0000000 6.0700001717 4.2100000381 4.0100002289
 5696.0000000 5696.0000000 6.1100001335 4.3099999428 4.5500001907
 5697.0000000 5697.0000000 6.1500000954 4.6100001335 4.8099999428
 5698.0000000 5698.0000000 6.1999998093 4.9600000381 4.5999999046
 5699.0000000 5699.0000000 6.2500000000 5.0199999809 3.8800001144
 5700.0000000 5700.0000000 6.2699999809 4.0700001717 3.1099998951
 5701.0000000 5701.0000000 6.2800002098 3.0699999332 2.5399999619
 5702.0000000 5702.0000000 6.5300002098 2.4800000191 2.0699999332
 5703.0000000 5703.0000000 8.0500001907 1.9900000095 1.8500000238
 5704.0000000 5704.0000000 9.5000000000 1.7200000286 1.7599999905
 5705.0000000 5705.0000000 10.229999542 1.7000000477 1.7899999619
 5706.0000000 5706.0000000 10.279999733 1.7200000286 1.8200000525
 5707.0000000 5707.0000000 10.319999695 1.7500000000 1.8500000238
 5708.0000000 5708.0000000 10.310000420 1.8099999428 1.8899999857
 5709.0000000 5709.0000000 10.310000420 1.8899999857 1.9500000477
 5710.0000000 5710.0000000 10.310000420 1.9600000381 2.0000000000
 5711.0000000 5711.0000000 10.210000038 2.0399999619 2.0599999428
 5712.0000000 5712.0000000 9.6199998856 2.1900000572 2.1600000858
 5713.0000000 5713.0000000 8.8100004196 2.3699998856 2.2999999523
 5714.0000000 5714.0000000 7.8200001717 2.7100000381 2.4700000286
 5715.0000000 5715.0000000 6.5399999619 3.7500000000 2.7400000095
 5716.0000000 5716.0000000 5.2800002098 5.3400001526 3.0199999809
 5717.0000000 5717.0000000 4.0300002098 5.9000000954 3.3199999332
 5718.0000000 5718.0000000 4.0300002098 5.3600001335 3.1199998856
 5719.0000000 5719.0000000 4.9099998474 4.8400001526 2.9400000572
 5720.0000000 5720.0000000 5.4800000191 4.4499998093 2.8299999237
 5721.0000000 5721.0000000 5.6399998665 4.4899997711 2.7300000191
 5722.0000000 5722.0000000 5.9699997902 4.4699997902 2.6300001144
 5723.0000000 5723.0000000 6.3499999046 4.2300000191 2.5299999714
 5724.0000000 5724.0000000 6.7500000000 3.9200000763 2.7699999809
 5725.0000000 5725.0000000 7.2699999809 4.0500001907 3.0799999237
 5726.0000000 5726.0000000 6.5999999046 4.4899997711 3.4300000668
 5727.0000000 5727.0000000 5.3699998856 5.3499999046 3.9200000763
 5728.0000000 5728.0000000 4.0500001907 6.1500000954 3.7200000286
 5729.0000000 5729.0000000 2.6099998951 5.6700000763 3.5099999905
 5730.0000000 5730.0000000 4.4499998093 5.0599999428 3.3099999428
 5731.0000000 5731.0000000 6.3400001526 4.2199997902 3.0999999046
 5732.0000000 5732.0000000 7.7899999619 3.5799999237 2.8699998856
 5733.0000000 5733.0000000 9.0500001907 3.0699999332 2.6500000954
 5734.0000000 5734.0000000 9.3900003433 2.7100000381 2.5199999809
 5735.0000000 5735.0000000 9.3199996948 2.4100000858 2.4200000763
 5736.0000000 5736.0000000 9.2500000000 2.1600000858 2.2899999619
 5737.0000000 5737.0000000 9.1099996567 1.9900000095 2.2000000477
 5738.0000000 5738.0000000 8.9600000381 1.8400000334 2.1099998951
 5739.0000000 5739.0000000 8.8800001144 1.7599999905 2.1400001049
 5740.0000000 5740.0000000 9.4300003052 1.6799999475 2.1600000858
 5741.0000000 5741.0000000 9.4700002670 1.6200000048 2.1500000954
 5742.0000000 5742.0000000 8.2899999619 1.5599999428 2.1400001049
 5743.0000000 5743.0000000 7.1100001335 1.5099999905 2.1300001144
 5744.0000000 5744.0000000 6.6500000954 1.4700000286 2.0399999619
 5745.0000000 5745.0000000 6.7899999619 1.4500000477 1.9400000572
 5746.0000000 5746.0000000 6.9400000572 1.4299999475 1.8700000048
 5747.0000000 5747.0000000 7.3200001717 1.4500000477 1.8600000143
 5748.0000000 5748.0000000 7.7399997711 1.4900000095 1.8500000238
 5749.0000000 5749.0000000 7.6900000572 1.5299999714 1.8899999857
 5750.0000000 5750.0000000 7.3699998856 1.5700000525 1.9800000191
 5751.0000000 5751.0000000 7.0599999428 1.6100000143 1.8999999762
 5752.0000000 5752.0000000 7.1799998283 1.6599999666 1.7500000000
 5753.0000000 5753.0000000 7.5999999046 1.6100000143 1.6100000143
 5754.0000000 5754.0000000 8.0100002289 1.5499999523 1.4900000095
 5755.0000000 5755.0000000 8.4099998474 1.4900000095 1.4400000572
 5756.0000000 5756.0000000 8.8100004196 1.4400000572 1.3799999952
 5757.0000000 5757.0000000 9.2600002289 1.3999999762 1.3600000143
 5758.0000000 5758.0000000 9.7299995422 1.3700000048 1.3799999952
 5759.0000000 5759.0000000 10.189999580 1.3600000143 1.4099999666
 5760.0000000 5760.0000000 10.569999695 1.4199999571 1.4299999475
 5761.0000000 5761.0000000 10.960000038 1.4800000191 1.4600000381
 5762.0000000 5762.0000000 11.340000153 1.5499999523 1.4900000095
 5763.0000000 5763.0000000 11.550000191 1.6499999762 1.5299999714
 5764.0000000 5764.0000000 11.750000000 1.7500000000 1.5700000525
 5765.0000000 5765.0000000 11.909999847 1.8500000238 1.6000000238
 5766.0000000 5766.0000000 11.619999886 2.0000000000 1.6399999857
 5767.0000000 5767.0000000 11.340000153 2.1700000763 1.6799999475
 5768.0000000 5768.0000000 11.050000191 2.3399999142 1.7200000286
 5769.0000000 5769.0000000 10.729999542 2.4600000381 1.7599999905
 5770.0000000 5770.0000000 10.399999619 2.5299999714 1.7999999523
 5771.0000000 5771.0000000 10.090000153 2.5999999046 1.8400000334
 5772.0000000 5772.0000000 10.090000153 2.5999999046 1.8799999952
 5773.0000000 5773.0000000 10.090000153 2.5999999046 1.9199999571
 5774.0000000 5774.0000000 10.300000191 2.6400001049 1.9700000286
 5775.0000000 5775.0000000 10.890000343 2.8599998951 2.0199999809
 5776.0000000 5776.0000000 11.470000267 3.1199998856 2.0799999237
 5777.0000000 5777.0000000 11.100000381 3.4400000572 2.1500000954
 5778.0000000 5778.0000000 10.390000343 3.8399999142 2.2400000095
 5779.0000000 5779.0000000 9.6800003052 4.2500000000 2.3399999142
 5780.0000000 5780.0000000 9.3000001907 4.6700000763 2.5000000000
 5781.0000000 5781.0000000 9.1000003815 5.0000000000 2.6800000668
 5782.0000000 5782.0000000 9.0900001526 5.0399999619 2.9700000286
 5783.0000000 5783.0000000 9.3299999237 4.5900001526 3.2500000000
 5784.0000000 5784.0000000 9.5699996948 3.5199999809 2.8900001049
 5785.0000000 5785.0000000 9.8100004196 2.9200000763 3.1400001049
 5786.0000000 5786.0000000 10.060000420 2.3599998951 2.6500000954
 5787.0000000 5787.0000000 10.310000420 1.9099999666 2.1400001049
 5788.0000000 5788.0000000 10.560000420 1.7200000286 1.7100000381
 5789.0000000 5789.0000000 10.619999886 1.8700000048 1.5099999905
 5790.0000000 5790.0000000 10.590000153 2.0199999809 1.3799999952
 5791.0000000 5791.0000000 10.550000191 1.9900000095 1.3700000048
 5792.0000000 5792.0000000 10.489999771 1.8799999952 1.3500000238
 5793.0000000 5793.0000000 10.390000343 1.7799999714 1.4099999666
 5794.0000000 5794.0000000 10.300000191 1.7000000477 1.4800000191
 5795.0000000 5795.0000000 10.439999580 1.6200000048 1.5399999619
 5796.0000000 5796.0000000 10.600000381 1.7400000095 1.6499999762
 5797.0000000 5797.0000000 10.449999809 1.8999999762 1.7799999714
 5798.0000000 5798.0000000 10.140000343 2.3900001049 1.9500000477
 5799.0000000 5799.0000000 9.3199996948 2.9400000572 2.2100000381
 5800.0000000 5800.0000000 8.1300001144 3.3900001049 2.7300000191
 5801.0000000 5801.0000000 7.5000000000 3.6099998951 3.3699998856
 5802.0000000 5802.0000000 7.3000001907 3.1500000954 3.3800001144
 5803.0000000 5803.0000000 7.4600000381 2.6900000572 2.9600000381
 5804.0000000 5804.0000000 7.6199998856 2.2100000381 2.5399999619
 5805.0000000 5805.0000000 7.8000001907 1.8899999857 2.2300000191
