# LAS format log file from PETREL
# Project units are specified as depth units
#==================================================================
~Version information
VERS.   2.0:
WRAP.   NO:
#==================================================================
~Well
STRT .m      4450.0000000 :
STOP .m      7050.0000000 :
STEP .m     1.00000000 :
NULL .        -999.250000 :
COMP.           : COMPANY
WELL.  WELL_4   : WELL
FLD.            : FIELD
LOC.            : LOCATION
SRVC.           : SERVICE COMPANY
DATE.  2023-03-20 17:52:46   : Log Export Date {yyyy-MM-dd HH:mm:ss}
PROV.           : PROVINCE
UWI.   WELL_4   : UNIQUE WELL ID
API.            : API NUMBER
#==================================================================
~Curve
DEPT .m                   : DEPTH
Depth .m                  : Depth
SP .mV                    : SP
SN .ohm.m                 : SN
LN .ohm.m                 : LN
LAT .ohm.m                : LAT
~Parameter
#==================================================================
~Ascii
# ...
 5674.0000000 5674.0000000 -13.77000046 2.5299999714 2.2000000477 2.1199998856
 5675.0000000 5675.0000000 -13.85999966 2.5299999714 2.2799999714 1.9700000286
 5676.0000000 5676.0000000 -14.10999966 2.5399999619 2.3099999428 1.8400000334
 5677.0000000 5677.0000000 -14.36999989 2.5000000000 2.3499999046 1.8500000238
 5678.0000000 5678.0000000 -14.59000015 2.5099999905 2.4100000858 1.8500000238
 5679.0000000 5679.0000000 -14.80000019 2.5699999332 2.4700000286 1.8099999428
 5680.0000000 5680.0000000 -15.00000000 2.6500000954 2.5399999619 1.7799999714
 5681.0000000 5681.0000000 -15.31999969 2.7799999714 2.6099998951 1.7599999905
 5682.0000000 5682.0000000 -15.92000008 3.0000000000 2.7000000477 1.7899999619
 5683.0000000 5683.0000000 -16.89999962 3.2599999905 2.8399999142 1.8600000143
 5684.0000000 5684.0000000 -18.05999947 3.5199999809 3.0000000000 1.9299999475
 5685.0000000 5685.0000000 -19.42000008 3.5499999523 3.1099998951 1.9900000095
 5686.0000000 5686.0000000 -20.51000023 3.5799999237 3.1300001144 2.0099999905
 5687.0000000 5687.0000000 -21.04000092 3.5099999905 3.1300001144 2.0199999809
 5688.0000000 5688.0000000 -20.46999931 3.2599999905 3.1600000858 2.0199999809
 5689.0000000 5689.0000000 -18.82999992 3.1199998856 3.2000000477 2.0299999714
 5690.0000000 5690.0000000 -18.22999954 3.1199998856 3.2899999619 2.0999999046
 5691.0000000 5691.0000000 -18.40999985 3.3599998951 3.3399999142 2.2999999523
 5692.0000000 5692.0000000 -19.02000046 3.7300000191 3.2500000000 2.5499999523
 5693.0000000 5693.0000000 -19.68000031 4.0999999046 3.1199998856 2.8900001049
 5694.0000000 5694.0000000 -20.15999985 4.4000000954 3.0399999619 3.4100000858
 5695.0000000 5695.0000000 -20.15999985 4.3899998665 3.0299999714 3.8299999237
 5696.0000000 5696.0000000 -19.70999908 4.1399998665 3.1300001144 4.0300002098
 5697.0000000 5697.0000000 -19.03000069 3.9000000954 3.4100000858 3.9000000954
 5698.0000000 5698.0000000 -18.63999939 3.7599999905 3.7400000095 3.3299999237
 5699.0000000 5699.0000000 -19.63999939 3.8900001049 3.8399999142 2.9000000954
 5700.0000000 5700.0000000 -21.12999916 4.2500000000 3.8299999237 2.6500000954
 5701.0000000 5701.0000000 -24.85000038 4.7100000381 3.7899999619 2.6400001049
 5702.0000000 5702.0000000 -27.62999916 5.1399998665 3.8499999046 2.7699999809
 5703.0000000 5703.0000000 -29.18000031 5.1700000763 4.0199999809 2.8499999046
 5704.0000000 5704.0000000 -29.50000000 5.1300001144 4.1900000572 2.8299999237
 5705.0000000 5705.0000000 -29.22999954 5.0300002098 4.2500000000 2.7699999809
 5706.0000000 5706.0000000 -28.67000008 4.9099998474 4.2399997711 2.7200000286
 5707.0000000 5707.0000000 -27.85000038 4.8000001907 4.2100000381 2.6700000763
 5708.0000000 5708.0000000 -27.05999947 4.8000001907 4.1199998856 2.5999999046
 5709.0000000 5709.0000000 -26.57999992 4.8800001144 4.0100002289 2.6199998856
 5710.0000000 5710.0000000 -27.00000000 4.9000000954 3.8900001049 2.7400000095
 5711.0000000 5711.0000000 -27.27000046 4.8600001335 3.7699999809 2.9100000858
 5712.0000000 5712.0000000 -27.26000023 4.7800002098 3.6800000668 3.0099999905
 5713.0000000 5713.0000000 -26.92000008 4.5999999046 3.5599999428 3.0799999237
 5714.0000000 5714.0000000 -26.27000046 4.3299999237 3.0799999237 3.2500000000
 5715.0000000 5715.0000000 -24.76000023 4.0500001907 2.7699999809 3.4300000668
 5716.0000000 5716.0000000 -22.35000038 3.5699999332 2.6900000572 3.5399999619
 5717.0000000 5717.0000000 -18.47999954 2.9500000477 2.7100000381 3.4600000381
 5718.0000000 5718.0000000 -14.60999966 2.5000000000 2.8299999237 3.0099999905
 5719.0000000 5719.0000000 -13.67000008 2.3499999046 2.8399999142 2.6199998856
 5720.0000000 5720.0000000 -13.05000019 2.4100000858 2.7200000286 2.4500000477
 5721.0000000 5721.0000000 -13.18000031 2.6500000954 2.5699999332 2.6700000763
 5722.0000000 5722.0000000 -13.90999985 2.9000000954 2.5000000000 3.0299999714
 5723.0000000 5723.0000000 -14.40999985 2.9900000095 2.4900000095 3.2200000286
 5724.0000000 5724.0000000 -14.31999969 2.9000000954 2.5599999428 3.2699999809
 5725.0000000 5725.0000000 -14.07999992 2.7599999905 2.7000000477 3.1900000572
 5726.0000000 5726.0000000 -13.92000008 2.7500000000 2.6800000668 3.0499999523
 5727.0000000 5727.0000000 -13.93999958 2.8099999428 2.6099998951 3.0299999714
 5728.0000000 5728.0000000 -14.28999996 2.9400000572 2.5399999619 3.0799999237
 5729.0000000 5729.0000000 -14.39000034 2.9200000763 2.4900000095 3.2999999523
 5730.0000000 5730.0000000 -14.03999996 2.8299999237 2.4600000381 3.4000000954
 5731.0000000 5731.0000000 -13.68000031 2.6900000572 2.4100000858 3.2400000095
 5732.0000000 5732.0000000 -13.59000015 2.6900000572 2.3499999046 3.0999999046
 5733.0000000 5733.0000000 -13.76000023 2.6199998856 2.3699998856 3.0399999619
 5734.0000000 5734.0000000 -13.27999973 2.3199999332 2.4100000858 2.9400000572
 5735.0000000 5735.0000000 -12.56000042 2.2799999714 2.3599998951 2.6700000763
 5736.0000000 5736.0000000 -12.39000034 2.3299999237 2.2300000191 2.5099999905
 5737.0000000 5737.0000000 -12.77999973 2.4900000095 2.0599999428 2.5599999428
 5738.0000000 5738.0000000 -12.93000031 2.5000000000 1.9099999666 2.7699999809
 5739.0000000 5739.0000000 -12.02999973 2.3299999237 1.8799999952 2.7999999523
 5740.0000000 5740.0000000 -10.50000000 2.0999999046 1.9299999475 2.7000000477
 5741.0000000 5741.0000000 -9.369999886 1.9600000381 1.9500000477 2.5399999619
 5742.0000000 5742.0000000 -8.609999657 1.8700000048 1.8899999857 2.4000000954
 5743.0000000 5743.0000000 -8.260000229 1.7999999523 1.8200000525 2.3199999332
 5744.0000000 5744.0000000 -8.210000038 1.8099999428 1.7500000000 2.3399999142
 5745.0000000 5745.0000000 -8.319999695 1.7400000095 1.7400000095 2.4000000954
 5746.0000000 5746.0000000 -8.029999733 1.7300000191 1.7699999809 2.2500000000
 5747.0000000 5747.0000000 -7.789999962 1.6900000572 1.7899999619 2.0399999619
 5748.0000000 5748.0000000 -7.929999828 1.6200000048 1.8200000525 1.8899999857
 5749.0000000 5749.0000000 -8.079999924 1.6000000238 1.7899999619 1.8400000334
 5750.0000000 5750.0000000 -8.260000229 1.6000000238 1.7699999809 1.7999999523
 5751.0000000 5751.0000000 -8.500000000 1.6000000238 1.7599999905 1.7599999905
 5752.0000000 5752.0000000 -8.819999695 1.6100000143 1.7400000095 1.7200000286
 5753.0000000 5753.0000000 -9.020000458 1.7000000477 1.7300000191 1.7100000381
 5754.0000000 5754.0000000 -9.260000229 1.7699999809 1.7200000286 1.7000000477
 5755.0000000 5755.0000000 -9.670000076 1.8500000238 1.7200000286 1.6900000572
 5756.0000000 5756.0000000 -9.630000114 1.9600000381 1.7400000095 1.7100000381
 5757.0000000 5757.0000000 -9.350000381 1.9800000191 1.7200000286 1.8200000525
 5758.0000000 5758.0000000 -8.800000191 1.9400000572 1.7300000191 1.9199999571
 5759.0000000 5759.0000000 -8.149999619 1.8200000525 1.7899999619 1.8999999762
 5760.0000000 5760.0000000 -7.750000000 1.6900000572 1.8899999857 1.7500000000
 5761.0000000 5761.0000000 -7.809999943 1.6100000143 1.9600000381 1.5900000334
 5762.0000000 5762.0000000 -8.079999924 1.6200000048 1.9099999666 1.5000000000
 5763.0000000 5763.0000000 -8.350000381 1.7200000286 1.7599999905 1.5000000000
 5764.0000000 5764.0000000 -8.779999733 1.8099999428 1.6799999475 1.6799999475
 5765.0000000 5765.0000000 -8.960000038 1.8799999952 1.6799999475 1.8899999857
 5766.0000000 5766.0000000 -7.969999790 1.8799999952 1.7400000095 1.8899999857
 5767.0000000 5767.0000000 -7.559999943 1.8200000525 1.8300000429 1.6299999952
 5768.0000000 5768.0000000 -7.750000000 1.7500000000 1.8999999762 1.4400000572
 5769.0000000 5769.0000000 -8.289999962 1.7300000191 1.8700000048 1.4800000191
 5770.0000000 5770.0000000 -8.899999619 1.7799999714 1.8300000429 1.5499999523
 5771.0000000 5771.0000000 -9.359999657 1.8799999952 1.8500000238 1.5299999714
 5772.0000000 5772.0000000 -10.06000042 1.9500000477 1.9099999666 1.4600000381
 5773.0000000 5773.0000000 -10.98999977 2.0599999428 2.0000000000 1.4500000477
 5774.0000000 5774.0000000 -11.76000023 2.2200000286 2.0399999619 1.5000000000
 5775.0000000 5775.0000000 -12.36999989 2.3699998856 2.0999999046 1.5599999428
