# LAS format log file from PETREL
# Project units are specified as depth units
#==================================================================
~Version information
VERS.   2.0:
WRAP.   NO:
#==================================================================
~Well
STRT .m      3000.0000000 :
STOP .m      7750.0000000 :
STEP .m     1.00000000 :
NULL .        -999.250000 :
COMP.           : COMPANY
WELL.  WELL_2   : WELL
FLD.            : FIELD
LOC.            : LOCATION
SRVC.           : SERVICE COMPANY
DATE.  2023-03-20 17:52:46   : Log Export Date {yyyy-MM-dd HH:mm:ss}
PROV.           : PROVINCE
UWI.   WELL_2   : UNIQUE WELL ID
API.            : API NUMBER
#==================================================================
~Curve
DEPT .m                   : DEPTH
Depth .m                  : Depth
SP .mV                    : SP
SN .ohm.m                 : SN
LN .ohm.m                 : LN
LAT .ohm.m                : LAT
~Parameter
#==================================================================
~Ascii
# ...
 3306.0000000 3306.0000000 -0.039999999 1.8700000048 1.9600000381 1.9600000381
 3307.0000000 3307.0000000 0.4300000072 1.7799999714 1.8400000334 1.8400000334
 3308.0000000 3308.0000000 0.8600000143 1.7100000381 1.6900000572 1.6900000572
 3309.0000000 3309.0000000 0.9499999881 1.6100000143 1.5900000334 1.5900000334
 3310.0000000 3310.0000000 0.6399999857 1.5199999809 1.5499999523 1.5499999523
 3311.0000000 3311.0000000 0.4300000072 1.4900000095 1.5299999714 1.5299999714
 3312.0000000 3312.0000000 0.4600000083 1.4500000477 1.5299999714 1.5299999714
 3313.0000000 3313.0000000 0.4900000095 1.3899999857 1.5599999428 1.5599999428
 3314.0000000 3314.0000000 0.1700000018 1.3500000238 1.5700000525 1.5700000525
 3315.0000000 3315.0000000 -0.509999990 1.2999999523 1.5499999523 1.5499999523
 3316.0000000 3316.0000000 -0.870000005 1.2699999809 1.4900000095 1.4900000095
 3317.0000000 3317.0000000 -0.899999976 1.2500000000 1.4299999475 1.4299999475
 3318.0000000 3318.0000000 -0.810000002 1.2400000095 1.3899999857 1.3899999857
 3319.0000000 3319.0000000 -0.800000012 1.2899999619 1.3600000143 1.3600000143
 3320.0000000 3320.0000000 -1.769999981 1.2699999809 1.3300000429 1.3300000429
 3321.0000000 3321.0000000 -1.399999976 1.2100000381 1.3200000525 1.3200000525
 3322.0000000 3322.0000000 -1.110000014 1.1699999571 1.2999999523 1.2999999523
 3323.0000000 3323.0000000 -1.500000000 1.1699999571 1.2899999619 1.2899999619
 3324.0000000 3324.0000000 -2.519999981 1.1599999666 1.2999999523 1.2999999523
 3325.0000000 3325.0000000 -3.369999886 1.1900000572 1.3200000525 1.3200000525
 3326.0000000 3326.0000000 -4.289999962 1.2200000286 1.3400000334 1.3400000334
 3327.0000000 3327.0000000 -4.599999905 1.2400000095 1.3500000238 1.3500000238
 3328.0000000 3328.0000000 -4.389999866 1.2699999809 1.3600000143 1.3600000143
 3329.0000000 3329.0000000 -3.849999905 1.2999999523 1.3899999857 1.3899999857
 3330.0000000 3330.0000000 -2.950000048 1.3500000238 1.4199999571 1.4199999571
 3331.0000000 3331.0000000 -2.009999990 1.3999999762 1.4500000477 1.4500000477
 3332.0000000 3332.0000000 -0.899999976 1.4500000477 1.4700000286 1.4700000286
 3333.0000000 3333.0000000 0.3199999928 1.5000000000 1.5000000000 1.5000000000
 3334.0000000 3334.0000000 1.3600000143 1.5499999523 1.5199999809 1.5199999809
 3335.0000000 3335.0000000 1.7300000191 1.5700000525 1.5399999619 1.5399999619
 3336.0000000 3336.0000000 1.2400000095 1.5700000525 1.5599999428 1.5599999428
 3337.0000000 3337.0000000 1.1299999952 1.5700000525 1.5800000429 1.5800000429
 3338.0000000 3338.0000000 0.8500000238 1.5700000525 1.6000000238 1.6000000238
 3339.0000000 3339.0000000 0.0500000007 1.5800000429 1.5900000334 1.5900000334
 3340.0000000 3340.0000000 -0.319999993 1.5900000334 1.5700000525 1.5700000525
 3341.0000000 3341.0000000 -1.129999995 1.6000000238 1.5700000525 1.5700000525
 3342.0000000 3342.0000000 -1.909999967 1.6000000238 1.5599999428 1.5599999428
 3343.0000000 3343.0000000 -2.289999962 1.6000000238 1.5599999428 1.5599999428
 3344.0000000 3344.0000000 -2.519999981 1.6000000238 1.5599999428 1.5599999428
 3345.0000000 3345.0000000 -2.569999933 1.5900000334 1.5599999428 1.5599999428
 3346.0000000 3346.0000000 -2.460000038 1.5800000429 1.5700000525 1.5700000525
 3347.0000000 3347.0000000 -2.269999981 1.5800000429 1.5900000334 1.5900000334
 3348.0000000 3348.0000000 -1.879999995 1.5900000334 1.6000000238 1.6000000238
 3349.0000000 3349.0000000 -1.500000000 1.6100000143 1.6200000048 1.6200000048
 3350.0000000 3350.0000000 -1.059999943 1.6399999857 1.6399999857 1.6399999857
 3351.0000000 3351.0000000 -0.589999974 1.6699999571 1.6699999571 1.6699999571
 3352.0000000 3352.0000000 -0.129999995 1.7100000381 1.7000000477 1.7000000477
 3353.0000000 3353.0000000 0.3100000024 1.7599999905 1.7400000095 1.7400000095
 3354.0000000 3354.0000000 0.6600000262 1.7899999619 1.7699999809 1.7699999809
 3355.0000000 3355.0000000 0.9599999785 1.8300000429 1.7899999619 1.7899999619
 3356.0000000 3356.0000000 1.0900000334 1.8600000143 1.8099999428 1.8099999428
 3357.0000000 3357.0000000 0.8100000024 1.8999999762 1.8500000238 1.8500000238
 3358.0000000 3358.0000000 -0.129999995 1.9700000286 1.9199999571 1.9199999571
 3359.0000000 3359.0000000 -1.000000000 2.0299999714 2.0199999809 2.0199999809
 3360.0000000 3360.0000000 -2.119999886 2.0899999142 2.1300001144 2.1300001144
 3361.0000000 3361.0000000 -4.190000057 2.1300001144 2.2000000477 2.2000000477
 3362.0000000 3362.0000000 -5.610000134 2.1800000668 2.2400000095 2.2400000095
 3363.0000000 3363.0000000 -7.380000114 2.3399999142 2.2300000191 2.2300000191
 3364.0000000 3364.0000000 -9.600000381 2.5699999332 2.2699999809 2.2699999809
 3365.0000000 3365.0000000 -11.01000023 2.6600000858 2.3199999332 2.3199999332
 3366.0000000 3366.0000000 -11.67000008 2.7300000191 2.3499999046 2.3499999046
 3367.0000000 3367.0000000 -11.89000034 2.7500000000 2.4000000954 2.4000000954
 3368.0000000 3368.0000000 -11.85999966 2.7799999714 2.4400000572 2.4400000572
 3369.0000000 3369.0000000 -11.96000004 2.8099999428 2.4900000095 2.4900000095
 3370.0000000 3370.0000000 -12.18999958 2.8800001144 2.4100000858 2.4100000858
 3371.0000000 3371.0000000 -12.52999973 2.8599998951 2.3199999332 2.3199999332
 3372.0000000 3372.0000000 -13.19999981 2.7799999714 2.2599999905 2.2599999905
 3373.0000000 3373.0000000 -12.39000034 2.5499999523 2.2400000095 2.2400000095
 3374.0000000 3374.0000000 -11.22000027 2.4200000763 2.2599999905 2.2599999905
 3375.0000000 3375.0000000 -10.07999992 2.3399999142 2.2699999809 2.2699999809
 3376.0000000 3376.0000000 -9.699999809 2.2100000381 2.2899999619 2.2899999619
 3377.0000000 3377.0000000 -9.649999619 2.0799999237 2.4100000858 2.4100000858
 3378.0000000 3378.0000000 -10.05000019 2.0299999714 2.3399999142 2.3399999142
 3379.0000000 3379.0000000 -10.89999962 2.0599999428 2.2100000381 2.2100000381
 3380.0000000 3380.0000000 -11.73999977 2.1400001049 2.0699999332 2.0699999332
 3381.0000000 3381.0000000 -11.13000011 2.2400000095 1.9800000191 1.9800000191
 3382.0000000 3382.0000000 -10.22000027 2.2799999714 1.8500000238 1.8500000238
 3383.0000000 3383.0000000 -7.860000134 2.0499999523 1.7300000191 1.7300000191
 3384.0000000 3384.0000000 -2.569999933 1.8600000143 1.6599999666 1.6599999666
 3385.0000000 3385.0000000 -0.550000012 1.7300000191 1.6100000143 1.6100000143
 3386.0000000 3386.0000000 0.1099999994 1.7400000095 1.5499999523 1.5499999523
 3387.0000000 3387.0000000 0.2300000042 1.7899999619 1.4800000191 1.4800000191
 3388.0000000 3388.0000000 0.0099999998 1.7500000000 1.4400000572 1.4400000572
 3389.0000000 3389.0000000 -0.670000017 1.7100000381 1.4099999666 1.4099999666
 3390.0000000 3390.0000000 0.3300000131 1.6499999762 1.3999999762 1.3999999762
 3391.0000000 3391.0000000 1.6000000238 1.5900000334 1.3999999762 1.3999999762
 3392.0000000 3392.0000000 2.6800000668 1.5299999714 1.4099999666 1.4099999666
 3393.0000000 3393.0000000 3.0000000000 1.5099999905 1.4099999666 1.4099999666
 3394.0000000 3394.0000000 3.2599999905 1.5000000000 1.4199999571 1.4199999571
 3395.0000000 3395.0000000 3.7699999809 1.5099999905 1.4299999475 1.4299999475
 3396.0000000 3396.0000000 4.0999999046 1.5099999905 1.4199999571 1.4199999571
 3397.0000000 3397.0000000 4.0399999619 1.4900000095 1.3999999762 1.3999999762
 3398.0000000 3398.0000000 3.6900000572 1.4600000381 1.3799999952 1.3799999952
 3399.0000000 3399.0000000 3.4600000381 1.4400000572 1.4099999666 1.4099999666
 3400.0000000 3400.0000000 3.8900001049 1.4299999475 1.3999999762 1.3999999762
 3401.0000000 3401.0000000 3.9700000286 1.4199999571 1.3999999762 1.3999999762
 3402.0000000 3402.0000000 3.6099998951 1.4199999571 1.3999999762 1.3999999762
 3403.0000000 3403.0000000 3.1199998856 1.4199999571 1.3999999762 1.3999999762
 3404.0000000 3404.0000000 3.1500000954 1.4400000572 1.3999999762 1.3999999762
 3405.0000000 3405.0000000 2.9900000095 1.4600000381 1.4099999666 1.4099999666
 3406.0000000 3406.0000000 2.3900001049 1.5000000000 1.4199999571 1.4199999571
 3407.0000000 3407.0000000 1.9600000381 1.5299999714 1.4299999475 1.4299999475
