# LAS format log file from PETREL
# Project units are specified as depth units
#==================================================================
~Version information
VERS.   2.0:
WRAP.   NO:
#==================================================================
~Well
STRT .m      4450.0000000 :
STOP .m      7050.0000000 :
STEP .m     1.00000000 :
NULL .        -999.250000 :
COMP.           : COMPANY
WELL.  WELL_4   : WELL
FLD.            : FIELD
LOC.            : LOCATION
SRVC.           : SERVICE COMPANY
DATE.  2023-03-20 17:52:46   : Log Export Date {yyyy-MM-dd HH:mm:ss}
PROV.           : PROVINCE
UWI.   WELL_4   : UNIQUE WELL ID
API.            : API NUMBER
#==================================================================
~Curve
DEPT .m                   : DEPTH
Depth .m                  : Depth
SP .mV                    : SP
SN .ohm.m                 : SN
LN .ohm.m                 : LN
LAT .ohm.m                : LAT
~Parameter
#==================================================================
~Ascii
# ...
 7000.0000000 7000.0000000 -8.979999542 1.6599999666 1.3999999762 0.6000000238
 7001.0000000 7001.0000000 -9.350000381 1.6499999762 1.3600000143 0.6000000238
 7002.0000000 7002.0000000 -9.229999542 1.6399999857 1.3300000429 0.7300000191
 7003.0000000 7003.0000000 -9.020000458 1.5499999523 1.2899999619 0.8899999857
 7004.0000000 7004.0000000 -8.720000267 1.4600000381 1.2400000095 1.0000000000
 7005.0000000 7005.0000000 -8.279999733 1.2300000191 1.1499999762 1.0700000525
 7006.0000000 7006.0000000 -7.230000019 1.0399999619 0.6800000072 1.3300000429
 7007.0000000 7007.0000000 -7.239999771 1.0499999523 0.3300000131 2.2799999714
 7008.0000000 7008.0000000 -7.849999905 1.2400000095 0.1899999976 4.7399997711
 7009.0000000 7009.0000000 -8.329999924 1.6100000143 0.1700000018 6.3899998665
 7010.0000000 7010.0000000 -8.119999886 1.4700000286 0.3000000119 5.4499998093
 7011.0000000 7011.0000000 -7.489999771 1.2699999809 0.8700000048 2.7500000000
 7012.0000000 7012.0000000 -7.360000134 1.3099999428 1.0900000334 1.4600000381
 7013.0000000 7013.0000000 -7.440000057 1.3300000429 1.0499999523 0.8999999762
 7014.0000000 7014.0000000 -7.480000019 1.2200000286 0.9800000191 0.6100000143
 7015.0000000 7015.0000000 -7.309999943 1.1299999952 0.9100000262 0.5299999714
 7016.0000000 7016.0000000 -7.199999809 1.0800000429 0.8899999857 0.4799999893
 7017.0000000 7017.0000000 -7.179999828 1.0399999619 0.9100000262 0.5000000000
 7018.0000000 7018.0000000 -7.289999962 1.0800000429 0.9399999976 0.4399999976
 7019.0000000 7019.0000000 -7.440000057 1.1900000572 1.0099999905 0.3199999928
 7020.0000000 7020.0000000 -7.500000000 1.2300000191 1.1299999952 0.2500000000
 7021.0000000 7021.0000000 -7.559999943 1.2300000191 1.2300000191 0.2099999934
 7022.0000000 7022.0000000 -7.610000134 1.2200000286 1.3200000525 0.1800000072
 7023.0000000 7023.0000000 -7.599999905 1.2300000191 1.3700000048 0.1800000072
 7024.0000000 7024.0000000 -7.739999771 1.2500000000 1.3600000143 0.1899999976
 7025.0000000 7025.0000000 -8.029999733 1.2899999619 1.3600000143 0.2300000042
 7026.0000000 7026.0000000 -8.289999962 1.3300000429 1.3700000048 0.3100000024
 7027.0000000 7027.0000000 -8.399999619 1.3300000429 1.3899999857 0.4699999988
 7028.0000000 7028.0000000 -8.609999657 1.3400000334 1.3999999762 0.8700000048
 7029.0000000 7029.0000000 -9.380000114 1.4500000477 1.4299999475 1.2699999809
 7030.0000000 7030.0000000 -10.92000008 2.1800000668 1.4500000477 1.5099999905
 7031.0000000 7031.0000000 -13.90999985 3.2599999905 1.4700000286 1.7999999523
 7032.0000000 7032.0000000 -17.89999962 4.3099999428 1.4500000477 2.2699999809
 7033.0000000 7033.0000000 -21.43000031 4.5399999619 1.5199999809 2.5799999237
 7034.0000000 7034.0000000 -23.44000053 3.7300000191 1.7899999619 2.5899999142
 7035.0000000 7035.0000000 -23.67000008 2.8199999332 1.7799999714 2.3399999142
 7036.0000000 7036.0000000 -20.95000076 2.2799999714 1.4700000286 2.1199998856
 7037.0000000 7037.0000000 -15.72999954 1.8400000334 1.1399999857 2.2500000000
 7038.0000000 7038.0000000 -9.770000458 1.3799999952 0.9900000095 2.7300000191
 7039.0000000 7039.0000000 -6.849999905 1.1799999475 0.9399999976 2.9500000477
 7040.0000000 7040.0000000 -7.139999866 1.1799999475 0.9599999785 2.6800000668
 7041.0000000 7041.0000000 -7.420000076 1.2699999809 1.0499999523 1.9700000286
 7042.0000000 7042.0000000 -7.309999943 1.3600000143 1.1200000048 1.4700000286
 7043.0000000 7043.0000000 -7.179999828 1.4099999666 1.1900000572 1.1499999762
 7044.0000000 7044.0000000 -7.099999905 1.3899999857 1.2500000000 0.9900000095
 7045.0000000 7045.0000000 -7.150000095 1.3500000238 1.2799999714 0.8999999762
 7046.0000000 7046.0000000 -7.380000114 1.3200000525 1.2799999714 0.8500000238
 7047.0000000 7047.0000000 -7.639999866 1.3200000525 1.2699999809 0.8299999833
 7048.0000000 7048.0000000 -7.789999962 1.3300000429 1.2599999905 0.8299999833
 7049.0000000 7049.0000000 -7.820000172 1.3400000334 1.2400000095 0.8600000143
 7050.0000000 7050.0000000 -7.780000210 1.3700000048 1.2200000286 0.9200000167
