# LAS format log file from PETREL
# Project units are specified as depth units
#==================================================================
~Version information
VERS.   2.0:
WRAP.   NO:
#==================================================================
~Well
STRT .m      3000.0000000 :
STOP .m      6457.0000000 :
STEP .m     1.00000000 :
NULL .        -999.250000 :
COMP.           : COMPANY
WELL.  WELL_1   : WELL
FLD.            : FIELD
LOC.            : LOCATION
SRVC.           : SERVICE COMPANY
DATE.  2023-03-20 17:52:46   : Log Export Date {yyyy-MM-dd HH:mm:ss}
PROV.           : PROVINCE
UWI.   WELL_1   : UNIQUE WELL ID
API.            : API NUMBER
#==================================================================
~Curve
DEPT .m                   : DEPTH
Depth .m                  : Depth
SP .mV                    : SP
SN .ohm.m                 : SN
LN .ohm.m                 : LN
~Parameter
#==================================================================
~Ascii
# ...
 4098.0000000 4098.0000000 7.8699998856 1.4600000381 1.6200000048
 4099.0000000 4099.0000000 7.5999999046 1.3600000143 1.5499999523
 4100.0000000 4100.0000000 7.3200001717 1.3799999952 1.5700000525
 4101.0000000 4101.0000000 7.2199997902 1.4700000286 1.5900000334
 4102.0000000 4102.0000000 7.3600001335 1.5499999523 1.6100000143
 4103.0000000 4103.0000000 7.6500000954 1.6399999857 1.6299999952
 4104.0000000 4104.0000000 8.1000003815 1.7100000381 1.6399999857
 4105.0000000 4105.0000000 8.5500001907 1.6900000572 1.6200000048
 4106.0000000 4106.0000000 8.9799995422 1.6799999475 1.6000000238
 4107.0000000 4107.0000000 9.3999996185 1.6699999571 1.5800000429
 4108.0000000 4108.0000000 9.8299999237 1.6399999857 1.5499999523
 4109.0000000 4109.0000000 10.159999847 1.6000000238 1.5800000429
 4110.0000000 4110.0000000 10.159999847 1.5700000525 1.6799999475
 4111.0000000 4111.0000000 10.159999847 1.6599999666 1.7999999523
 4112.0000000 4112.0000000 9.8500003815 1.7599999905 1.9099999666
 4113.0000000 4113.0000000 8.8999996185 1.9099999666 2.0000000000
 4114.0000000 4114.0000000 7.9600000381 2.0199999809 1.9900000095
 4115.0000000 4115.0000000 7.0000000000 1.8899999857 1.7999999523
 4116.0000000 4116.0000000 6.0199999809 1.7400000095 1.6100000143
 4117.0000000 4117.0000000 5.2699999809 1.5399999619 1.4700000286
 4118.0000000 4118.0000000 6.0599999428 1.3500000238 1.3600000143
 4119.0000000 4119.0000000 6.8400001526 1.2799999714 1.2599999905
 4120.0000000 4120.0000000 6.9499998093 1.2699999809 1.2799999714
 4121.0000000 4121.0000000 6.8499999046 1.2699999809 1.3099999428
 4122.0000000 4122.0000000 6.7199997902 1.2799999714 1.3300000429
 4123.0000000 4123.0000000 6.5799999237 1.2799999714 1.3500000238
 4124.0000000 4124.0000000 6.4499998093 1.2999999523 1.3799999952
 4125.0000000 4125.0000000 6.6500000954 1.3500000238 1.4099999666
 4126.0000000 4126.0000000 6.8400001526 1.3899999857 1.4500000477
 4127.0000000 4127.0000000 7.0799999237 1.4400000572 1.4800000191
 4128.0000000 4128.0000000 7.5399999619 1.5199999809 1.5199999809
 4129.0000000 4129.0000000 7.9699997902 1.6100000143 1.5700000525
 4130.0000000 4130.0000000 8.2500000000 1.5800000429 1.6100000143
 4131.0000000 4131.0000000 8.4300003052 1.5599999428 1.6499999762
 4132.0000000 4132.0000000 8.3999996185 1.5199999809 1.6799999475
 4133.0000000 4133.0000000 8.3599996567 1.4800000191 1.6599999666
 4134.0000000 4134.0000000 8.3199996948 1.4400000572 1.6299999952
 4135.0000000 4135.0000000 8.1800003052 1.4700000286 1.6100000143
 4136.0000000 4136.0000000 7.8800001144 1.5000000000 1.6299999952
 4137.0000000 4137.0000000 7.2699999809 1.6499999762 1.6599999666
 4138.0000000 4138.0000000 6.0999999046 1.8200000525 1.7000000477
 4139.0000000 4139.0000000 4.4499998093 2.2899999619 1.6799999475
 4140.0000000 4140.0000000 0.9399999976 2.8900001049 1.5900000334
 4141.0000000 4141.0000000 -2.539999962 3.2799999714 1.5099999905
 4142.0000000 4142.0000000 -4.610000134 3.4700000286 1.4600000381
 4143.0000000 4143.0000000 -6.869999886 3.6600000858 1.5399999619
 4144.0000000 4144.0000000 -8.590000153 3.8499999046 1.6599999666
 4145.0000000 4145.0000000 -10.44999981 4.1300001144 1.7300000191
 4146.0000000 4146.0000000 -12.31999969 4.4800000191 1.6900000572
 4147.0000000 4147.0000000 -13.18000031 4.8899998665 1.6100000143
 4148.0000000 4148.0000000 -12.39999962 4.8600001335 1.5299999714
 4149.0000000 4149.0000000 -11.09000015 4.5100002289 1.4800000191
 4150.0000000 4150.0000000 -9.489999771 3.9800000191 1.4700000286
 4151.0000000 4151.0000000 -7.389999866 3.4200000763 1.6100000143
 4152.0000000 4152.0000000 -5.980000019 3.6900000572 1.7500000000
 4153.0000000 4153.0000000 -6.789999962 4.0999999046 1.9700000286
 4154.0000000 4154.0000000 -7.280000210 4.4699997902 2.1800000668
 4155.0000000 4155.0000000 -7.769999981 4.5300002098 2.1600000858
 4156.0000000 4156.0000000 -8.260000229 4.4600000381 2.0399999619
 4157.0000000 4157.0000000 -8.489999771 4.3699998856 1.8799999952
 4158.0000000 4158.0000000 -8.010000229 4.1500000954 1.7200000286
 4159.0000000 4159.0000000 -5.980000019 3.7100000381 1.5800000429
 4160.0000000 4160.0000000 -2.779999971 2.9900000095 1.4400000572
 4161.0000000 4161.0000000 3.3199999332 2.0799999237 1.2999999523
 4162.0000000 4162.0000000 6.3800001144 1.7000000477 1.2999999523
 4163.0000000 4163.0000000 8.2100000381 1.6900000572 1.4199999571
 4164.0000000 4164.0000000 8.6700000763 1.7300000191 1.5399999619
 4165.0000000 4165.0000000 8.8699998856 1.8200000525 1.6599999666
 4166.0000000 4166.0000000 9.0799999237 1.9199999571 1.7899999619
 4167.0000000 4167.0000000 9.2100000381 2.0000000000 1.9199999571
 4168.0000000 4168.0000000 9.3299999237 1.9600000381 2.0499999523
 4169.0000000 4169.0000000 9.4600000381 1.8400000334 2.1800000668
 4170.0000000 4170.0000000 9.6300001144 1.7300000191 2.3099999428
 4171.0000000 4171.0000000 9.9700002670 1.6399999857 2.3499999046
 4172.0000000 4172.0000000 10.289999962 1.5900000334 2.2599999905
 4173.0000000 4173.0000000 10.329999924 1.5599999428 2.1400001049
 4174.0000000 4174.0000000 10.270000458 1.5700000525 2.0199999809
 4175.0000000 4175.0000000 9.6099996567 1.5700000525 1.8500000238
 4176.0000000 4176.0000000 8.9600000381 1.5000000000 1.6799999475
 4177.0000000 4177.0000000 8.8199996948 1.4099999666 1.5000000000
 4178.0000000 4178.0000000 9.1599998474 1.3099999428 1.3400000334
 4179.0000000 4179.0000000 9.5000000000 1.1200000048 1.1699999571
 4180.0000000 4180.0000000 9.9799995422 0.9599999785 1.1000000238
 4181.0000000 4181.0000000 10.470000267 0.8799999952 1.0299999714
 4182.0000000 4182.0000000 10.239999771 0.9399999976 0.9900000095
 4183.0000000 4183.0000000 9.5699996948 1.0099999905 1.0399999619
 4184.0000000 4184.0000000 8.7799997330 1.1200000048 1.2400000095
 4185.0000000 4185.0000000 7.2399997711 1.2799999714 1.4400000572
 4186.0000000 4186.0000000 3.9500000477 1.5800000429 1.6299999952
 4187.0000000 4187.0000000 -7.309999943 2.1700000763 1.7500000000
 4188.0000000 4188.0000000 -14.10000038 3.1199998856 1.6799999475
 4189.0000000 4189.0000000 -19.87000084 4.5999999046 1.6200000048
 4190.0000000 4190.0000000 -21.94000053 5.6399998665 1.5499999523
 4191.0000000 4191.0000000 -22.15999985 6.0100002289 1.4700000286
 4192.0000000 4192.0000000 -21.29000092 5.8800001144 1.3899999857
 4193.0000000 4193.0000000 -20.42000008 5.3899998665 1.2999999523
 4194.0000000 4194.0000000 -19.30999947 4.8899998665 1.2200000286
 4195.0000000 4195.0000000 -19.93000031 4.5399999619 1.1499999762
 4196.0000000 4196.0000000 -20.54999924 4.5700001717 1.0900000334
 4197.0000000 4197.0000000 -21.10000038 4.7500000000 1.0599999428
 4198.0000000 4198.0000000 -21.28000069 4.9299998283 1.0800000429
 4199.0000000 4199.0000000 -18.40999985 5.0799999237 1.1399999857
 4200.0000000 4200.0000000 -15.43000031 4.7199997902 1.2000000477
 4201.0000000 4201.0000000 -11.80000019 4.1599998474 1.2699999809
 4202.0000000 4202.0000000 -7.880000114 3.4300000668 1.3300000429
 4203.0000000 4203.0000000 -5.219999790 2.7100000381 1.3899999857
 4204.0000000 4204.0000000 -7.800000191 3.2799999714 1.4500000477
 4205.0000000 4205.0000000 -12.72000027 3.9000000954 1.5199999809
 4206.0000000 4206.0000000 -16.95000076 4.2199997902 1.5499999523
 4207.0000000 4207.0000000 -17.98999977 4.0399999619 1.5900000334
 4208.0000000 4208.0000000 -12.05000019 3.8900001049 1.6200000048
 4209.0000000 4209.0000000 -6.599999905 3.7899999619 1.6399999857
 4210.0000000 4210.0000000 -5.800000191 3.7000000477 1.5700000525
 4211.0000000 4211.0000000 -7.579999924 3.6099998951 1.3899999857
 4212.0000000 4212.0000000 -7.110000134 3.1900000572 1.1599999666
 4213.0000000 4213.0000000 -6.519999981 2.7400000095 1.1699999571
 4214.0000000 4214.0000000 -8.609999657 3.3699998856 1.3200000525
 4215.0000000 4215.0000000 -11.10000038 4.3899998665 1.4900000095
 4216.0000000 4216.0000000 -14.53999996 4.7899999619 1.6799999475
 4217.0000000 4217.0000000 -12.43999958 4.6999998093 1.5900000334
 4218.0000000 4218.0000000 -9.909999847 4.5500001907 1.4900000095
 4219.0000000 4219.0000000 -9.029999733 4.3899998665 1.6399999857
