# LAS format log file from PETREL
# Project units are specified as depth units
#==================================================================
~Version information
VERS.   2.0:
WRAP.   NO:
#==================================================================
~Well
STRT .m      4650.0000000 :
STOP .m      7050.0000000 :
STEP .m     1.00000000 :
NULL .        -999.250000 :
COMP.           : COMPANY
WELL.  WELL_3   : WELL
FLD.            : FIELD
LOC.            : LOCATION
SRVC.           : SERVICE COMPANY
DATE.  2023-03-20 17:52:46   : Log Export Date {yyyy-MM-dd HH:mm:ss}
PROV.           : PROVINCE
UWI.   WELL_3   : UNIQUE WELL ID
API.            : API NUMBER
#==================================================================
~Curve
DEPT .m                   : DEPTH
Depth .m                  : Depth
SP .mV                    : SP
SN .ohm.m                 : SN
LN .ohm.m                 : LN
LAT .ohm.m                : LAT
~Parameter
#==================================================================
~Ascii
 4650.0000000 4650.0000000 -7.780000210 1.1299999952 1.5700000525 1.9299999475
 4651.0000000 4651.0000000 -7.889999866 1.1299999952 1.5700000525 1.7799999714
 4652.0000000 4652.0000000 -7.750000000 1.1499999762 1.5599999428 1.6900000572
 4653.0000000 4653.0000000 -7.090000153 1.1799999475 1.5399999619 1.6499999762
 4654.0000000 4654.0000000 -5.980000019 1.2100000381 1.5599999428 1.6499999762
 4655.0000000 4655.0000000 -4.500000000 1.2400000095 1.6100000143 1.6299999952
 4656.0000000 4656.0000000 -4.110000134 1.2899999619 1.6599999666 1.5800000429
 4657.0000000 4657.0000000 -4.329999924 1.3799999952 1.6799999475 1.6399999857
 4658.0000000 4658.0000000 -4.420000076 1.4900000095 1.6399999857 1.7899999619
 4659.0000000 4659.0000000 -4.320000172 1.5599999428 1.5800000429 2.0399999619
 4660.0000000 4660.0000000 -3.720000029 1.5299999714 1.5000000000 2.2799999714
 4661.0000000 4661.0000000 -3.089999914 1.3700000048 1.5199999809 2.3399999142
 4662.0000000 4662.0000000 -3.019999981 1.2200000286 1.5499999523 2.1400001049
 4663.0000000 4663.0000000 -3.829999924 1.1599999666 1.5700000525 1.9600000381
 4664.0000000 4664.0000000 -4.409999847 1.1299999952 1.5299999714 1.9299999475
 4665.0000000 4665.0000000 -4.860000134 1.1299999952 1.4700000286 1.9800000191
 4666.0000000 4666.0000000 -4.840000153 1.1399999857 1.4199999571 2.0199999809
 4667.0000000 4667.0000000 -4.679999828 1.1599999666 1.4099999666 1.9900000095
 4668.0000000 4668.0000000 -4.420000076 1.1599999666 1.4099999666 1.8999999762
 4669.0000000 4669.0000000 -4.170000076 1.1499999762 1.4199999571 1.8099999428
 4670.0000000 4670.0000000 -4.139999866 1.1399999857 1.3799999952 1.7999999523
 4671.0000000 4671.0000000 -4.210000038 1.1399999857 1.3400000334 1.8600000143
 4672.0000000 4672.0000000 -4.210000038 1.1299999952 1.2999999523 1.9299999475
 4673.0000000 4673.0000000 -4.460000038 1.1000000238 1.2599999905 1.9099999666
 4674.0000000 4674.0000000 -5.139999866 1.0499999523 1.2300000191 1.8300000429
 4675.0000000 4675.0000000 -5.829999924 1.0099999905 1.2200000286 1.7200000286
 4676.0000000 4676.0000000 -6.750000000 0.9800000191 1.2200000286 1.6699999571
 4677.0000000 4677.0000000 -7.610000134 0.9599999785 1.2300000191 1.6000000238
 4678.0000000 4678.0000000 -8.380000114 0.9599999785 1.2400000095 1.4800000191
 4679.0000000 4679.0000000 -9.069999695 0.9499999881 1.2599999905 1.3899999857
 4680.0000000 4680.0000000 -9.710000038 0.9599999785 1.2799999714 1.3500000238
 4681.0000000 4681.0000000 -10.47999954 0.9599999785 1.2699999809 1.3400000334
 4682.0000000 4682.0000000 -11.32999992 0.9499999881 1.2599999905 1.3500000238
 4683.0000000 4683.0000000 -11.69999981 0.9900000095 1.2699999809 1.3600000143
 4684.0000000 4684.0000000 -11.50000000 1.0399999619 1.2799999714 1.3600000143
 4685.0000000 4685.0000000 -10.85999966 1.0900000334 1.3099999428 1.3600000143
 4686.0000000 4686.0000000 -9.729999542 1.0800000429 1.3400000334 1.3700000048
 4687.0000000 4687.0000000 -8.140000343 1.0700000525 1.3999999762 1.3899999857
 4688.0000000 4688.0000000 -6.070000172 1.0800000429 1.4700000286 1.3500000238
 4689.0000000 4689.0000000 -4.800000191 1.1599999666 1.5399999619 1.3300000429
 4690.0000000 4690.0000000 -4.619999886 1.2200000286 1.5900000334 1.3700000048
 4691.0000000 4691.0000000 -4.409999847 1.2799999714 1.6000000238 1.4600000381
 4692.0000000 4692.0000000 -4.920000076 1.3799999952 1.6200000048 1.5800000429
 4693.0000000 4693.0000000 -4.920000076 1.5000000000 1.6499999762 1.7100000381
 4694.0000000 4694.0000000 -4.800000191 1.6299999952 1.6900000572 1.8400000334
 4695.0000000 4695.0000000 -4.840000153 1.7300000191 1.7400000095 1.8799999952
 4696.0000000 4696.0000000 -5.230000019 1.7999999523 1.7500000000 1.9099999666
 4697.0000000 4697.0000000 -5.630000114 1.8400000334 1.7699999809 2.0499999523
 4698.0000000 4698.0000000 -5.940000057 1.8099999428 1.7599999905 2.1600000858
 4699.0000000 4699.0000000 -6.079999924 1.7400000095 1.7200000286 2.1500000954
 4700.0000000 4700.0000000 -6.179999828 1.6799999475 1.7200000286 2.1099998951
 4701.0000000 4701.0000000 -6.400000095 1.6299999952 1.6699999571 2.0699999332
 4702.0000000 4702.0000000 -6.670000076 1.5700000525 1.6000000238 2.0499999523
 4703.0000000 4703.0000000 -6.880000114 1.4800000191 1.5299999714 2.0099999905
 4704.0000000 4704.0000000 -7.139999866 1.3500000238 1.4800000191 2.0899999142
 4705.0000000 4705.0000000 -7.039999962 1.2200000286 1.4900000095 1.8400000334
 4706.0000000 4706.0000000 -6.429999828 1.1399999857 1.5099999905 1.5700000525
 4707.0000000 4707.0000000 -5.980000019 1.1200000048 1.5499999523 1.4199999571
 4708.0000000 4708.0000000 -6.320000172 1.1000000238 1.5299999714 1.3300000429
 4709.0000000 4709.0000000 -6.670000076 1.0900000334 1.4700000286 1.3400000334
 4710.0000000 4710.0000000 -7.309999943 1.1100000143 1.4099999666 1.4099999666
 4711.0000000 4711.0000000 -7.539999962 1.1499999762 1.4099999666 1.5000000000
 4712.0000000 4712.0000000 -7.420000076 1.2100000381 1.3999999762 1.5399999619
 4713.0000000 4713.0000000 -7.329999924 1.2500000000 1.3999999762 1.5599999428
 4714.0000000 4714.0000000 -7.170000076 1.2599999905 1.3999999762 1.5700000525
 4715.0000000 4715.0000000 -6.090000153 1.2500000000 1.4099999666 1.6200000048
 4716.0000000 4716.0000000 -4.590000153 1.2200000286 1.4299999475 1.7000000477
 4717.0000000 4717.0000000 -3.109999895 1.1799999475 1.4500000477 1.7000000477
 4718.0000000 4718.0000000 -2.839999914 1.1799999475 1.4900000095 1.6399999857
 4719.0000000 4719.0000000 -4.099999905 1.1699999571 1.5299999714 1.5700000525
 4720.0000000 4720.0000000 -5.889999866 1.2100000381 1.5700000525 1.5599999428
 4721.0000000 4721.0000000 -7.070000172 1.4099999666 1.4900000095 1.6299999952
 4722.0000000 4722.0000000 -8.130000114 1.6000000238 1.3799999952 1.8899999857
 4723.0000000 4723.0000000 -8.340000153 1.6900000572 1.2799999714 2.2000000477
 4724.0000000 4724.0000000 -7.730000019 1.5800000429 1.2000000477 2.3800001144
 4725.0000000 4725.0000000 -6.809999943 1.3300000429 1.2000000477 2.2599999905
 4726.0000000 4726.0000000 -5.780000210 1.1299999952 1.2599999905 1.9199999571
 4727.0000000 4727.0000000 -4.750000000 1.0199999809 1.3300000429 1.6200000048
 4728.0000000 4728.0000000 -4.670000076 0.9599999785 1.3600000143 1.4199999571
 4729.0000000 4729.0000000 -5.690000057 0.9700000286 1.3899999857 1.3200000525
 4730.0000000 4730.0000000 -6.590000153 1.0599999428 1.4099999666 1.2899999619
 4731.0000000 4731.0000000 -7.340000153 1.1399999857 1.4099999666 1.2999999523
 4732.0000000 4732.0000000 -7.519999981 1.1900000572 1.4299999475 1.3200000525
 4733.0000000 4733.0000000 -7.739999771 1.2100000381 1.4500000477 1.3600000143
 4734.0000000 4734.0000000 -7.409999847 1.2300000191 1.4800000191 1.4400000572
 4735.0000000 4735.0000000 -6.800000191 1.2400000095 1.5000000000 1.4700000286
 4736.0000000 4736.0000000 -6.260000229 1.2300000191 1.5900000334 1.4299999475
 4737.0000000 4737.0000000 -5.920000076 1.2300000191 1.7000000477 1.3700000048
 4738.0000000 4738.0000000 -5.670000076 1.2599999905 1.8300000429 1.2999999523
 4739.0000000 4739.0000000 -6.280000210 1.3099999428 1.9400000572 1.2300000191
 4740.0000000 4740.0000000 -7.320000172 1.4199999571 2.0099999905 1.2500000000
 4741.0000000 4741.0000000 -7.590000153 1.5399999619 2.0399999619 1.4299999475
 4742.0000000 4742.0000000 -7.239999771 1.7200000286 2.0599999428 1.6399999857
 4743.0000000 4743.0000000 -7.480000019 1.9199999571 2.2000000477 1.7899999619
 4744.0000000 4744.0000000 -8.630000114 2.1800000668 2.3599998951 1.8600000143
 4745.0000000 4745.0000000 -10.52999973 2.3800001144 2.4700000286 1.9099999666
 4746.0000000 4746.0000000 -12.60000038 2.5399999619 2.5599999428 1.9900000095
 4747.0000000 4747.0000000 -14.68000031 2.6400001049 2.6199998856 2.0999999046
 4748.0000000 4748.0000000 -17.70000076 2.7000000477 2.6600000858 2.2300000191
 4749.0000000 4749.0000000 -19.44000053 2.7500000000 2.6400001049 2.3299999237
 4750.0000000 4750.0000000 -19.69000053 2.7100000381 2.5799999237 2.3199999332
 4751.0000000 4751.0000000 -17.68000031 2.5399999619 2.5399999619 2.3399999142
