# LAS format log file from PETREL
# Project units are specified as depth units
#==================================================================
~Version information
VERS.   2.0:
WRAP.   NO:
#==================================================================
~Well
STRT .m      4561.0000000 :
STOP .m      7034.0000000 :
STEP .m     1.00000000 :
NULL .        -999.250000 :
COMP.           : COMPANY
WELL.  WELL_5   : WELL
FLD.            : FIELD
LOC.            : LOCATION
SRVC.           : SERVICE COMPANY
DATE.  2023-03-20 17:52:46   : Log Export Date {yyyy-MM-dd HH:mm:ss}
PROV.           : PROVINCE
UWI.   WELL_5   : UNIQUE WELL ID
API.            : API NUMBER
#==================================================================
~Curve
DEPT .m                   : DEPTH
Depth .m                  : Depth
SN .ohm.m                 : SN
ILD .ohm.m                : ILD
~Parameter
#==================================================================
~Ascii
# ...
 5618.0000000 5618.0000000 1.8799999952 1.5599999428
 5619.0000000 5619.0000000 1.9500000477 1.6699999571
 5620.0000000 5620.0000000 2.0299999714 1.7699999809
 5621.0000000 5621.0000000 2.1199998856 1.8300000429
 5622.0000000 5622.0000000 2.2200000286 1.7899999619
 5623.0000000 5623.0000000 2.2400000095 1.6799999475
 5624.0000000 5624.0000000 2.0799999237 1.5700000525
 5625.0000000 5625.0000000 1.9199999571 1.5499999523
 5626.0000000 5626.0000000 1.9299999475 1.5800000429
 5627.0000000 5627.0000000 2.1800000668 1.7500000000
 5628.0000000 5628.0000000 2.4500000477 1.9800000191
 5629.0000000 5629.0000000 2.5799999237 2.0799999237
 5630.0000000 5630.0000000 2.5299999714 1.9600000381
 5631.0000000 5631.0000000 2.2599999905 1.8200000525
 5632.0000000 5632.0000000 2.0599999428 1.6599999666
 5633.0000000 5633.0000000 1.9900000095 1.5700000525
 5634.0000000 5634.0000000 2.0499999523 1.6000000238
 5635.0000000 5635.0000000 2.2000000477 1.7000000477
 5636.0000000 5636.0000000 2.2899999619 1.7999999523
 5637.0000000 5637.0000000 2.3599998951 1.9400000572
 5638.0000000 5638.0000000 2.4600000381 2.0899999142
 5639.0000000 5639.0000000 2.6099998951 2.2100000381
 5640.0000000 5640.0000000 2.8199999332 2.3399999142
 5641.0000000 5641.0000000 2.9700000286 2.4400000572
 5642.0000000 5642.0000000 3.0499999523 2.3599998951
 5643.0000000 5643.0000000 3.1099998951 2.2100000381
 5644.0000000 5644.0000000 3.0999999046 2.1199998856
 5645.0000000 5645.0000000 2.9300000668 2.1400001049
 5646.0000000 5646.0000000 2.8199999332 2.1900000572
 5647.0000000 5647.0000000 2.9900000095 2.2200000286
 5648.0000000 5648.0000000 3.0699999332 2.1900000572
 5649.0000000 5649.0000000 2.7300000191 2.0999999046
 5650.0000000 5650.0000000 2.3800001144 1.9099999666
 5651.0000000 5651.0000000 2.2200000286 1.7400000095
 5652.0000000 5652.0000000 2.1300001144 1.7400000095
 5653.0000000 5653.0000000 2.2000000477 1.7699999809
 5654.0000000 5654.0000000 2.2699999809 1.7200000286
 5655.0000000 5655.0000000 2.2500000000 1.5399999619
 5656.0000000 5656.0000000 1.9800000191 1.3999999762
 5657.0000000 5657.0000000 1.7500000000 1.2999999523
 5658.0000000 5658.0000000 1.6399999857 1.2500000000
 5659.0000000 5659.0000000 1.6200000048 1.2899999619
 5660.0000000 5660.0000000 1.6399999857 1.3500000238
 5661.0000000 5661.0000000 1.7100000381 1.3700000048
 5662.0000000 5662.0000000 1.7699999809 1.3799999952
 5663.0000000 5663.0000000 1.7999999523 1.4299999475
 5664.0000000 5664.0000000 1.8700000048 1.5199999809
 5665.0000000 5665.0000000 2.0699999332 1.8200000525
 5666.0000000 5666.0000000 2.3699998856 2.0199999809
 5667.0000000 5667.0000000 2.5899999142 2.0799999237
 5668.0000000 5668.0000000 2.5799999237 2.0299999714
 5669.0000000 5669.0000000 2.3199999332 1.8999999762
 5670.0000000 5670.0000000 2.1900000572 1.7699999809
 5671.0000000 5671.0000000 2.2500000000 1.7599999905
 5672.0000000 5672.0000000 2.3499999046 1.7999999523
 5673.0000000 5673.0000000 2.4200000763 1.8500000238
 5674.0000000 5674.0000000 2.4700000286 1.8999999762
 5675.0000000 5675.0000000 2.6400001049 1.9800000191
 5676.0000000 5676.0000000 2.9500000477 2.0899999142
 5677.0000000 5677.0000000 3.2300000191 2.2300000191
 5678.0000000 5678.0000000 3.4200000763 2.3800001144
 5679.0000000 5679.0000000 3.7699999809 2.4900000095
 5680.0000000 5680.0000000 4.1900000572 2.5299999714
 5681.0000000 5681.0000000 4.3800001144 2.4900000095
 5682.0000000 5682.0000000 4.0199999809 2.5999999046
 5683.0000000 5683.0000000 3.9500000477 2.6800000668
 5684.0000000 5684.0000000 4.6700000763 2.7500000000
 5685.0000000 5685.0000000 5.4400000572 3.0199999809
 5686.0000000 5686.0000000 5.6799998283 3.1700000763
 5687.0000000 5687.0000000 5.4299998283 3.0899999142
 5688.0000000 5688.0000000 5.2699999809 2.8499999046
 5689.0000000 5689.0000000 5.3699998856 2.7599999905
 5690.0000000 5690.0000000 5.4400000572 2.7799999714
 5691.0000000 5691.0000000 5.4400000572 2.7899999619
 5692.0000000 5692.0000000 5.4400000572 2.7899999619
 5693.0000000 5693.0000000 5.4200000763 2.8099999428
 5694.0000000 5694.0000000 5.4099998474 2.8099999428
 5695.0000000 5695.0000000 5.4000000954 2.7899999619
 5696.0000000 5696.0000000 5.1999998093 2.7599999905
 5697.0000000 5697.0000000 4.9899997711 2.7300000191
 5698.0000000 5698.0000000 4.9299998283 2.7000000477
 5699.0000000 5699.0000000 4.9699997902 2.6900000572
 5700.0000000 5700.0000000 4.9600000381 2.6700000763
 5701.0000000 5701.0000000 4.7699999809 2.6900000572
 5702.0000000 5702.0000000 4.4899997711 2.7899999619
 5703.0000000 5703.0000000 4.7899999619 2.9300000668
 5704.0000000 5704.0000000 5.0500001907 3.1099998951
 5705.0000000 5705.0000000 5.1199998856 3.2400000095
 5706.0000000 5706.0000000 5.1100001335 3.2100000381
 5707.0000000 5707.0000000 5.0300002098 3.1199998856
 5708.0000000 5708.0000000 4.5700001717 3.0399999619
 5709.0000000 5709.0000000 4.1199998856 2.9200000763
 5710.0000000 5710.0000000 3.7500000000 2.2699999809
 5711.0000000 5711.0000000 3.2799999714 2.0000000000
 5712.0000000 5712.0000000 2.5499999523 1.8099999428
 5713.0000000 5713.0000000 2.2699999809 1.7000000477
 5714.0000000 5714.0000000 2.2200000286 1.7100000381
 5715.0000000 5715.0000000 2.3199999332 1.8400000334
 5716.0000000 5716.0000000 2.4600000381 1.9900000095
 5717.0000000 5717.0000000 2.5000000000 2.1099998951
 5718.0000000 5718.0000000 2.5000000000 2.1400001049
 5719.0000000 5719.0000000 2.5299999714 2.1400001049
 5720.0000000 5720.0000000 2.5799999237 2.1700000763
 5721.0000000 5721.0000000 2.6800000668 2.2799999714
 5722.0000000 5722.0000000 2.7300000191 2.3900001049
 5723.0000000 5723.0000000 2.8399999142 2.4600000381
 5724.0000000 5724.0000000 2.9500000477 2.4000000954
 5725.0000000 5725.0000000 2.9100000858 2.3499999046
 5726.0000000 5726.0000000 2.7100000381 2.3399999142
 5727.0000000 5727.0000000 2.6800000668 2.3099999428
 5728.0000000 5728.0000000 2.7400000095 2.2100000381
 5729.0000000 5729.0000000 2.7799999714 2.0599999428
 5730.0000000 5730.0000000 2.5099999905 1.8600000143
 5731.0000000 5731.0000000 2.2100000381 1.7400000095
 5732.0000000 5732.0000000 2.0999999046 1.6900000572
 5733.0000000 5733.0000000 2.2100000381 1.7300000191
 5734.0000000 5734.0000000 2.3900001049 1.9500000477
 5735.0000000 5735.0000000 2.5099999905 2.1900000572
 5736.0000000 5736.0000000 2.5599999428 1.9800000191
 5737.0000000 5737.0000000 2.4000000954 1.7999999523
 5738.0000000 5738.0000000 2.1600000858 1.7100000381
 5739.0000000 5739.0000000 1.9700000286 1.6100000143
 5740.0000000 5740.0000000 1.9299999475 1.5499999523
 5741.0000000 5741.0000000 1.8899999857 1.5299999714
 5742.0000000 5742.0000000 1.8200000525 1.4600000381
 5743.0000000 5743.0000000 1.7500000000 1.3899999857
 5744.0000000 5744.0000000 1.7000000477 1.3500000238
 5745.0000000 5745.0000000 1.6499999762 1.3600000143
 5746.0000000 5746.0000000 1.6399999857 1.3700000048
 5747.0000000 5747.0000000 1.6499999762 1.3700000048
 5748.0000000 5748.0000000 1.6399999857 1.3700000048
 5749.0000000 5749.0000000 1.6299999952 1.3799999952
 5750.0000000 5750.0000000 1.6499999762 1.3999999762
 5751.0000000 5751.0000000 1.6799999475 1.4500000477
 5752.0000000 5752.0000000 1.7400000095 1.5099999905
 5753.0000000 5753.0000000 1.7899999619 1.5900000334
 5754.0000000 5754.0000000 1.7999999523 1.6299999952
 5755.0000000 5755.0000000 1.7799999714 1.5800000429
 5756.0000000 5756.0000000 1.7400000095 1.4800000191
 5757.0000000 5757.0000000 1.6499999762 1.3500000238
 5758.0000000 5758.0000000 1.5700000525 1.2699999809
 5759.0000000 5759.0000000 1.5099999905 1.2400000095
 5760.0000000 5760.0000000 1.4900000095 1.2699999809
 5761.0000000 5761.0000000 1.5099999905 1.3300000429
 5762.0000000 5762.0000000 1.5900000334 1.3899999857
 5763.0000000 5763.0000000 1.7200000286 1.5099999905
 5764.0000000 5764.0000000 1.8799999952 1.5599999428
 5765.0000000 5765.0000000 1.8600000143 1.5199999809
 5766.0000000 5766.0000000 1.7699999809 1.4600000381
 5767.0000000 5767.0000000 1.7200000286 1.4199999571
 5768.0000000 5768.0000000 1.7100000381 1.3999999762
