# LAS format log file from PETREL
# Project units are specified as depth units
#==================================================================
~Version information
VERS.   2.0:
WRAP.   NO:
#==================================================================
~Well
STRT .m      4450.0000000 :
STOP .m      7050.0000000 :
STEP .m     1.00000000 :
NULL .        -999.250000 :
COMP.           : COMPANY
WELL.  WELL_4   : WELL
FLD.            : FIELD
LOC.            : LOCATION
SRVC.           : SERVICE COMPANY
DATE.  2023-03-20 17:52:46   : Log Export Date {yyyy-MM-dd HH:mm:ss}
PROV.           : PROVINCE
UWI.   WELL_4   : UNIQUE WELL ID
API.            : API NUMBER
#==================================================================
~Curve
DEPT .m                   : DEPTH
Depth .m                  : Depth
SP .mV                    : SP
SN .ohm.m                 : SN
LN .ohm.m                 : LN
LAT .ohm.m                : LAT
~Parameter
#==================================================================
~Ascii
# ...
 5266.0000000 5266.0000000 -8.640000343 1.7999999523 2.0599999428 1.4199999571
 5267.0000000 5267.0000000 -9.010000229 1.8500000238 2.0299999714 1.4800000191
 5268.0000000 5268.0000000 -9.300000191 1.8899999857 1.9900000095 1.6799999475
 5269.0000000 5269.0000000 -9.479999542 2.1600000858 1.9500000477 1.8300000429
 5270.0000000 5270.0000000 -9.550000191 2.3299999237 1.8999999762 1.9500000477
 5271.0000000 5271.0000000 -9.439999580 2.3900001049 1.8200000525 2.1300001144
 5272.0000000 5272.0000000 -9.010000229 2.3599998951 1.7000000477 2.2699999809
 5273.0000000 5273.0000000 -8.180000305 2.1700000763 1.7400000095 2.3800001144
 5274.0000000 5274.0000000 -7.159999847 1.7799999714 1.8099999428 2.3299999237
 5275.0000000 5275.0000000 -6.079999924 1.6299999952 1.8500000238 1.9800000191
 5276.0000000 5276.0000000 -6.019999981 1.5800000429 1.8300000429 1.6599999666
 5277.0000000 5277.0000000 -6.929999828 1.4900000095 1.7400000095 1.4800000191
 5278.0000000 5278.0000000 -7.610000134 1.4900000095 1.6499999762 1.5199999809
 5279.0000000 5279.0000000 -7.690000057 1.4600000381 1.6100000143 1.6200000048
 5280.0000000 5280.0000000 -7.369999886 1.4700000286 1.6100000143 1.6200000048
 5281.0000000 5281.0000000 -6.539999962 1.5399999619 1.6499999762 1.5099999905
 5282.0000000 5282.0000000 -6.309999943 1.5299999714 1.6900000572 1.4299999475
 5283.0000000 5283.0000000 -6.320000172 1.6000000238 1.6399999857 1.4700000286
 5284.0000000 5284.0000000 -6.670000076 1.7500000000 1.6299999952 1.5099999905
 5285.0000000 5285.0000000 -7.519999981 1.8200000525 1.6200000048 1.5000000000
 5286.0000000 5286.0000000 -8.310000420 1.8099999428 1.7100000381 1.4700000286
 5287.0000000 5287.0000000 -8.739999771 1.8200000525 1.7999999523 1.4400000572
 5288.0000000 5288.0000000 -8.890000343 1.8700000048 1.8600000143 1.4299999475
 5289.0000000 5289.0000000 -9.130000114 1.9400000572 1.8999999762 1.4299999475
 5290.0000000 5290.0000000 -9.460000038 2.0399999619 1.9500000477 1.4600000381
 5291.0000000 5291.0000000 -9.880000114 2.1400001049 1.9900000095 1.5199999809
 5292.0000000 5292.0000000 -10.23999977 2.1800000668 2.0499999523 1.5499999523
 5293.0000000 5293.0000000 -10.31000042 2.2000000477 2.1199998856 1.5700000525
 5294.0000000 5294.0000000 -10.19999981 2.2400000095 2.2000000477 1.6000000238
 5295.0000000 5295.0000000 -10.14000034 2.3199999332 2.2400000095 1.6200000048
 5296.0000000 5296.0000000 -10.06999969 2.4400000572 2.2599999905 1.6399999857
 5297.0000000 5297.0000000 -10.00000000 2.5000000000 2.2699999809 1.6699999571
 5298.0000000 5298.0000000 -10.00000000 2.4800000191 2.2599999905 1.7100000381
 5299.0000000 5299.0000000 -10.05000019 2.4000000954 2.2300000191 1.7699999809
 5300.0000000 5300.0000000 -10.18000031 2.2799999714 2.1500000954 1.8400000334
 5301.0000000 5301.0000000 -10.14999962 2.1700000763 2.1400001049 1.8200000525
 5302.0000000 5302.0000000 -10.09000015 2.1099998951 2.1199998856 1.7799999714
 5303.0000000 5303.0000000 -9.920000076 2.0499999523 2.0999999046 1.7400000095
 5304.0000000 5304.0000000 -9.609999657 2.0099999905 2.0799999237 1.7100000381
 5305.0000000 5305.0000000 -9.270000458 1.9600000381 2.0599999428 1.6799999475
 5306.0000000 5306.0000000 -9.060000420 1.8700000048 2.0599999428 1.6399999857
 5307.0000000 5307.0000000 -9.039999962 1.9400000572 2.0599999428 1.5900000334
 5308.0000000 5308.0000000 -9.340000153 1.9400000572 2.0799999237 1.5399999619
 5309.0000000 5309.0000000 -9.579999924 2.0299999714 2.1300001144 1.5599999428
 5310.0000000 5310.0000000 -9.720000267 2.1600000858 2.1900000572 1.6100000143
 5311.0000000 5311.0000000 -9.939999580 2.2799999714 2.2599999905 1.6399999857
 5312.0000000 5312.0000000 -10.27999973 2.4400000572 2.3699998856 1.7000000477
 5313.0000000 5313.0000000 -10.60000038 2.5999999046 2.4800000191 1.8099999428
 5314.0000000 5314.0000000 -10.85000038 2.7500000000 2.5499999523 1.9500000477
 5315.0000000 5315.0000000 -11.11999989 2.8699998856 2.5899999142 2.0899999142
 5316.0000000 5316.0000000 -11.31000042 2.9200000763 2.6400001049 2.1800000668
 5317.0000000 5317.0000000 -11.15999985 2.8800001144 2.6500000954 2.2300000191
 5318.0000000 5318.0000000 -10.93000031 2.7899999619 2.6300001144 2.2500000000
 5319.0000000 5319.0000000 -10.71000004 2.6800000668 2.5699999332 2.2699999809
 5320.0000000 5320.0000000 -10.36999989 2.5399999619 2.5299999714 2.2699999809
 5321.0000000 5321.0000000 -10.11999989 2.4100000858 2.5399999619 2.2200000286
 5322.0000000 5322.0000000 -9.899999619 2.2999999523 2.5599999428 2.1300001144
 5323.0000000 5323.0000000 -9.729999542 2.2200000286 2.5799999237 1.9600000381
 5324.0000000 5324.0000000 -9.609999657 2.1900000572 2.5899999142 1.8300000429
 5325.0000000 5325.0000000 -9.640000343 2.2599999905 2.5999999046 1.7899999619
 5326.0000000 5326.0000000 -9.850000381 2.3499999046 2.6300001144 1.7699999809
 5327.0000000 5327.0000000 -10.17000008 2.4600000381 2.6800000668 1.8400000334
 5328.0000000 5328.0000000 -10.46000004 2.6199998856 2.7100000381 1.9299999475
 5329.0000000 5329.0000000 -10.64999962 2.6800000668 2.7500000000 2.0299999714
 5330.0000000 5330.0000000 -10.76000023 2.6800000668 2.7799999714 2.1199998856
 5331.0000000 5331.0000000 -10.77000046 2.6500000954 2.8099999428 2.2000000477
 5332.0000000 5332.0000000 -10.71000004 2.5899999142 2.8499999046 2.2699999809
 5333.0000000 5333.0000000 -10.60999966 2.5299999714 2.8699998856 2.2500000000
 5334.0000000 5334.0000000 -10.53999996 2.5000000000 2.8800001144 2.2100000381
 5335.0000000 5335.0000000 -10.46000004 2.4700000286 2.8699998856 2.2000000477
 5336.0000000 5336.0000000 -10.36999989 2.4900000095 2.8800001144 2.2799999714
 5337.0000000 5337.0000000 -10.34000015 2.5999999046 2.8900001049 2.3399999142
 5338.0000000 5338.0000000 -10.35000038 2.7200000286 2.9100000858 2.3399999142
 5339.0000000 5339.0000000 -10.40999985 2.8099999428 2.9400000572 2.3499999046
 5340.0000000 5340.0000000 -10.59000015 2.8499999046 2.9700000286 2.4000000954
 5341.0000000 5341.0000000 -10.69999981 2.7899999619 3.0000000000 2.4400000572
 5342.0000000 5342.0000000 -10.65999985 2.6600000858 3.0199999809 2.4200000763
 5343.0000000 5343.0000000 -10.57999992 2.5599999428 3.0899999142 2.3099999428
 5344.0000000 5344.0000000 -10.64000034 2.5199999809 3.1700000763 2.1300001144
 5345.0000000 5345.0000000 -10.90999985 2.5399999619 3.2799999714 1.9900000095
 5346.0000000 5346.0000000 -12.28999996 2.6400001049 3.3699998856 1.9299999475
 5347.0000000 5347.0000000 -14.00000000 3.0499999523 3.3900001049 1.9700000286
 5348.0000000 5348.0000000 -15.67000008 3.4400000572 3.4900000095 2.0299999714
 5349.0000000 5349.0000000 -17.57999992 3.7300000191 3.7000000477 2.0799999237
 5350.0000000 5350.0000000 -19.31999969 4.0399999619 3.8499999046 2.2599999905
 5351.0000000 5351.0000000 -21.13999939 4.5500001907 4.0300002098 2.5000000000
 5352.0000000 5352.0000000 -23.07999992 5.0500001907 4.3499999046 2.7500000000
 5353.0000000 5353.0000000 -24.42000008 5.5000000000 4.7899999619 2.8900001049
 5354.0000000 5354.0000000 -25.50000000 5.9200000763 5.3099999428 2.9500000477
 5355.0000000 5355.0000000 -27.50000000 6.3400001526 5.8800001144 3.0699999332
 5356.0000000 5356.0000000 -28.95999908 6.8800001144 6.2199997902 3.3299999237
 5357.0000000 5357.0000000 -29.54999924 7.1599998474 6.4899997711 3.6099998951
 5358.0000000 5358.0000000 -29.90999985 7.3099999428 6.6599998474 3.8699998856
 5359.0000000 5359.0000000 -29.97999954 7.4200000763 6.6999998093 4.1999998093
 5360.0000000 5360.0000000 -30.13999939 7.4299998283 6.7199997902 4.5000000000
 5361.0000000 5361.0000000 -30.38999939 7.3699998856 6.6500000954 4.8000001907
 5362.0000000 5362.0000000 -30.82999992 7.3200001717 6.4400000572 4.9299998283
 5363.0000000 5363.0000000 -31.44000053 7.3000001907 6.2800002098 4.9699997902
 5364.0000000 5364.0000000 -31.82999992 7.2199997902 6.2300000191 4.9800000191
 5365.0000000 5365.0000000 -31.97999954 7.0199999809 6.2199997902 4.8699998856
 5366.0000000 5366.0000000 -31.73999977 6.7800002098 6.1700000763 4.5500001907
 5367.0000000 5367.0000000 -31.02000046 6.5700001717 6.0100002289 4.0500001907
