# LAS format log file from PETREL
# Project units are specified as depth units
#==================================================================
~Version information
VERS.   2.0:
WRAP.   NO:
#==================================================================
~Well
STRT .m      4650.0000000 :
STOP .m      7300.0000000 :
STEP .m     1.00000000 :
NULL .        -999.250000 :
COMP.           : COMPANY
WELL.  WELL_6   : WELL
FLD.            : FIELD
LOC.            : LOCATION
SRVC.           : SERVICE COMPANY
DATE.  2023-03-20 17:52:46   : Log Export Date {yyyy-MM-dd HH:mm:ss}
PROV.           : PROVINCE
UWI.   WELL_6   : UNIQUE WELL ID
API.            : API NUMBER
#==================================================================
~Curve
DEPT .m                   : DEPTH
Depth .m                  : Depth
GR .gAPI                  : GR
SP .mV                    : SP
RT .ohm.m                 : RT
~Parameter
#==================================================================
~Ascii
# ...
 6236.0000000 6236.0000000 118.87999725 -4.760000229 1.8899999857
 6237.0000000 6237.0000000 132.05999756 -4.190000057 1.4800000191
 6238.0000000 6238.0000000 118.08000183 -4.550000191 1.3200000525
 6239.0000000 6239.0000000 115.93000031 -5.139999866 1.3200000525
 6240.0000000 6240.0000000 116.94999695 -5.039999962 1.4500000477
 6241.0000000 6241.0000000 117.06999969 -5.070000172 1.6000000238
 6242.0000000 6242.0000000 112.91000366 -5.070000172 1.8600000143
 6243.0000000 6243.0000000 112.16999817 -4.280000210 2.0399999619
 6244.0000000 6244.0000000 113.11000061 -3.380000114 1.8899999857
 6245.0000000 6245.0000000 105.79000092 -4.670000076 1.9800000191
 6246.0000000 6246.0000000 110.19000244 -5.860000134 2.1300001144
 6247.0000000 6247.0000000 108.01000214 -6.619999886 2.2400000095
 6248.0000000 6248.0000000 110.26000214 -7.079999924 2.2699999809
 6249.0000000 6249.0000000 112.51000214 -7.349999905 2.2599999905
 6250.0000000 6250.0000000 113.30000305 -8.289999962 2.2899999619
 6251.0000000 6251.0000000 117.50000000 -8.460000038 2.4200000763
 6252.0000000 6252.0000000 123.86000061 -7.900000095 2.6300001144
 6253.0000000 6253.0000000 126.63999939 -7.019999981 2.8599998951
 6254.0000000 6254.0000000 118.12999725 -5.900000095 2.7300000191
 6255.0000000 6255.0000000 130.16000366 -4.940000057 2.0599999428
 6256.0000000 6256.0000000 154.30999756 -4.150000095 1.2999999523
 6257.0000000 6257.0000000 130.69999695 -3.430000067 1.1200000048
 6258.0000000 6258.0000000 108.91000366 -3.549999952 0.9900000095
 6259.0000000 6259.0000000 106.43000031 -4.659999847 0.9700000286
 6260.0000000 6260.0000000 109.05999756 -5.300000191 1.0299999714
 6261.0000000 6261.0000000 113.41999817 -4.829999924 1.1100000143
 6262.0000000 6262.0000000 112.19000244 -4.230000019 1.1799999475
 6263.0000000 6263.0000000 112.62000275 -4.840000153 1.2200000286
 6264.0000000 6264.0000000 117.61000061 -4.610000134 1.3799999952
 6265.0000000 6265.0000000 123.58999634 -3.250000000 1.2599999905
 6266.0000000 6266.0000000 113.05000305 -1.789999962 1.2599999905
 6267.0000000 6267.0000000 97.279998779 -2.019999981 1.2100000381
 6268.0000000 6268.0000000 99.279998779 -3.380000114 1.1799999475
 6269.0000000 6269.0000000 103.83000183 -3.859999895 1.0099999905
 6270.0000000 6270.0000000 97.360000610 -3.410000086 0.9599999785
 6271.0000000 6271.0000000 94.349998474 -4.380000114 0.9499999881
 6272.0000000 6272.0000000 95.569999695 -4.230000019 0.9599999785
 6273.0000000 6273.0000000 91.849998474 -5.030000210 0.9900000095
 6274.0000000 6274.0000000 99.800003052 -5.449999809 1.0399999619
 6275.0000000 6275.0000000 105.69000244 -4.739999771 1.1799999475
 6276.0000000 6276.0000000 102.87000275 -3.890000105 1.3700000048
 6277.0000000 6277.0000000 89.720001221 -4.570000172 1.9199999571
 6278.0000000 6278.0000000 72.110000610 -6.599999905 2.6900000572
 6279.0000000 6279.0000000 71.360000610 -7.760000229 3.6800000668
 6280.0000000 6280.0000000 82.419998169 -8.109999657 3.8099999428
 6281.0000000 6281.0000000 86.470001221 -8.199999809 3.8599998951
 6282.0000000 6282.0000000 86.360000610 -9.300000191 3.9900000095
 6283.0000000 6283.0000000 85.569999695 -10.56000042 4.3299999237
 6284.0000000 6284.0000000 78.010002136 -11.51000023 4.7600002289
 6285.0000000 6285.0000000 69.169998169 -10.53999996 5.5700001717
 6286.0000000 6286.0000000 76.569999695 -9.319999695 4.7800002098
 6287.0000000 6287.0000000 86.680000305 -8.310000420 4.3600001335
 6288.0000000 6288.0000000 92.309997559 -7.599999905 4.0199999809
 6289.0000000 6289.0000000 88.489997864 -7.690000057 3.5499999523
 6290.0000000 6290.0000000 95.540000916 -8.069999695 2.9500000477
 6291.0000000 6291.0000000 100.06999969 -7.010000229 2.5299999714
 6292.0000000 6292.0000000 97.160003662 -7.469999790 2.2500000000
 6293.0000000 6293.0000000 94.830001831 -9.159999847 2.1300001144
 6294.0000000 6294.0000000 92.050003052 -9.729999542 2.2200000286
 6295.0000000 6295.0000000 91.660003662 -10.94999981 2.5199999809
 6296.0000000 6296.0000000 82.300003052 -14.60000038 3.1099998951
 6297.0000000 6297.0000000 72.980003357 -19.59000015 4.4099998474
 6298.0000000 6298.0000000 64.519996643 -24.73999977 5.7100000381
 6299.0000000 6299.0000000 60.659999847 -28.55999947 6.1300001144
 6300.0000000 6300.0000000 60.799999237 -30.93000031 6.0399999619
 6301.0000000 6301.0000000 63.729999542 -32.65000153 5.6100001335
 6302.0000000 6302.0000000 58.619998932 -33.31999969 5.1599998474
 6303.0000000 6303.0000000 58.110000610 -35.09999847 5.0399999619
 6304.0000000 6304.0000000 60.310001373 -37.11999893 5.1100001335
 6305.0000000 6305.0000000 57.919998169 -38.56000137 5.3000001907
 6306.0000000 6306.0000000 54.580001831 -38.54000092 5.3400001526
 6307.0000000 6307.0000000 52.380001068 -38.40000153 5.1999998093
 6308.0000000 6308.0000000 52.169998169 -38.90000153 4.7699999809
 6309.0000000 6309.0000000 54.369998932 -39.45999908 4.2699999809
 6310.0000000 6310.0000000 49.130001068 -39.66999817 3.8299999237
 6311.0000000 6311.0000000 51.759998322 -39.84999847 3.4700000286
 6312.0000000 6312.0000000 55.569999695 -39.93999863 3.4700000286
 6313.0000000 6313.0000000 52.180000305 -40.24000168 3.7799999714
 6314.0000000 6314.0000000 46.759998322 -40.77000046 4.0399999619
 6315.0000000 6315.0000000 47.220001221 -41.06999969 4.0999999046
 6316.0000000 6316.0000000 56.119998932 -39.25000000 4.0700001717
 6317.0000000 6317.0000000 56.369998932 -34.74000168 4.0000000000
 6318.0000000 6318.0000000 55.580001831 -31.44000053 4.0000000000
 6319.0000000 6319.0000000 55.819999695 -29.40999985 4.0799999237
 6320.0000000 6320.0000000 56.689998627 -26.04000092 4.4400000572
 6321.0000000 6321.0000000 66.400001526 -20.69000053 4.1700000763
 6322.0000000 6322.0000000 74.069999695 -17.02000046 3.9100000858
 6323.0000000 6323.0000000 76.050003052 -10.81999969 3.0199999809
 6324.0000000 6324.0000000 84.389999390 -6.090000153 2.5199999809
 6325.0000000 6325.0000000 85.269996643 -3.640000105 1.8400000334
 6326.0000000 6326.0000000 76.330001831 -4.170000076 2.1199998856
 6327.0000000 6327.0000000 77.989997864 -5.440000057 3.4600000381
 6328.0000000 6328.0000000 88.209999084 -4.829999924 3.7300000191
 6329.0000000 6329.0000000 90.449996948 -4.650000095 2.8099999428
 6330.0000000 6330.0000000 83.760002136 -4.530000210 2.8800001144
 6331.0000000 6331.0000000 81.010002136 -3.329999924 2.7999999523
 6332.0000000 6332.0000000 78.220001221 -2.240000010 2.7899999619
 6333.0000000 6333.0000000 73.930000305 -1.759999990 3.0899999142
 6334.0000000 6334.0000000 75.389999390 -1.759999990 3.3299999237
 6335.0000000 6335.0000000 73.919998169 -2.420000076 3.0099999905
 6336.0000000 6336.0000000 78.250000000 -3.470000029 2.9800000191
 6337.0000000 6337.0000000 82.250000000 -4.130000114 3.0000000000
 6338.0000000 6338.0000000 96.260002136 -4.110000134 2.9700000286
 6339.0000000 6339.0000000 115.88999939 -3.569999933 3.0299999714
 6340.0000000 6340.0000000 116.62000275 -3.569999933 1.8500000238
 6341.0000000 6341.0000000 105.22000122 -3.019999981 1.5900000334
 6342.0000000 6342.0000000 97.059997559 -1.169999957 1.5399999619
 6343.0000000 6343.0000000 89.220001221 -0.200000003 1.6200000048
 6344.0000000 6344.0000000 87.190002441 0.2399999946 2.5899999142
 6345.0000000 6345.0000000 86.750000000 -0.709999979 2.7300000191
 6346.0000000 6346.0000000 78.569999695 -1.519999981 2.1300001144
 6347.0000000 6347.0000000 74.290000916 -2.180000067 1.9800000191
 6348.0000000 6348.0000000 78.529998779 -1.860000014 2.0399999619
 6349.0000000 6349.0000000 86.169998169 -2.569999933 1.6299999952
 6350.0000000 6350.0000000 93.199996948 -3.319999933 1.4600000381
 6351.0000000 6351.0000000 91.360000610 -4.190000057 1.3500000238
 6352.0000000 6352.0000000 87.760002136 -4.130000114 1.2400000095
 6353.0000000 6353.0000000 96.449996948 -2.730000019 1.4900000095
 6354.0000000 6354.0000000 101.02999878 -1.529999971 1.2100000381
 6355.0000000 6355.0000000 96.080001831 -1.620000005 1.2300000191
 6356.0000000 6356.0000000 88.690002441 -2.519999981 1.3799999952
 6357.0000000 6357.0000000 83.139999390 -3.359999895 2.3199999332
