# LAS format log file from PETREL
# Project units are specified as depth units
#==================================================================
~Version information
VERS.   2.0:
WRAP.   NO:
#==================================================================
~Well
STRT .m      3000.0000000 :
STOP .m      7750.0000000 :
STEP .m     1.00000000 :
NULL .        -999.250000 :
COMP.           : COMPANY
WELL.  WELL_2   : WELL
FLD.            : FIELD
LOC.            : LOCATION
SRVC.           : SERVICE COMPANY
DATE.  2023-03-20 17:52:46   : Log Export Date {yyyy-MM-dd HH:mm:ss}
PROV.           : PROVINCE
UWI.   WELL_2   : UNIQUE WELL ID
API.            : API NUMBER
#==================================================================
~Curve
DEPT .m                   : DEPTH
Depth .m                  : Depth
SP .mV                    : SP
SN .ohm.m                 : SN
LN .ohm.m                 : LN
LAT .ohm.m                : LAT
~Parameter
#==================================================================
~Ascii
# ...
 6468.0000000 6468.0000000 -1.730000019 1.8400000334 1.9099999666 1.9099999666
 6469.0000000 6469.0000000 -1.700000048 1.8600000143 1.9099999666 1.9099999666
 6470.0000000 6470.0000000 -1.549999952 1.9500000477 1.9199999571 1.9199999571
 6471.0000000 6471.0000000 -1.669999957 2.0899999142 1.9299999475 1.9299999475
 6472.0000000 6472.0000000 -2.000000000 2.3099999428 1.8999999762 1.8999999762
 6473.0000000 6473.0000000 -2.359999895 2.6099998951 1.8899999857 1.8899999857
 6474.0000000 6474.0000000 -2.809999943 2.7100000381 1.8799999952 1.8799999952
 6475.0000000 6475.0000000 -3.119999886 2.6600000858 1.8600000143 1.8600000143
 6476.0000000 6476.0000000 -3.000000000 2.4600000381 1.8400000334 1.8400000334
 6477.0000000 6477.0000000 -2.690000057 2.2599999905 1.8300000429 1.8300000429
 6478.0000000 6478.0000000 -2.240000010 2.0599999428 1.7999999523 1.7999999523
 6479.0000000 6479.0000000 -1.639999986 1.8300000429 1.7699999809 1.7699999809
 6480.0000000 6480.0000000 -1.080000043 1.7300000191 1.7300000191 1.7300000191
 6481.0000000 6481.0000000 -1.059999943 1.8300000429 1.6799999475 1.6799999475
 6482.0000000 6482.0000000 -1.279999971 1.9400000572 1.6299999952 1.6299999952
 6483.0000000 6483.0000000 -1.519999981 2.0000000000 1.5900000334 1.5900000334
 6484.0000000 6484.0000000 -1.610000014 1.9199999571 1.5700000525 1.5700000525
 6485.0000000 6485.0000000 -1.419999957 1.8099999428 1.5700000525 1.5700000525
 6486.0000000 6486.0000000 -1.299999952 1.7100000381 1.5800000429 1.5800000429
 6487.0000000 6487.0000000 -1.210000038 1.6200000048 1.6100000143 1.6100000143
 6488.0000000 6488.0000000 -0.819999993 1.5399999619 1.6599999666 1.6599999666
 6489.0000000 6489.0000000 -0.209999993 1.4700000286 1.6900000572 1.6900000572
 6490.0000000 6490.0000000 0.4000000060 1.4299999475 1.7200000286 1.7200000286
 6491.0000000 6491.0000000 0.9800000191 1.5099999905 1.7500000000 1.7500000000
 6492.0000000 6492.0000000 0.1599999964 1.7100000381 1.8300000429 1.8300000429
 6493.0000000 6493.0000000 -0.779999971 1.9700000286 1.9500000477 1.9500000477
 6494.0000000 6494.0000000 -1.970000029 2.4400000572 2.0699999332 2.0699999332
 6495.0000000 6495.0000000 -4.869999886 2.8299999237 2.2500000000 2.2500000000
 6496.0000000 6496.0000000 -6.690000057 3.1800000668 2.4400000572 2.4400000572
 6497.0000000 6497.0000000 -9.680000305 3.9300000668 2.5999999046 2.5999999046
 6498.0000000 6498.0000000 -11.39999962 4.4400000572 2.7699999809 2.7699999809
 6499.0000000 6499.0000000 -12.76000023 4.9000000954 2.9300000668 2.9300000668
 6500.0000000 6500.0000000 -14.13000011 5.3000001907 3.0399999619 3.0399999619
 6501.0000000 6501.0000000 -14.31999969 5.3299999237 2.8299999237 2.8299999237
 6502.0000000 6502.0000000 -13.67000008 4.9499998093 2.5299999714 2.5299999714
 6503.0000000 6503.0000000 -11.84000015 4.5199999809 2.2400000095 2.2400000095
 6504.0000000 6504.0000000 -10.02999973 3.7000000477 2.0000000000 2.0000000000
 6505.0000000 6505.0000000 -7.639999866 2.6600000858 1.7400000095 1.7400000095
 6506.0000000 6506.0000000 -4.599999905 1.8099999428 1.6100000143 1.6100000143
 6507.0000000 6507.0000000 -2.089999914 1.5299999714 1.5299999714 1.5299999714
 6508.0000000 6508.0000000 -1.450000048 1.3600000143 1.4500000477 1.4500000477
 6509.0000000 6509.0000000 -1.009999990 1.2899999619 1.3799999952 1.3799999952
 6510.0000000 6510.0000000 -1.129999995 1.2400000095 1.2999999523 1.2999999523
 6511.0000000 6511.0000000 -1.509999990 1.2100000381 1.2500000000 1.2500000000
 6512.0000000 6512.0000000 -1.769999981 1.1699999571 1.2100000381 1.2100000381
 6513.0000000 6513.0000000 -1.679999948 1.1399999857 1.1799999475 1.1799999475
 6514.0000000 6514.0000000 -1.309999943 1.1000000238 1.1499999762 1.1499999762
 6515.0000000 6515.0000000 -1.120000005 1.0700000525 1.1100000143 1.1100000143
 6516.0000000 6516.0000000 -0.990000010 1.0399999619 1.0800000429 1.0800000429
 6517.0000000 6517.0000000 -0.889999986 1.0099999905 1.0599999428 1.0599999428
 6518.0000000 6518.0000000 -1.190000057 1.0099999905 1.0299999714 1.0299999714
 6519.0000000 6519.0000000 -1.830000043 1.0099999905 1.0299999714 1.0299999714
 6520.0000000 6520.0000000 -2.309999943 1.0700000525 1.0299999714 1.0299999714
 6521.0000000 6521.0000000 -2.650000095 1.1900000572 1.0399999619 1.0399999619
 6522.0000000 6522.0000000 -2.940000057 1.2799999714 1.0199999809 1.0199999809
 6523.0000000 6523.0000000 -3.230000019 1.3300000429 1.0299999714 1.0299999714
 6524.0000000 6524.0000000 -3.349999905 1.3300000429 1.0599999428 1.0599999428
 6525.0000000 6525.0000000 -3.099999905 1.3300000429 1.0900000334 1.0900000334
 6526.0000000 6526.0000000 -3.019999981 1.3300000429 1.1399999857 1.1399999857
 6527.0000000 6527.0000000 -3.069999933 1.3300000429 1.2300000191 1.2300000191
 6528.0000000 6528.0000000 -3.240000010 1.3600000143 1.2500000000 1.2500000000
 6529.0000000 6529.0000000 -3.269999981 1.5099999905 1.2500000000 1.2500000000
 6530.0000000 6530.0000000 -3.319999933 1.8600000143 1.2200000286 1.2200000286
 6531.0000000 6531.0000000 -3.609999895 2.1300001144 1.1699999571 1.1699999571
 6532.0000000 6532.0000000 -4.059999943 2.7999999523 1.1100000143 1.1100000143
 6533.0000000 6533.0000000 -4.590000153 3.3699998856 1.0399999619 1.0399999619
 6534.0000000 6534.0000000 -5.150000095 3.2000000477 0.9900000095 0.9900000095
 6535.0000000 6535.0000000 -4.219999790 2.4300000668 1.1699999571 1.1699999571
 6536.0000000 6536.0000000 -2.839999914 1.6100000143 1.3099999428 1.3099999428
 6537.0000000 6537.0000000 -2.019999981 1.4199999571 1.4099999666 1.4099999666
 6538.0000000 6538.0000000 -1.409999967 1.3899999857 1.4800000191 1.4800000191
 6539.0000000 6539.0000000 -1.789999962 1.4299999475 1.4800000191 1.4800000191
 6540.0000000 6540.0000000 -2.809999943 1.8799999952 1.4299999475 1.4299999475
 6541.0000000 6541.0000000 -3.369999886 2.0699999332 1.3400000334 1.3400000334
 6542.0000000 6542.0000000 -3.859999895 1.9700000286 1.2699999809 1.2699999809
 6543.0000000 6543.0000000 -2.740000010 1.6399999857 1.2300000191 1.2300000191
 6544.0000000 6544.0000000 -1.480000019 1.4099999666 1.2400000095 1.2400000095
 6545.0000000 6545.0000000 -0.360000014 1.3700000048 1.2400000095 1.2400000095
 6546.0000000 6546.0000000 0.1700000018 1.3700000048 1.2100000381 1.2100000381
 6547.0000000 6547.0000000 -0.020000000 1.3300000429 1.1799999475 1.1799999475
 6548.0000000 6548.0000000 -0.300000012 1.2999999523 1.1900000572 1.1900000572
 6549.0000000 6549.0000000 -0.579999983 1.3799999952 1.2400000095 1.2400000095
 6550.0000000 6550.0000000 -0.879999995 1.4800000191 1.2799999714 1.2799999714
 6551.0000000 6551.0000000 -1.190000057 1.5800000429 1.3300000429 1.3300000429
 6552.0000000 6552.0000000 -1.500000000 1.6900000572 1.3600000143 1.3600000143
 6553.0000000 6553.0000000 -1.769999981 1.8099999428 1.3999999762 1.3999999762
 6554.0000000 6554.0000000 -2.039999962 1.8999999762 1.4500000477 1.4500000477
 6555.0000000 6555.0000000 -2.339999914 2.0099999905 1.5000000000 1.5000000000
 6556.0000000 6556.0000000 -2.650000095 2.0999999046 1.5599999428 1.5599999428
 6557.0000000 6557.0000000 -3.029999971 2.2100000381 1.6000000238 1.6000000238
 6558.0000000 6558.0000000 -3.589999914 2.3499999046 1.6499999762 1.6499999762
 6559.0000000 6559.0000000 -4.230000019 2.4300000668 1.7200000286 1.7200000286
 6560.0000000 6560.0000000 -4.780000210 2.5000000000 1.7999999523 1.7999999523
 6561.0000000 6561.0000000 -4.940000057 2.5000000000 1.8700000048 1.8700000048
 6562.0000000 6562.0000000 -4.840000153 2.4700000286 1.9099999666 1.9099999666
 6563.0000000 6563.0000000 -4.610000134 2.4200000763 1.9400000572 1.9400000572
 6564.0000000 6564.0000000 -4.329999924 2.3599998951 1.9700000286 1.9700000286
 6565.0000000 6565.0000000 -4.809999943 2.3900001049 1.9800000191 1.9800000191
 6566.0000000 6566.0000000 -5.360000134 2.6099998951 1.9700000286 1.9700000286
 6567.0000000 6567.0000000 -6.039999962 2.8800001144 1.9600000381 1.9600000381
 6568.0000000 6568.0000000 -7.699999809 3.2300000191 1.9299999475 1.9299999475
 6569.0000000 6569.0000000 -8.270000458 3.5199999809 1.9199999571 1.9199999571
