# LAS format log file from PETREL
# Project units are specified as depth units
#==================================================================
~Version information
VERS.   2.0:
WRAP.   NO:
#==================================================================
~Well
STRT .m      4650.0000000 :
STOP .m      7300.0000000 :
STEP .m     1.00000000 :
NULL .        -999.250000 :
COMP.           : COMPANY
WELL.  WELL_6   : WELL
FLD.            : FIELD
LOC.            : LOCATION
SRVC.           : SERVICE COMPANY
DATE.  2023-03-20 17:52:46   : Log Export Date {yyyy-MM-dd HH:mm:ss}
PROV.           : PROVINCE
UWI.   WELL_6   : UNIQUE WELL ID
API.            : API NUMBER
#==================================================================
~Curve
DEPT .m                   : DEPTH
Depth .m                  : Depth
GR .gAPI                  : GR
SP .mV                    : SP
RT .ohm.m                 : RT
~Parameter
#==================================================================
~Ascii
# ...
 5992.0000000 5992.0000000 133.49000549 -4.739999771 1.8999999762
 5993.0000000 5993.0000000 118.40000153 -4.699999809 1.8700000048
 5994.0000000 5994.0000000 111.40000153 -5.099999905 2.2400000095
 5995.0000000 5995.0000000 112.16000366 -5.349999905 2.6600000858
 5996.0000000 5996.0000000 116.50000000 -5.050000191 2.7400000095
 5997.0000000 5997.0000000 124.01999664 -5.119999886 2.9300000668
 5998.0000000 5998.0000000 121.87000275 -6.239999771 2.9900000095
 5999.0000000 5999.0000000 116.40000153 -6.010000229 3.0099999905
 6000.0000000 6000.0000000 117.38999939 -6.019999981 3.0899999142
 6001.0000000 6001.0000000 121.50000000 -6.480000019 3.3099999428
 6002.0000000 6002.0000000 126.15000153 -6.789999962 3.2200000286
 6003.0000000 6003.0000000 121.52999878 -6.309999943 2.8099999428
 6004.0000000 6004.0000000 138.42999268 -5.659999847 2.6300001144
 6005.0000000 6005.0000000 144.46000671 -4.719999790 2.3399999142
 6006.0000000 6006.0000000 119.76000214 -2.690000057 2.2599999905
 6007.0000000 6007.0000000 112.12999725 -1.450000048 1.8600000143
 6008.0000000 6008.0000000 107.97000122 -1.799999952 1.5499999523
 6009.0000000 6009.0000000 108.52999878 -2.200000048 1.4400000572
 6010.0000000 6010.0000000 109.61000061 -2.559999943 1.4400000572
 6011.0000000 6011.0000000 108.05999756 -2.740000010 1.4700000286
 6012.0000000 6012.0000000 107.58000183 -2.809999943 1.4600000381
 6013.0000000 6013.0000000 108.84999847 -3.170000076 1.4400000572
 6014.0000000 6014.0000000 104.06999969 -3.750000000 1.4500000477
 6015.0000000 6015.0000000 112.22000122 -3.500000000 1.4299999475
 6016.0000000 6016.0000000 119.66000366 -2.690000057 1.4099999666
 6017.0000000 6017.0000000 132.44999695 -1.600000024 1.4600000381
 6018.0000000 6018.0000000 131.80999756 -1.690000057 1.4900000095
 6019.0000000 6019.0000000 120.75000000 -1.840000033 1.4700000286
 6020.0000000 6020.0000000 128.80000305 -2.170000076 1.8700000048
 6021.0000000 6021.0000000 118.41000366 -3.410000086 2.5299999714
 6022.0000000 6022.0000000 117.80999756 -3.539999962 3.8900001049
 6023.0000000 6023.0000000 123.62000275 -2.769999981 2.6500000954
 6024.0000000 6024.0000000 120.08999634 -2.839999914 1.8300000429
 6025.0000000 6025.0000000 109.58999634 -3.029999971 1.3899999857
 6026.0000000 6026.0000000 103.73999786 -2.579999924 1.2200000286
 6027.0000000 6027.0000000 109.83999634 -1.759999990 1.3099999428
 6028.0000000 6028.0000000 120.33000183 -1.200000048 1.3999999762
 6029.0000000 6029.0000000 129.16000366 -1.159999967 1.6799999475
 6030.0000000 6030.0000000 137.58000183 -1.809999943 2.4800000191
 6031.0000000 6031.0000000 127.58000183 -2.329999924 2.5699999332
 6032.0000000 6032.0000000 101.51999664 -1.750000000 1.9400000572
 6033.0000000 6033.0000000 106.23999786 -1.809999943 1.7899999619
 6034.0000000 6034.0000000 112.37999725 -2.539999962 1.6599999666
 6035.0000000 6035.0000000 105.58999634 -3.549999952 1.6399999857
 6036.0000000 6036.0000000 107.72000122 -3.819999933 1.8799999952
 6037.0000000 6037.0000000 104.72000122 -3.329999924 2.0499999523
 6038.0000000 6038.0000000 108.44000244 -2.380000114 1.7200000286
 6039.0000000 6039.0000000 109.44999695 -1.549999952 1.5599999428
 6040.0000000 6040.0000000 113.43000031 -1.600000024 1.4700000286
 6041.0000000 6041.0000000 117.50000000 -1.919999957 1.5599999428
 6042.0000000 6042.0000000 119.02999878 -1.769999981 1.5599999428
 6043.0000000 6043.0000000 105.83999634 -1.980000019 1.7500000000
 6044.0000000 6044.0000000 97.370002747 -2.589999914 2.0899999142
 6045.0000000 6045.0000000 97.120002747 -3.700000048 2.4100000858
 6046.0000000 6046.0000000 99.769996643 -6.510000229 2.5699999332
 6047.0000000 6047.0000000 103.69000244 -7.130000114 2.7799999714
 6048.0000000 6048.0000000 106.01000214 -7.070000172 2.8699998856
 6049.0000000 6049.0000000 99.519996643 -6.650000095 2.9400000572
 6050.0000000 6050.0000000 118.83999634 -6.030000210 2.8599998951
 6051.0000000 6051.0000000 121.33000183 -5.190000057 2.4700000286
 6052.0000000 6052.0000000 96.120002747 -3.940000057 1.9299999475
 6053.0000000 6053.0000000 88.190002441 -3.150000095 1.6399999857
 6054.0000000 6054.0000000 98.910003662 -3.480000019 1.4900000095
 6055.0000000 6055.0000000 118.38999939 -4.170000076 1.4700000286
 6056.0000000 6056.0000000 124.98999786 -3.730000019 1.5000000000
 6057.0000000 6057.0000000 126.15000153 -4.130000114 1.6100000143
 6058.0000000 6058.0000000 128.72000122 -4.949999809 1.7200000286
 6059.0000000 6059.0000000 123.87999725 -5.159999847 1.6599999666
 6060.0000000 6060.0000000 110.91999817 -5.230000019 1.5299999714
 6061.0000000 6061.0000000 109.77999878 -4.119999886 1.4299999475
 6062.0000000 6062.0000000 109.20999908 -3.339999914 1.3799999952
 6063.0000000 6063.0000000 109.70999908 -3.380000114 1.3600000143
 6064.0000000 6064.0000000 106.48999786 -2.529999971 1.3400000334
 6065.0000000 6065.0000000 106.73000336 -4.130000114 1.3400000334
 6066.0000000 6066.0000000 108.43000031 -3.559999943 1.3600000143
 6067.0000000 6067.0000000 105.94999695 -3.619999886 1.3999999762
 6068.0000000 6068.0000000 100.20999908 -4.340000153 1.4299999475
 6069.0000000 6069.0000000 104.01000214 -5.480000019 1.4600000381
 6070.0000000 6070.0000000 106.29000092 -6.309999943 1.5399999619
 6071.0000000 6071.0000000 111.91000366 -5.489999771 1.6900000572
 6072.0000000 6072.0000000 111.29000092 -4.570000172 1.8600000143
 6073.0000000 6073.0000000 104.41999817 -3.730000019 2.2200000286
 6074.0000000 6074.0000000 107.91999817 -3.200000048 2.1600000858
 6075.0000000 6075.0000000 113.04000092 -3.009999990 2.1900000572
 6076.0000000 6076.0000000 108.52999878 -2.750000000 1.6100000143
 6077.0000000 6077.0000000 109.50000000 -2.279999971 1.3200000525
 6078.0000000 6078.0000000 118.63999939 -2.519999981 1.2200000286
 6079.0000000 6079.0000000 123.86000061 -3.390000105 1.2300000191
 6080.0000000 6080.0000000 118.62000275 -4.739999771 1.3700000048
 6081.0000000 6081.0000000 97.300003052 -5.719999790 1.7400000095
 6082.0000000 6082.0000000 93.010002136 -6.159999847 2.0399999619
 6083.0000000 6083.0000000 104.30000305 -6.300000191 2.3599998951
 6084.0000000 6084.0000000 111.33999634 -6.380000114 2.6300001144
 6085.0000000 6085.0000000 114.16000366 -6.150000095 2.7899999619
 6086.0000000 6086.0000000 111.90000153 -5.760000229 2.8599998951
 6087.0000000 6087.0000000 106.83999634 -5.960000038 2.9400000572
 6088.0000000 6088.0000000 109.94999695 -7.059999943 3.0299999714
 6089.0000000 6089.0000000 116.23999786 -7.329999924 2.9900000095
 6090.0000000 6090.0000000 109.33000183 -7.369999886 3.0099999905
 6091.0000000 6091.0000000 102.08000183 -7.989999771 3.3199999332
 6092.0000000 6092.0000000 101.20999908 -8.239999771 3.6600000858
 6093.0000000 6093.0000000 102.37000275 -7.070000172 4.0100002289
 6094.0000000 6094.0000000 104.97000122 -6.150000095 2.9000000954
 6095.0000000 6095.0000000 99.639999390 -4.840000153 1.7799999714
 6096.0000000 6096.0000000 97.199996948 -3.650000095 1.5199999809
 6097.0000000 6097.0000000 106.19999695 -2.319999933 1.3600000143
 6098.0000000 6098.0000000 114.01000214 -1.669999957 1.3099999428
 6099.0000000 6099.0000000 111.75000000 -2.930000067 1.3600000143
 6100.0000000 6100.0000000 101.19000244 -3.650000095 1.6200000048
 6101.0000000 6101.0000000 99.080001831 -4.079999924 1.5800000429
 6102.0000000 6102.0000000 102.00000000 -4.369999886 1.5299999714
 6103.0000000 6103.0000000 97.699996948 -4.820000172 1.5399999619
 6104.0000000 6104.0000000 100.79000092 -5.719999790 1.5099999905
 6105.0000000 6105.0000000 106.54000092 -6.059999943 1.5700000525
 6106.0000000 6106.0000000 113.13999939 -5.460000038 1.6599999666
 6107.0000000 6107.0000000 131.82000732 -4.650000095 1.7899999619
 6108.0000000 6108.0000000 139.47000122 -4.730000019 1.8999999762
 6109.0000000 6109.0000000 133.21000671 -5.610000134 2.2599999905
 6110.0000000 6110.0000000 119.41000366 -6.000000000 2.6600000858
 6111.0000000 6111.0000000 116.62999725 -5.849999905 3.5699999332
 6112.0000000 6112.0000000 118.65000153 -6.250000000 4.5300002098
 6113.0000000 6113.0000000 119.33999634 -7.260000229 3.8900001049
