# LAS format log file from PETREL
# Project units are specified as depth units
#==================================================================
~Version information
VERS.   2.0:
WRAP.   NO:
#==================================================================
~Well
STRT .m      4561.0000000 :
STOP .m      7034.0000000 :
STEP .m     1.00000000 :
NULL .        -999.250000 :
COMP.           : COMPANY
WELL.  WELL_5   : WELL
FLD.            : FIELD
LOC.            : LOCATION
SRVC.           : SERVICE COMPANY
DATE.  2023-03-20 17:52:46   : Log Export Date {yyyy-MM-dd HH:mm:ss}
PROV.           : PROVINCE
UWI.   WELL_5   : UNIQUE WELL ID
API.            : API NUMBER
#==================================================================
~Curve
DEPT .m                   : DEPTH
Depth .m                  : Depth
SN .ohm.m                 : SN
ILD .ohm.m                : ILD
~Parameter
#==================================================================
~Ascii
# ...
 6524.0000000 6524.0000000 2.5099999905 2.0000000000
 6525.0000000 6525.0000000 1.8799999952 1.3700000048
 6526.0000000 6526.0000000 1.5199999809 1.0399999619
 6527.0000000 6527.0000000 1.2100000381 0.8799999952
 6528.0000000 6528.0000000 1.0700000525 0.7799999714
 6529.0000000 6529.0000000 1.0399999619 0.7900000215
 6530.0000000 6530.0000000 1.0900000334 0.8899999857
 6531.0000000 6531.0000000 1.1699999571 1.0099999905
 6532.0000000 6532.0000000 1.2500000000 1.1200000048
 6533.0000000 6533.0000000 1.2999999523 1.2200000286
 6534.0000000 6534.0000000 1.3400000334 1.3400000334
 6535.0000000 6535.0000000 1.3999999762 1.3700000048
 6536.0000000 6536.0000000 1.4800000191 1.1699999571
 6537.0000000 6537.0000000 1.3899999857 1.0199999809
 6538.0000000 6538.0000000 1.1699999571 0.8899999857
 6539.0000000 6539.0000000 1.0599999428 0.8100000024
 6540.0000000 6540.0000000 1.0399999619 0.8100000024
 6541.0000000 6541.0000000 1.1599999666 0.9300000072
 6542.0000000 6542.0000000 1.2300000191 1.0399999619
 6543.0000000 6543.0000000 1.2899999619 1.0800000429
 6544.0000000 6544.0000000 1.3200000525 1.0499999523
 6545.0000000 6545.0000000 1.2899999619 1.0000000000
 6546.0000000 6546.0000000 1.2500000000 0.9700000286
 6547.0000000 6547.0000000 1.2300000191 0.9800000191
 6548.0000000 6548.0000000 1.2899999619 1.1000000238
 6549.0000000 6549.0000000 1.3999999762 1.1599999666
 6550.0000000 6550.0000000 1.4199999571 1.2200000286
 6551.0000000 6551.0000000 1.5000000000 1.2899999619
 6552.0000000 6552.0000000 1.6100000143 1.1799999475
 6553.0000000 6553.0000000 1.4500000477 1.0499999523
 6554.0000000 6554.0000000 1.2500000000 0.9499999881
 6555.0000000 6555.0000000 1.1599999666 0.8100000024
 6556.0000000 6556.0000000 1.1200000048 0.7900000215
 6557.0000000 6557.0000000 1.1399999857 0.8799999952
 6558.0000000 6558.0000000 1.3500000238 1.0399999619
 6559.0000000 6559.0000000 1.6699999571 1.2999999523
 6560.0000000 6560.0000000 1.8300000429 1.6200000048
 6561.0000000 6561.0000000 1.9400000572 1.8300000429
 6562.0000000 6562.0000000 1.9400000572 1.7000000477
 6563.0000000 6563.0000000 1.7300000191 1.4299999475
 6564.0000000 6564.0000000 1.5700000525 1.1399999857
 6565.0000000 6565.0000000 1.3799999952 1.1100000143
 6566.0000000 6566.0000000 1.3899999857 1.1599999666
 6567.0000000 6567.0000000 1.5099999905 1.2899999619
 6568.0000000 6568.0000000 1.6799999475 1.4199999571
 6569.0000000 6569.0000000 1.7999999523 1.5399999619
 6570.0000000 6570.0000000 1.8400000334 1.5900000334
 6571.0000000 6571.0000000 1.8200000525 1.5900000334
 6572.0000000 6572.0000000 1.8400000334 1.6200000048
 6573.0000000 6573.0000000 1.9800000191 1.7599999905
 6574.0000000 6574.0000000 2.2699999809 1.9500000477
 6575.0000000 6575.0000000 2.4500000477 2.1500000954
 6576.0000000 6576.0000000 2.5699999332 2.3099999428
 6577.0000000 6577.0000000 2.6600000858 2.3699998856
 6578.0000000 6578.0000000 2.7100000381 2.3399999142
 6579.0000000 6579.0000000 2.7400000095 2.3099999428
 6580.0000000 6580.0000000 2.7200000286 2.3299999237
 6581.0000000 6581.0000000 2.7400000095 2.4000000954
 6582.0000000 6582.0000000 2.8900001049 2.4400000572
 6583.0000000 6583.0000000 3.0499999523 2.3199999332
 6584.0000000 6584.0000000 2.9100000858 2.1300001144
 6585.0000000 6585.0000000 2.5199999809 1.9099999666
 6586.0000000 6586.0000000 2.2599999905 1.9400000572
 6587.0000000 6587.0000000 2.3199999332 2.0099999905
 6588.0000000 6588.0000000 2.4400000572 1.9800000191
 6589.0000000 6589.0000000 2.4600000381 1.8300000429
 6590.0000000 6590.0000000 2.1900000572 1.6900000572
 6591.0000000 6591.0000000 1.8899999857 1.5199999809
 6592.0000000 6592.0000000 1.7400000095 1.3600000143
 6593.0000000 6593.0000000 1.6699999571 1.2500000000
 6594.0000000 6594.0000000 1.6200000048 1.2400000095
 6595.0000000 6595.0000000 1.5900000334 1.2699999809
 6596.0000000 6596.0000000 1.6399999857 1.2999999523
 6597.0000000 6597.0000000 1.6799999475 1.3899999857
 6598.0000000 6598.0000000 1.7899999619 1.4800000191
 6599.0000000 6599.0000000 1.7899999619 1.5199999809
 6600.0000000 6600.0000000 1.7300000191 1.4800000191
 6601.0000000 6601.0000000 1.6200000048 1.3500000238
 6602.0000000 6602.0000000 1.4800000191 1.2200000286
 6603.0000000 6603.0000000 1.3300000429 1.1699999571
 6604.0000000 6604.0000000 1.2500000000 1.0800000429
 6605.0000000 6605.0000000 1.2300000191 0.9599999785
 6606.0000000 6606.0000000 1.1399999857 0.8799999952
 6607.0000000 6607.0000000 1.0599999428 0.7900000215
 6608.0000000 6608.0000000 1.0099999905 0.7200000286
 6609.0000000 6609.0000000 1.0000000000 0.7200000286
 6610.0000000 6610.0000000 1.0399999619 0.8000000119
 6611.0000000 6611.0000000 1.1900000572 0.9700000286
 6612.0000000 6612.0000000 1.3700000048 1.2200000286
 6613.0000000 6613.0000000 1.6100000143 1.4700000286
 6614.0000000 6614.0000000 1.8799999952 1.6100000143
 6615.0000000 6615.0000000 1.7899999619 1.5499999523
 6616.0000000 6616.0000000 1.5499999523 1.1699999571
 6617.0000000 6617.0000000 1.3400000334 1.0099999905
 6618.0000000 6618.0000000 1.2200000286 0.9700000286
 6619.0000000 6619.0000000 1.1699999571 0.9599999785
 6620.0000000 6620.0000000 1.1900000572 0.8999999762
 6621.0000000 6621.0000000 1.1799999475 0.8199999928
 6622.0000000 6622.0000000 1.1399999857 0.8000000119
 6623.0000000 6623.0000000 1.1599999666 0.8600000143
 6624.0000000 6624.0000000 1.3400000334 0.9399999976
 6625.0000000 6625.0000000 1.6399999857 1.0900000334
 6626.0000000 6626.0000000 1.8300000429 1.4099999666
 6627.0000000 6627.0000000 1.9299999475 1.7699999809
 6628.0000000 6628.0000000 2.5099999905 2.0799999237
 6629.0000000 6629.0000000 3.2400000095 2.5699999332
 6630.0000000 6630.0000000 3.6900000572 3.1900000572
 6631.0000000 6631.0000000 3.5999999046 3.2899999619
 6632.0000000 6632.0000000 3.1300001144 2.7200000286
 6633.0000000 6633.0000000 2.7500000000 2.2400000095
 6634.0000000 6634.0000000 2.5099999905 1.9500000477
 6635.0000000 6635.0000000 2.2699999809 1.6900000572
 6636.0000000 6636.0000000 1.9800000191 1.4099999666
 6637.0000000 6637.0000000 1.6799999475 1.2100000381
 6638.0000000 6638.0000000 1.5099999905 1.1200000048
 6639.0000000 6639.0000000 1.4900000095 1.1499999762
 6640.0000000 6640.0000000 1.5599999428 1.2599999905
 6641.0000000 6641.0000000 1.7899999619 1.4800000191
 6642.0000000 6642.0000000 2.1600000858 1.8400000334
 6643.0000000 6643.0000000 2.5199999809 2.1099998951
 6644.0000000 6644.0000000 2.6800000668 2.2000000477
 6645.0000000 6645.0000000 2.2200000286 1.7500000000
 6646.0000000 6646.0000000 1.7799999714 1.4199999571
 6647.0000000 6647.0000000 1.5900000334 1.2799999714
 6648.0000000 6648.0000000 1.5800000429 1.3700000048
 6649.0000000 6649.0000000 1.8500000238 1.6100000143
 6650.0000000 6650.0000000 2.0999999046 1.8500000238
 6651.0000000 6651.0000000 2.2400000095 1.7000000477
 6652.0000000 6652.0000000 1.8999999762 1.4500000477
 6653.0000000 6653.0000000 1.4199999571 1.1900000572
 6654.0000000 6654.0000000 1.2500000000 1.0800000429
 6655.0000000 6655.0000000 1.2599999905 1.0199999809
 6656.0000000 6656.0000000 1.2200000286 0.9300000072
 6657.0000000 6657.0000000 1.1299999952 0.8299999833
 6658.0000000 6658.0000000 1.0099999905 0.7400000095
 6659.0000000 6659.0000000 0.8999999762 0.6800000072
 6660.0000000 6660.0000000 0.8399999738 0.6700000167
 6661.0000000 6661.0000000 0.8600000143 0.6899999976
 6662.0000000 6662.0000000 0.8999999762 0.7200000286
 6663.0000000 6663.0000000 0.9599999785 0.7500000000
 6664.0000000 6664.0000000 0.9599999785 0.7799999714
 6665.0000000 6665.0000000 0.9399999976 0.8299999833
 6666.0000000 6666.0000000 0.9700000286 0.8700000048
 6667.0000000 6667.0000000 1.0299999714 0.9100000262
 6668.0000000 6668.0000000 1.0800000429 0.9499999881
 6669.0000000 6669.0000000 1.1000000238 1.0000000000
 6670.0000000 6670.0000000 1.1000000238 1.0399999619
 6671.0000000 6671.0000000 1.1499999762 1.0900000334
 6672.0000000 6672.0000000 1.1900000572 1.1200000048
 6673.0000000 6673.0000000 1.1799999475 1.0900000334
 6674.0000000 6674.0000000 1.1499999762 1.0199999809
