# LAS format log file from PETREL
# Project units are specified as depth units
#==================================================================
~Version information
VERS.   2.0:
WRAP.   NO:
#==================================================================
~Well
STRT .m      4650.0000000 :
STOP .m      7050.0000000 :
STEP .m     1.00000000 :
NULL .        -999.250000 :
COMP.           : COMPANY
WELL.  WELL_3   : WELL
FLD.            : FIELD
LOC.            : LOCATION
SRVC.           : SERVICE COMPANY
DATE.  2023-03-20 17:52:46   : Log Export Date {yyyy-MM-dd HH:mm:ss}
PROV.           : PROVINCE
UWI.   WELL_3   : UNIQUE WELL ID
API.            : API NUMBER
#==================================================================
~Curve
DEPT .m                   : DEPTH
Depth .m                  : Depth
SP .mV                    : SP
SN .ohm.m                 : SN
LN .ohm.m                 : LN
LAT .ohm.m                : LAT
~Parameter
#==================================================================
~Ascii
# ...
 6078.0000000 6078.0000000 -3.950000048 1.2799999714 2.0299999714 1.5299999714
 6079.0000000 6079.0000000 -3.900000095 1.2799999714 1.9900000095 1.4400000572
 6080.0000000 6080.0000000 -4.250000000 1.2999999523 1.9700000286 1.3700000048
 6081.0000000 6081.0000000 -4.889999866 1.3799999952 1.9700000286 1.3300000429
 6082.0000000 6082.0000000 -5.449999809 1.5099999905 1.9299999475 1.3400000334
 6083.0000000 6083.0000000 -5.880000114 1.6200000048 1.9099999666 1.4199999571
 6084.0000000 6084.0000000 -6.150000095 1.7000000477 1.9700000286 1.6299999952
 6085.0000000 6085.0000000 -5.789999962 1.7400000095 2.1300001144 1.7899999619
 6086.0000000 6086.0000000 -5.559999943 1.8300000429 2.3099999428 1.7500000000
 6087.0000000 6087.0000000 -6.980000019 2.0599999428 2.4500000477 1.6599999666
 6088.0000000 6088.0000000 -9.260000229 2.3599998951 2.5699999332 1.8400000334
 6089.0000000 6089.0000000 -11.82999992 2.7799999714 2.6300001144 2.1400001049
 6090.0000000 6090.0000000 -12.96000004 3.1400001049 2.7699999809 2.4400000572
 6091.0000000 6091.0000000 -13.26000023 3.3399999142 3.0499999523 2.7100000381
 6092.0000000 6092.0000000 -13.56000042 3.5099999905 3.3499999046 3.0099999905
 6093.0000000 6093.0000000 -13.77000046 3.5799999237 3.5599999428 3.2500000000
 6094.0000000 6094.0000000 -13.68000031 3.5199999809 3.6800000668 3.3299999237
 6095.0000000 6095.0000000 -13.32999992 3.4500000477 3.6800000668 3.1700000763
 6096.0000000 6096.0000000 -12.93999958 3.3299999237 3.6500000954 3.0499999523
 6097.0000000 6097.0000000 -12.56000042 3.1700000763 3.6600000858 3.0399999619
 6098.0000000 6098.0000000 -12.18999958 3.0399999619 3.5699999332 2.8699998856
 6099.0000000 6099.0000000 -12.10999966 3.0199999809 3.4200000763 2.7500000000
 6100.0000000 6100.0000000 -12.07999992 3.0299999714 3.3099999428 2.6900000572
 6101.0000000 6101.0000000 -11.27000046 2.9700000286 3.2300000191 2.7200000286
 6102.0000000 6102.0000000 -10.26000023 2.8199999332 3.1800000668 2.7599999905
 6103.0000000 6103.0000000 -9.340000153 2.6600000858 3.0799999237 2.7300000191
 6104.0000000 6104.0000000 -8.460000038 2.5099999905 2.9900000095 2.6800000668
 6105.0000000 6105.0000000 -7.500000000 2.3199999332 2.8800001144 2.6800000668
 6106.0000000 6106.0000000 -6.449999809 2.1400001049 2.7599999905 2.7200000286
 6107.0000000 6107.0000000 -5.800000191 2.0399999619 2.7200000286 2.6900000572
 6108.0000000 6108.0000000 -5.920000076 1.9800000191 2.7300000191 2.7300000191
 6109.0000000 6109.0000000 -6.489999771 2.1099998951 2.6400001049 2.7799999714
 6110.0000000 6110.0000000 -7.219999790 2.2799999714 2.4900000095 2.9200000763
 6111.0000000 6111.0000000 -7.730000019 2.4100000858 2.3499999046 3.2500000000
 6112.0000000 6112.0000000 -7.820000172 2.4000000954 2.2799999714 3.7000000477
 6113.0000000 6113.0000000 -7.349999905 2.1900000572 2.4300000668 3.8900001049
 6114.0000000 6114.0000000 -6.769999981 2.1300001144 2.5799999237 3.3900001049
 6115.0000000 6115.0000000 -7.010000229 2.2599999905 2.5599999428 3.0000000000
 6116.0000000 6116.0000000 -7.869999886 2.4400000572 2.3099999428 2.9600000381
 6117.0000000 6117.0000000 -8.039999962 2.5599999428 2.0000000000 3.6300001144
 6118.0000000 6118.0000000 -7.369999886 2.3299999237 1.9099999666 3.9600000381
 6119.0000000 6119.0000000 -6.510000229 1.9500000477 1.9500000477 3.7500000000
 6120.0000000 6120.0000000 -5.889999866 1.7000000477 2.0399999619 3.0999999046
 6121.0000000 6121.0000000 -5.099999905 1.4900000095 2.1600000858 2.4900000095
 6122.0000000 6122.0000000 -4.449999809 1.4199999571 2.2400000095 1.9400000572
 6123.0000000 6123.0000000 -4.329999924 1.4400000572 2.3399999142 1.6399999857
 6124.0000000 6124.0000000 -4.849999905 1.5199999809 2.3499999046 1.4700000286
 6125.0000000 6125.0000000 -6.000000000 1.7000000477 2.3099999428 1.4099999666
 6126.0000000 6126.0000000 -7.519999981 1.9900000095 2.2500000000 1.4400000572
 6127.0000000 6127.0000000 -8.420000076 2.3699998856 2.1500000954 1.6200000048
 6128.0000000 6128.0000000 -8.899999619 2.7000000477 2.0499999523 2.3599998951
 6129.0000000 6129.0000000 -9.039999962 2.7300000191 2.0099999905 3.1700000763
 6130.0000000 6130.0000000 -8.739999771 2.5099999905 2.0000000000 3.3499999046
 6131.0000000 6131.0000000 -8.069999695 2.1900000572 2.0399999619 3.3599998951
 6132.0000000 6132.0000000 -7.219999790 1.9600000381 2.0499999523 3.1700000763
 6133.0000000 6133.0000000 -6.260000229 1.8300000429 1.9800000191 2.9300000668
 6134.0000000 6134.0000000 -5.650000095 1.6799999475 1.8799999952 2.7000000477
 6135.0000000 6135.0000000 -5.530000210 1.5800000429 1.7699999809 2.5599999428
 6136.0000000 6136.0000000 -5.010000229 1.4800000191 1.6699999571 2.5299999714
 6137.0000000 6137.0000000 -4.429999828 1.3099999428 1.6000000238 2.4400000572
 6138.0000000 6138.0000000 -4.139999866 1.1799999475 1.5599999428 2.2400000095
 6139.0000000 6139.0000000 -4.019999981 1.0900000334 1.5199999809 2.0000000000
 6140.0000000 6140.0000000 -3.990000010 1.0099999905 1.5000000000 1.8200000525
 6141.0000000 6141.0000000 -3.839999914 0.9700000286 1.5000000000 1.6100000143
 6142.0000000 6142.0000000 -3.619999886 0.9800000191 1.5099999905 1.3999999762
 6143.0000000 6143.0000000 -3.619999886 1.0399999619 1.5099999905 1.2799999714
 6144.0000000 6144.0000000 -3.759999990 1.1100000143 1.5299999714 1.2300000191
 6145.0000000 6145.0000000 -3.740000010 1.1699999571 1.5700000525 1.2599999905
 6146.0000000 6146.0000000 -3.930000067 1.2400000095 1.5700000525 1.3500000238
 6147.0000000 6147.0000000 -4.400000095 1.3700000048 1.5299999714 1.5099999905
 6148.0000000 6148.0000000 -4.940000057 1.4800000191 1.5000000000 1.7300000191
 6149.0000000 6149.0000000 -5.340000153 1.5499999523 1.5199999809 1.9500000477
 6150.0000000 6150.0000000 -5.489999771 1.5700000525 1.5700000525 2.0599999428
 6151.0000000 6151.0000000 -5.550000191 1.5599999428 1.6599999666 2.0399999619
 6152.0000000 6152.0000000 -5.579999924 1.5299999714 1.7899999619 1.8899999857
 6153.0000000 6153.0000000 -5.670000076 1.5099999905 1.9700000286 1.7500000000
 6154.0000000 6154.0000000 -6.070000172 1.5700000525 2.1300001144 1.6399999857
 6155.0000000 6155.0000000 -7.170000076 1.8700000048 2.2200000286 1.6499999762
 6156.0000000 6156.0000000 -8.520000458 2.4300000668 2.2699999809 1.8400000334
 6157.0000000 6157.0000000 -10.55000019 2.8900001049 2.3599998951 2.1800000668
 6158.0000000 6158.0000000 -11.84000015 3.1199998856 2.5999999046 2.4700000286
 6159.0000000 6159.0000000 -12.92000008 3.2599999905 3.0000000000 2.5699999332
 6160.0000000 6160.0000000 -13.81999969 3.4600000381 3.3399999142 2.5899999142
 6161.0000000 6161.0000000 -14.94999981 3.7699999809 3.4500000477 2.7699999809
 6162.0000000 6162.0000000 -15.28999996 3.9300000668 3.1900000572 2.9500000477
 6163.0000000 6163.0000000 -14.56000042 3.8900001049 2.8900001049 3.1500000954
 6164.0000000 6164.0000000 -13.10999966 3.4900000095 2.6400001049 3.2400000095
 6165.0000000 6165.0000000 -11.00000000 2.7000000477 2.5699999332 3.2400000095
 6166.0000000 6166.0000000 -8.399999619 2.1500000954 2.6099998951 2.9500000477
 6167.0000000 6167.0000000 -6.780000210 1.8999999762 2.5499999523 2.4200000763
 6168.0000000 6168.0000000 -6.190000057 1.8200000525 2.3900001049 1.9099999666
 6169.0000000 6169.0000000 -6.500000000 1.7799999714 2.3399999142 1.7599999905
 6170.0000000 6170.0000000 -6.369999886 1.7899999619 2.2899999619 1.7500000000
 6171.0000000 6171.0000000 -5.860000134 1.8400000334 2.2500000000 1.5700000525
 6172.0000000 6172.0000000 -6.750000000 1.9600000381 2.2200000286 1.4400000572
 6173.0000000 6173.0000000 -7.360000134 2.1700000763 1.9700000286 1.7000000477
 6174.0000000 6174.0000000 -7.059999943 2.2400000095 1.8099999428 2.1099998951
 6175.0000000 6175.0000000 -5.969999790 2.0000000000 1.7300000191 2.4700000286
 6176.0000000 6176.0000000 -4.719999790 1.6100000143 1.7400000095 2.6400001049
 6177.0000000 6177.0000000 -3.950000048 1.3799999952 1.8300000429 2.4200000763
 6178.0000000 6178.0000000 -4.159999847 1.3099999428 1.9199999571 2.0999999046
 6179.0000000 6179.0000000 -4.699999809 1.3099999428 1.9299999475 1.9800000191
