# LAS format log file from PETREL
# Project units are specified as depth units
#==================================================================
~Version information
VERS.   2.0:
WRAP.   NO:
#==================================================================
~Well
STRT .m      4561.0000000 :
STOP .m      7034.0000000 :
STEP .m     1.00000000 :
NULL .        -999.250000 :
COMP.           : COMPANY
WELL.  WELL_5   : WELL
FLD.            : FIELD
LOC.            : LOCATION
SRVC.           : SERVICE COMPANY
DATE.  2023-03-20 17:52:46   : Log Export Date {yyyy-MM-dd HH:mm:ss}
PROV.           : PROVINCE
UWI.   WELL_5   : UNIQUE WELL ID
API.            : API NUMBER
#==================================================================
~Curve
DEPT .m                   : DEPTH
Depth .m                  : Depth
SN .ohm.m                 : SN
ILD .ohm.m                : ILD
~Parameter
#==================================================================
~Ascii
# ...
 6222.0000000 6222.0000000 1.3099999428 1.0800000429
 6223.0000000 6223.0000000 1.3700000048 1.0900000334
 6224.0000000 6224.0000000 1.3099999428 1.0199999809
 6225.0000000 6225.0000000 1.2300000191 0.9499999881
 6226.0000000 6226.0000000 1.1599999666 0.8999999762
 6227.0000000 6227.0000000 1.1000000238 0.8799999952
 6228.0000000 6228.0000000 1.1000000238 0.8899999857
 6229.0000000 6229.0000000 1.1299999952 0.9100000262
 6230.0000000 6230.0000000 1.1399999857 0.9399999976
 6231.0000000 6231.0000000 1.1599999666 0.9599999785
 6232.0000000 6232.0000000 1.1799999475 0.9700000286
 6233.0000000 6233.0000000 1.1900000572 0.9900000095
 6234.0000000 6234.0000000 1.2000000477 0.9900000095
 6235.0000000 6235.0000000 1.2100000381 0.9900000095
 6236.0000000 6236.0000000 1.2400000095 0.9900000095
 6237.0000000 6237.0000000 1.2899999619 1.0399999619
 6238.0000000 6238.0000000 1.4199999571 1.2000000477
 6239.0000000 6239.0000000 1.7400000095 1.4900000095
 6240.0000000 6240.0000000 2.0899999142 1.8799999952
 6241.0000000 6241.0000000 2.5799999237 2.3800001144
 6242.0000000 6242.0000000 3.1900000572 3.0299999714
 6243.0000000 6243.0000000 3.9000000954 3.7799999714
 6244.0000000 6244.0000000 4.6700000763 4.3200001717
 6245.0000000 6245.0000000 4.8899998665 4.3800001144
 6246.0000000 6246.0000000 4.4600000381 4.1799998283
 6247.0000000 6247.0000000 4.0399999619 3.7000000477
 6248.0000000 6248.0000000 3.8199999332 3.2500000000
 6249.0000000 6249.0000000 3.7200000286 2.8800001144
 6250.0000000 6250.0000000 3.4400000572 2.7400000095
 6251.0000000 6251.0000000 3.2100000381 2.7699999809
 6252.0000000 6252.0000000 3.2200000286 2.6500000954
 6253.0000000 6253.0000000 3.2899999619 2.4800000191
 6254.0000000 6254.0000000 3.2799999714 2.6900000572
 6255.0000000 6255.0000000 3.1600000858 2.6500000954
 6256.0000000 6256.0000000 3.1300001144 2.5299999714
 6257.0000000 6257.0000000 3.0699999332 2.6199998856
 6258.0000000 6258.0000000 2.9600000381 2.3599998951
 6259.0000000 6259.0000000 2.7799999714 2.1400001049
 6260.0000000 6260.0000000 2.6400001049 2.1700000763
 6261.0000000 6261.0000000 2.6300001144 2.1800000668
 6262.0000000 6262.0000000 2.6300001144 2.0999999046
 6263.0000000 6263.0000000 2.7200000286 2.0699999332
 6264.0000000 6264.0000000 2.7200000286 2.0399999619
 6265.0000000 6265.0000000 2.6199998856 1.9099999666
 6266.0000000 6266.0000000 2.5299999714 1.7999999523
 6267.0000000 6267.0000000 2.6099998951 1.8700000048
 6268.0000000 6268.0000000 3.0599999428 2.2999999523
 6269.0000000 6269.0000000 4.1100001335 3.0199999809
 6270.0000000 6270.0000000 5.6599998474 4.0599999428
 6271.0000000 6271.0000000 6.5599999428 5.3099999428
 6272.0000000 6272.0000000 7.0199999809 6.2500000000
 6273.0000000 6273.0000000 7.4200000763 6.7399997711
 6274.0000000 6274.0000000 7.9400000572 7.0500001907
 6275.0000000 6275.0000000 8.2600002289 7.5799999237
 6276.0000000 6276.0000000 8.5100002289 8.3199996948
 6277.0000000 6277.0000000 8.8900003433 9.0000000000
 6278.0000000 6278.0000000 8.3100004196 6.6599998474
 6279.0000000 6279.0000000 7.0599999428 3.3499999046
 6280.0000000 6280.0000000 4.8299999237 2.0399999619
 6281.0000000 6281.0000000 2.7400000095 1.4400000572
 6282.0000000 6282.0000000 2.2100000381 1.3200000525
 6283.0000000 6283.0000000 2.4600000381 1.2799999714
 6284.0000000 6284.0000000 3.2100000381 1.5800000429
 6285.0000000 6285.0000000 4.0399999619 2.5599999428
 6286.0000000 6286.0000000 4.7199997902 3.7100000381
 6287.0000000 6287.0000000 5.8899998665 4.9600000381
 6288.0000000 6288.0000000 7.2300000191 6.8000001907
 6289.0000000 6289.0000000 8.0200004578 8.0600004196
 6290.0000000 6290.0000000 8.0500001907 5.7899999619
 6291.0000000 6291.0000000 6.5799999237 3.9100000858
 6292.0000000 6292.0000000 4.3299999237 2.7000000477
 6293.0000000 6293.0000000 3.3199999332 2.0499999523
 6294.0000000 6294.0000000 2.7100000381 1.7100000381
 6295.0000000 6295.0000000 2.2300000191 1.4800000191
 6296.0000000 6296.0000000 1.9900000095 1.3300000429
 6297.0000000 6297.0000000 1.8899999857 1.2799999714
 6298.0000000 6298.0000000 1.9800000191 1.2999999523
 6299.0000000 6299.0000000 2.2300000191 1.5900000334
 6300.0000000 6300.0000000 2.6600000858 1.9600000381
 6301.0000000 6301.0000000 3.1600000858 2.4900000095
 6302.0000000 6302.0000000 4.0300002098 3.3499999046
 6303.0000000 6303.0000000 4.8899998665 4.5900001526
 6304.0000000 6304.0000000 5.5700001717 5.3200001717
 6305.0000000 6305.0000000 6.1100001335 5.7600002289
 6306.0000000 6306.0000000 6.3699998856 6.3899998665
 6307.0000000 6307.0000000 6.2899999619 6.7300000191
 6308.0000000 6308.0000000 5.9499998093 4.2600002289
 6309.0000000 6309.0000000 4.9899997711 2.5399999619
 6310.0000000 6310.0000000 3.5399999619 1.4700000286
 6311.0000000 6311.0000000 1.8899999857 1.0499999523
 6312.0000000 6312.0000000 1.4900000095 0.9200000167
 6313.0000000 6313.0000000 1.3799999952 0.8899999857
 6314.0000000 6314.0000000 1.4500000477 0.9200000167
 6315.0000000 6315.0000000 1.4900000095 1.0000000000
 6316.0000000 6316.0000000 1.4600000381 1.0800000429
 6317.0000000 6317.0000000 1.3899999857 1.0299999714
 6318.0000000 6318.0000000 1.2899999619 0.9599999785
 6319.0000000 6319.0000000 1.3600000143 0.9800000191
 6320.0000000 6320.0000000 1.4500000477 1.0199999809
 6321.0000000 6321.0000000 1.5800000429 1.1299999952
 6322.0000000 6322.0000000 2.0000000000 1.4600000381
 6323.0000000 6323.0000000 2.6600000858 2.0599999428
 6324.0000000 6324.0000000 3.2699999809 2.7000000477
 6325.0000000 6325.0000000 3.2000000477 2.3499999046
 6326.0000000 6326.0000000 2.6199998856 1.9500000477
 6327.0000000 6327.0000000 2.2000000477 1.7300000191
 6328.0000000 6328.0000000 2.0699999332 1.7200000286
 6329.0000000 6329.0000000 2.2100000381 1.9900000095
 6330.0000000 6330.0000000 2.7100000381 2.4400000572
 6331.0000000 6331.0000000 3.3299999237 2.7200000286
 6332.0000000 6332.0000000 3.7400000095 2.7100000381
 6333.0000000 6333.0000000 3.2699999809 2.3499999046
 6334.0000000 6334.0000000 2.5899999142 2.0199999809
 6335.0000000 6335.0000000 2.3199999332 1.8300000429
 6336.0000000 6336.0000000 2.4800000191 1.8300000429
 6337.0000000 6337.0000000 2.9000000954 2.2000000477
 6338.0000000 6338.0000000 3.3199999332 2.7400000095
 6339.0000000 6339.0000000 3.7400000095 3.2699999809
 6340.0000000 6340.0000000 4.1199998856 3.5699999332
 6341.0000000 6341.0000000 4.3899998665 4.1199998856
 6342.0000000 6342.0000000 4.6999998093 4.6500000954
 6343.0000000 6343.0000000 5.0300002098 4.7800002098
 6344.0000000 6344.0000000 5.2300000191 4.4299998283
 6345.0000000 6345.0000000 4.3800001144 3.8900001049
 6346.0000000 6346.0000000 3.9000000954 3.2200000286
 6347.0000000 6347.0000000 3.4300000668 2.7000000477
 6348.0000000 6348.0000000 3.0299999714 2.3299999237
 6349.0000000 6349.0000000 2.5399999619 1.9500000477
 6350.0000000 6350.0000000 2.1500000954 1.5399999619
 6351.0000000 6351.0000000 1.7899999619 1.1399999857
 6352.0000000 6352.0000000 1.5000000000 1.0000000000
 6353.0000000 6353.0000000 1.3500000238 0.9300000072
 6354.0000000 6354.0000000 1.3300000429 1.0000000000
 6355.0000000 6355.0000000 1.5000000000 1.1499999762
 6356.0000000 6356.0000000 1.7200000286 1.3999999762
 6357.0000000 6357.0000000 1.9400000572 1.6399999857
 6358.0000000 6358.0000000 2.0999999046 1.4299999475
 6359.0000000 6359.0000000 1.9700000286 1.3500000238
 6360.0000000 6360.0000000 1.7200000286 1.3300000429
 6361.0000000 6361.0000000 1.7799999714 1.3400000334
 6362.0000000 6362.0000000 2.0199999809 1.6100000143
 6363.0000000 6363.0000000 2.3699998856 2.2300000191
 6364.0000000 6364.0000000 2.8699998856 2.7300000191
 6365.0000000 6365.0000000 3.4700000286 3.0199999809
 6366.0000000 6366.0000000 3.7999999523 3.2799999714
 6367.0000000 6367.0000000 3.8099999428 3.3599998951
 6368.0000000 6368.0000000 3.7999999523 3.2799999714
 6369.0000000 6369.0000000 4.0799999237 3.4600000381
 6370.0000000 6370.0000000 4.5399999619 3.7400000095
 6371.0000000 6371.0000000 5.0100002289 3.9500000477
 6372.0000000 6372.0000000 5.3000001907 3.9600000381
