# LAS format log file from PETREL
# Project units are specified as depth units
#==================================================================
~Version information
VERS.   2.0:
WRAP.   NO:
#==================================================================
~Well
STRT .m      3000.0000000 :
STOP .m      7750.0000000 :
STEP .m     1.00000000 :
NULL .        -999.250000 :
COMP.           : COMPANY
WELL.  WELL_2   : WELL
FLD.            : FIELD
LOC.            : LOCATION
SRVC.           : SERVICE COMPANY
DATE.  2023-03-20 17:52:46   : Log Export Date {yyyy-MM-dd HH:mm:ss}
PROV.           : PROVINCE
UWI.   WELL_2   : UNIQUE WELL ID
API.            : API NUMBER
#==================================================================
~Curve
DEPT .m                   : DEPTH
Depth .m                  : Depth
SP .mV                    : SP
SN .ohm.m                 : SN
LN .ohm.m                 : LN
LAT .ohm.m                : LAT
~Parameter
#==================================================================
~Ascii
# ...
 5142.0000000 5142.0000000 -1.409999967 2.0299999714 1.6699999571 1.6699999571
 5143.0000000 5143.0000000 -1.309999943 2.0000000000 1.7000000477 1.7000000477
 5144.0000000 5144.0000000 -1.309999943 1.9700000286 1.7300000191 1.7300000191
 5145.0000000 5145.0000000 -1.309999943 1.9299999475 1.7599999905 1.7599999905
 5146.0000000 5146.0000000 -1.279999971 1.9099999666 1.7699999809 1.7699999809
 5147.0000000 5147.0000000 -1.190000057 1.9199999571 1.7899999619 1.7899999619
 5148.0000000 5148.0000000 -1.080000043 1.9400000572 1.7899999619 1.7899999619
 5149.0000000 5149.0000000 -0.939999998 1.9800000191 1.7999999523 1.7999999523
 5150.0000000 5150.0000000 -0.910000026 2.0499999523 1.8200000525 1.8200000525
 5151.0000000 5151.0000000 -0.889999986 2.1300001144 1.8400000334 1.8400000334
 5152.0000000 5152.0000000 -0.930000007 2.2100000381 1.8500000238 1.8500000238
 5153.0000000 5153.0000000 -0.990000010 2.2599999905 1.8899999857 1.8899999857
 5154.0000000 5154.0000000 -1.049999952 2.2899999619 1.9700000286 1.9700000286
 5155.0000000 5155.0000000 -1.120000005 2.3099999428 2.0499999523 2.0499999523
 5156.0000000 5156.0000000 -1.200000048 2.3199999332 2.1300001144 2.1300001144
 5157.0000000 5157.0000000 -1.360000014 2.3499999046 2.2200000286 2.2200000286
 5158.0000000 5158.0000000 -1.710000038 2.4000000954 2.3099999428 2.3099999428
 5159.0000000 5159.0000000 -2.220000029 2.5699999332 2.4200000763 2.4200000763
 5160.0000000 5160.0000000 -2.779999971 2.9400000572 2.4400000572 2.4400000572
 5161.0000000 5161.0000000 -3.309999943 3.0899999142 2.4300000668 2.4300000668
 5162.0000000 5162.0000000 -3.750000000 3.1700000763 2.4400000572 2.4400000572
 5163.0000000 5163.0000000 -4.130000114 3.2300000191 2.4600000381 2.4600000381
 5164.0000000 5164.0000000 -4.460000038 3.2100000381 2.4600000381 2.4600000381
 5165.0000000 5165.0000000 -4.739999771 3.1800000668 2.4500000477 2.4500000477
 5166.0000000 5166.0000000 -4.530000210 3.0799999237 2.4400000572 2.4400000572
 5167.0000000 5167.0000000 -4.070000172 2.9200000763 2.4300000668 2.4300000668
 5168.0000000 5168.0000000 -3.470000029 2.7300000191 2.4400000572 2.4400000572
 5169.0000000 5169.0000000 -2.990000010 2.5799999237 2.4800000191 2.4800000191
 5170.0000000 5170.0000000 -2.779999971 2.5999999046 2.4900000095 2.4900000095
 5171.0000000 5171.0000000 -2.829999924 2.6700000763 2.4800000191 2.4800000191
 5172.0000000 5172.0000000 -3.029999971 2.7300000191 2.4500000477 2.4500000477
 5173.0000000 5173.0000000 -3.380000114 2.7899999619 2.4800000191 2.4800000191
 5174.0000000 5174.0000000 -3.789999962 2.8399999142 2.5199999809 2.5199999809
 5175.0000000 5175.0000000 -4.219999790 2.9100000858 2.5499999523 2.5499999523
 5176.0000000 5176.0000000 -4.670000076 2.9900000095 2.5799999237 2.5799999237
 5177.0000000 5177.0000000 -5.059999943 3.0599999428 2.5999999046 2.5999999046
 5178.0000000 5178.0000000 -5.340000153 3.1099998951 2.5799999237 2.5799999237
 5179.0000000 5179.0000000 -5.539999962 3.0499999523 2.5399999619 2.5399999619
 5180.0000000 5180.0000000 -5.099999905 2.8599998951 2.4700000286 2.4700000286
 5181.0000000 5181.0000000 -4.380000114 2.4900000095 2.3900001049 2.3900001049
 5182.0000000 5182.0000000 -3.599999905 2.4000000954 2.3499999046 2.3499999046
 5183.0000000 5183.0000000 -2.960000038 2.4400000572 2.2999999523 2.2999999523
 5184.0000000 5184.0000000 -2.809999943 2.4800000191 2.2799999714 2.2799999714
 5185.0000000 5185.0000000 -2.660000086 2.5000000000 2.2400000095 2.2400000095
 5186.0000000 5186.0000000 -2.420000076 2.5099999905 2.2500000000 2.2500000000
 5187.0000000 5187.0000000 -2.470000029 2.5199999809 2.3699998856 2.3699998856
 5188.0000000 5188.0000000 -2.529999971 2.5199999809 2.5399999619 2.5399999619
 5189.0000000 5189.0000000 -2.690000057 2.5499999523 2.6700000763 2.6700000763
 5190.0000000 5190.0000000 -3.299999952 2.7300000191 2.7500000000 2.7500000000
 5191.0000000 5191.0000000 -6.469999790 3.2599999905 2.7500000000 2.7500000000
 5192.0000000 5192.0000000 -8.159999847 3.5399999619 2.7500000000 2.7500000000
 5193.0000000 5193.0000000 -9.029999733 3.5899999142 2.7599999905 2.7599999905
 5194.0000000 5194.0000000 -9.500000000 3.5799999237 2.8099999428 2.8099999428
 5195.0000000 5195.0000000 -8.479999542 3.5299999714 2.9800000191 2.9800000191
 5196.0000000 5196.0000000 -8.140000343 3.4400000572 3.1300001144 3.1300001144
 5197.0000000 5197.0000000 -7.900000095 3.4000000954 3.2999999523 3.2999999523
 5198.0000000 5198.0000000 -8.100000381 3.4100000858 3.4800000191 3.4800000191
 5199.0000000 5199.0000000 -8.680000305 3.5000000000 3.7100000381 3.7100000381
 5200.0000000 5200.0000000 -12.77000046 3.9200000763 3.9300000668 3.9300000668
 5201.0000000 5201.0000000 -15.14999962 4.9200000763 3.9900000095 3.9900000095
 5202.0000000 5202.0000000 -17.39999962 5.1599998474 3.9600000381 3.9600000381
 5203.0000000 5203.0000000 -17.47999954 5.2699999809 3.9300000668 3.9300000668
 5204.0000000 5204.0000000 -17.00000000 5.2899999619 3.9000000954 3.9000000954
 5205.0000000 5205.0000000 -16.17000008 5.3400001526 3.8599998951 3.8599998951
 5206.0000000 5206.0000000 -15.26000023 5.3699998856 3.8199999332 3.8199999332
 5207.0000000 5207.0000000 -14.21000004 5.3899998665 3.7599999905 3.7599999905
 5208.0000000 5208.0000000 -14.06999969 5.4000000954 3.6500000954 3.6500000954
 5209.0000000 5209.0000000 -13.89000034 5.3400001526 3.5000000000 3.5000000000
 5210.0000000 5210.0000000 -13.72000027 4.3899998665 3.1700000763 3.1700000763
 5211.0000000 5211.0000000 -9.689999580 3.5499999523 2.5000000000 2.5000000000
 5212.0000000 5212.0000000 -5.380000114 3.0199999809 2.3699998856 2.3699998856
 5213.0000000 5213.0000000 -3.059999943 2.9300000668 2.3199999332 2.3199999332
 5214.0000000 5214.0000000 -2.549999952 2.9000000954 2.3099999428 2.3099999428
 5215.0000000 5215.0000000 -2.289999962 2.8800001144 2.2999999523 2.2999999523
 5216.0000000 5216.0000000 -2.880000114 2.8399999142 2.3499999046 2.3499999046
 5217.0000000 5217.0000000 -3.759999990 2.7400000095 2.4400000572 2.4400000572
 5218.0000000 5218.0000000 -4.619999886 2.6800000668 2.5599999428 2.5599999428
 5219.0000000 5219.0000000 -5.349999905 2.6600000858 2.6700000763 2.6700000763
 5220.0000000 5220.0000000 -5.980000019 2.7400000095 2.7300000191 2.7300000191
 5221.0000000 5221.0000000 -6.429999828 2.9000000954 2.7599999905 2.7599999905
 5222.0000000 5222.0000000 -6.750000000 3.0699999332 2.7699999809 2.7699999809
 5223.0000000 5223.0000000 -7.030000210 3.1800000668 2.7799999714 2.7799999714
 5224.0000000 5224.0000000 -7.449999809 3.2400000095 2.7699999809 2.7699999809
 5225.0000000 5225.0000000 -8.069999695 3.2699999809 2.7300000191 2.7300000191
 5226.0000000 5226.0000000 -9.050000191 3.2999999523 2.6700000763 2.6700000763
 5227.0000000 5227.0000000 -9.579999924 3.3099999428 2.6199998856 2.6199998856
 5228.0000000 5228.0000000 -9.430000305 3.2000000477 2.6300001144 2.6300001144
 5229.0000000 5229.0000000 -9.050000191 3.0399999619 2.7599999905 2.7599999905
 5230.0000000 5230.0000000 -8.560000420 2.9100000858 2.9400000572 2.9400000572
 5231.0000000 5231.0000000 -8.050000191 2.9100000858 3.1199998856 3.1199998856
 5232.0000000 5232.0000000 -8.640000343 3.0399999619 3.0599999428 3.0599999428
 5233.0000000 5233.0000000 -9.680000305 3.3800001144 2.8699998856 2.8699998856
 5234.0000000 5234.0000000 -10.86999989 3.8299999237 2.6600000858 2.6600000858
 5235.0000000 5235.0000000 -11.53999996 3.8800001144 2.4200000763 2.4200000763
 5236.0000000 5236.0000000 -10.48999977 3.2500000000 2.2400000095 2.2400000095
 5237.0000000 5237.0000000 -7.409999847 2.6800000668 2.1400001049 2.1400001049
 5238.0000000 5238.0000000 -2.839999914 2.3199999332 2.1500000954 2.1500000954
 5239.0000000 5239.0000000 -1.850000024 2.0699999332 2.1800000668 2.1800000668
 5240.0000000 5240.0000000 -1.759999990 1.8799999952 2.1500000954 2.1500000954
 5241.0000000 5241.0000000 -1.950000048 1.8200000525 2.0999999046 2.0999999046
 5242.0000000 5242.0000000 -2.059999943 1.8200000525 2.0299999714 2.0299999714
 5243.0000000 5243.0000000 -2.000000000 1.8600000143 1.9500000477 1.9500000477
