# LAS format log file from PETREL
# Project units are specified as depth units
#==================================================================
~Version information
VERS.   2.0:
WRAP.   NO:
#==================================================================
~Well
STRT .m      4450.0000000 :
STOP .m      7050.0000000 :
STEP .m     1.00000000 :
NULL .        -999.250000 :
COMP.           : COMPANY
WELL.  WELL_4   : WELL
FLD.            : FIELD
LOC.            : LOCATION
SRVC.           : SERVICE COMPANY
DATE.  2023-03-20 17:52:46   : Log Export Date {yyyy-MM-dd HH:mm:ss}
PROV.           : PROVINCE
UWI.   WELL_4   : UNIQUE WELL ID
API.            : API NUMBER
#==================================================================
~Curve
DEPT .m                   : DEPTH
Depth .m                  : Depth
SP .mV                    : SP
SN .ohm.m                 : SN
LN .ohm.m                 : LN
LAT .ohm.m                : LAT
~Parameter
#==================================================================
~Ascii
# ...
 4654.0000000 4654.0000000 -8.319999695 1.4900000095 1.4800000191 1.5000000000
 4655.0000000 4655.0000000 -8.149999619 1.4600000381 1.4600000381 1.6799999475
 4656.0000000 4656.0000000 -7.989999771 1.3600000143 1.4600000381 1.6499999762
 4657.0000000 4657.0000000 -7.969999790 1.2699999809 1.4900000095 1.4800000191
 4658.0000000 4658.0000000 -8.140000343 1.2200000286 1.5000000000 1.4700000286
 4659.0000000 4659.0000000 -8.380000114 1.2200000286 1.4700000286 1.5299999714
 4660.0000000 4660.0000000 -7.960000038 1.2200000286 1.4099999666 1.5700000525
 4661.0000000 4661.0000000 -7.960000038 1.2100000381 1.3999999762 1.5099999905
 4662.0000000 4662.0000000 -8.109999657 1.2000000477 1.3999999762 1.4500000477
 4663.0000000 4663.0000000 -8.420000076 1.1900000572 1.3799999952 1.4400000572
 4664.0000000 4664.0000000 -8.739999771 1.2000000477 1.3200000525 1.4700000286
 4665.0000000 4665.0000000 -8.750000000 1.2100000381 1.2699999809 1.5000000000
 4666.0000000 4666.0000000 -8.399999619 1.2000000477 1.2400000095 1.5199999809
 4667.0000000 4667.0000000 -8.359999657 1.1699999571 1.2200000286 1.5099999905
 4668.0000000 4668.0000000 -9.090000153 1.1299999952 1.2100000381 1.4500000477
 4669.0000000 4669.0000000 -9.899999619 1.0800000429 1.2100000381 1.3600000143
 4670.0000000 4670.0000000 -10.94999981 1.0399999619 1.2200000286 1.2799999714
 4671.0000000 4671.0000000 -11.90999985 1.0099999905 1.2400000095 1.1499999762
 4672.0000000 4672.0000000 -12.22999954 1.0000000000 1.2599999905 1.0099999905
 4673.0000000 4673.0000000 -12.44999981 0.9900000095 1.2799999714 0.9499999881
 4674.0000000 4674.0000000 -12.72999954 0.9800000191 1.2699999809 0.9499999881
 4675.0000000 4675.0000000 -13.18999958 1.0000000000 1.2599999905 0.9700000286
 4676.0000000 4676.0000000 -13.60999966 1.0299999714 1.2300000191 0.9900000095
 4677.0000000 4677.0000000 -13.86999989 1.0900000334 1.2200000286 1.0000000000
 4678.0000000 4678.0000000 -13.90999985 1.1499999762 1.2400000095 1.0099999905
 4679.0000000 4679.0000000 -13.60999966 1.1799999475 1.2799999714 1.0099999905
 4680.0000000 4680.0000000 -12.75000000 1.1799999475 1.3400000334 1.0199999809
 4681.0000000 4681.0000000 -11.38000011 1.1799999475 1.4099999666 1.0299999714
 4682.0000000 4682.0000000 -9.670000076 1.1900000572 1.4700000286 1.0000000000
 4683.0000000 4683.0000000 -8.220000267 1.2200000286 1.5499999523 0.9599999785
 4684.0000000 4684.0000000 -7.280000210 1.2599999905 1.6299999952 0.9900000095
 4685.0000000 4685.0000000 -6.690000057 1.3899999857 1.6499999762 1.0700000525
 4686.0000000 4686.0000000 -6.329999924 1.5499999523 1.6299999952 1.2000000477
 4687.0000000 4687.0000000 -5.929999828 1.6499999762 1.6200000048 1.3500000238
 4688.0000000 4688.0000000 -5.409999847 1.7200000286 1.6299999952 1.5299999714
 4689.0000000 4689.0000000 -5.400000095 1.7300000191 1.6399999857 1.6499999762
 4690.0000000 4690.0000000 -5.570000172 1.7100000381 1.6799999475 1.6900000572
 4691.0000000 4691.0000000 -5.599999905 1.6799999475 1.7300000191 1.6599999666
 4692.0000000 4692.0000000 -5.840000153 1.6299999952 1.7699999809 1.5599999428
 4693.0000000 4693.0000000 -6.090000153 1.6100000143 1.8099999428 1.4800000191
 4694.0000000 4694.0000000 -6.329999924 1.6200000048 1.7599999905 1.4600000381
 4695.0000000 4695.0000000 -6.750000000 1.7500000000 1.5599999428 1.5099999905
 4696.0000000 4696.0000000 -7.679999828 1.8099999428 1.4199999571 1.6399999857
 4697.0000000 4697.0000000 -8.430000305 1.8300000429 1.3700000048 1.8200000525
 4698.0000000 4698.0000000 -9.020000458 1.6399999857 1.3400000334 1.9500000477
 4699.0000000 4699.0000000 -9.529999733 1.4900000095 1.3899999857 1.8400000334
 4700.0000000 4700.0000000 -10.18999958 1.2999999523 1.5000000000 1.4299999475
 4701.0000000 4701.0000000 -10.47999954 1.2000000477 1.5499999523 1.1200000048
 4702.0000000 4702.0000000 -10.31999969 1.1900000572 1.5099999905 1.0000000000
 4703.0000000 4703.0000000 -10.27999973 1.2000000477 1.4400000572 1.0000000000
 4704.0000000 4704.0000000 -10.35000038 1.2100000381 1.4099999666 1.0399999619
 4705.0000000 4705.0000000 -10.39000034 1.2500000000 1.4099999666 1.0499999523
 4706.0000000 4706.0000000 -10.32999992 1.2799999714 1.4400000572 1.0599999428
 4707.0000000 4707.0000000 -9.939999580 1.2799999714 1.4700000286 1.0700000525
 4708.0000000 4708.0000000 -9.050000191 1.2599999905 1.4700000286 1.0800000429
 4709.0000000 4709.0000000 -7.980000019 1.2400000095 1.4600000381 1.1100000143
 4710.0000000 4710.0000000 -6.860000134 1.2300000191 1.4400000572 1.1499999762
 4711.0000000 4711.0000000 -6.199999809 1.1900000572 1.4199999571 1.1599999666
 4712.0000000 4712.0000000 -5.969999790 1.1799999475 1.4099999666 1.1499999762
 4713.0000000 4713.0000000 -6.210000038 1.1900000572 1.4199999571 1.1399999857
 4714.0000000 4714.0000000 -6.949999809 1.2500000000 1.4299999475 1.1399999857
 4715.0000000 4715.0000000 -7.969999790 1.3500000238 1.3700000048 1.1599999666
 4716.0000000 4716.0000000 -8.939999580 1.4400000572 1.2599999905 1.2300000191
 4717.0000000 4717.0000000 -9.409999847 1.5099999905 1.1399999857 1.4700000286
 4718.0000000 4718.0000000 -9.350000381 1.5099999905 1.0800000429 1.7300000191
 4719.0000000 4719.0000000 -8.420000076 1.3600000143 1.1299999952 1.7699999809
 4720.0000000 4720.0000000 -7.369999886 1.1900000572 1.2100000381 1.6399999857
 4721.0000000 4721.0000000 -6.829999924 1.0700000525 1.2599999905 1.3400000334
 4722.0000000 4722.0000000 -7.030000210 1.0700000525 1.2899999619 1.0800000429
 4723.0000000 4723.0000000 -8.720000267 1.1200000048 1.2999999523 1.0299999714
 4724.0000000 4724.0000000 -9.960000038 1.1699999571 1.3300000429 1.0099999905
 4725.0000000 4725.0000000 -10.48999977 1.2000000477 1.3799999952 1.0000000000
 4726.0000000 4726.0000000 -10.47999954 1.2100000381 1.4500000477 0.9900000095
 4727.0000000 4727.0000000 -10.48999977 1.2300000191 1.5099999905 0.9900000095
 4728.0000000 4728.0000000 -10.47999954 1.2400000095 1.5499999523 0.9800000191
 4729.0000000 4729.0000000 -10.39999962 1.2300000191 1.5900000334 0.9700000286
 4730.0000000 4730.0000000 -10.30000019 1.2200000286 1.6399999857 0.9800000191
 4731.0000000 4731.0000000 -10.00000000 1.2699999809 1.6900000572 0.9800000191
 4732.0000000 4732.0000000 -9.409999847 1.3500000238 1.7400000095 0.9399999976
 4733.0000000 4733.0000000 -9.039999962 1.4600000381 1.7799999714 0.9300000072
 4734.0000000 4734.0000000 -8.470000267 1.6499999762 1.8400000334 0.9800000191
 4735.0000000 4735.0000000 -7.920000076 1.8500000238 1.9199999571 1.1200000048
 4736.0000000 4736.0000000 -7.739999771 2.0099999905 2.0000000000 1.2699999809
 4737.0000000 4737.0000000 -7.880000114 2.1099998951 2.0999999046 1.3700000048
 4738.0000000 4738.0000000 -8.159999847 2.2000000477 2.2100000381 1.4600000381
 4739.0000000 4739.0000000 -8.260000229 2.2899999619 2.2999999523 1.5599999428
 4740.0000000 4740.0000000 -8.210000038 2.3699998856 2.3499999046 1.6599999666
 4741.0000000 4741.0000000 -8.329999924 2.4100000858 2.2899999619 1.7500000000
 4742.0000000 4742.0000000 -9.079999924 2.4400000572 2.0099999905 1.8500000238
 4743.0000000 4743.0000000 -10.30000019 2.4700000286 1.8500000238 2.0499999523
 4744.0000000 4744.0000000 -11.36999989 2.2699999809 1.8999999762 2.2799999714
 4745.0000000 4745.0000000 -10.93999958 2.0000000000 1.9900000095 2.3499999046
 4746.0000000 4746.0000000 -9.550000191 1.8099999428 2.0999999046 1.9900000095
 4747.0000000 4747.0000000 -8.750000000 1.7500000000 2.2699999809 1.5000000000
 4748.0000000 4748.0000000 -8.460000038 1.7100000381 2.3399999142 1.3300000429
 4749.0000000 4749.0000000 -8.180000305 1.7300000191 2.1300001144 1.3700000048
 4750.0000000 4750.0000000 -7.750000000 1.7799999714 2.0199999809 1.4600000381
 4751.0000000 4751.0000000 -7.309999943 1.7100000381 2.0000000000 1.5399999619
 4752.0000000 4752.0000000 -6.760000229 1.6200000048 2.0099999905 1.6000000238
 4753.0000000 4753.0000000 -6.269999981 1.6000000238 2.0199999809 1.6100000143
 4754.0000000 4754.0000000 -6.300000191 1.4600000381 2.0299999714 1.5499999523
 4755.0000000 4755.0000000 -6.489999771 1.4600000381 1.9700000286 1.4600000381
