# LAS format log file from PETREL
# Project units are specified as depth units
#==================================================================
~Version information
VERS.   2.0:
WRAP.   NO:
#==================================================================
~Well
STRT .m      4561.0000000 :
STOP .m      7034.0000000 :
STEP .m     1.00000000 :
NULL .        -999.250000 :
COMP.           : COMPANY
WELL.  WELL_5   : WELL
FLD.            : FIELD
LOC.            : LOCATION
SRVC.           : SERVICE COMPANY
DATE.  2023-03-20 17:52:46   : Log Export Date {yyyy-MM-dd HH:mm:ss}
PROV.           : PROVINCE
UWI.   WELL_5   : UNIQUE WELL ID
API.            : API NUMBER
#==================================================================
~Curve
DEPT .m                   : DEPTH
Depth .m                  : Depth
SN .ohm.m                 : SN
ILD .ohm.m                : ILD
~Parameter
#==================================================================
~Ascii
# ...
 6675.0000000 6675.0000000 1.1100000143 0.9399999976
 6676.0000000 6676.0000000 1.1299999952 0.8999999762
 6677.0000000 6677.0000000 1.1499999762 0.8799999952
 6678.0000000 6678.0000000 1.1799999475 0.9700000286
 6679.0000000 6679.0000000 1.3099999428 1.0900000334
 6680.0000000 6680.0000000 1.5499999523 1.2300000191
 6681.0000000 6681.0000000 1.6799999475 1.3700000048
 6682.0000000 6682.0000000 1.8500000238 1.4700000286
 6683.0000000 6683.0000000 2.0099999905 1.5499999523
 6684.0000000 6684.0000000 2.1300001144 1.6499999762
 6685.0000000 6685.0000000 2.5299999714 2.0599999428
 6686.0000000 6686.0000000 3.3699998856 2.8699998856
 6687.0000000 6687.0000000 4.3899998665 3.1500000954
 6688.0000000 6688.0000000 4.9699997902 2.3800001144
 6689.0000000 6689.0000000 3.6700000763 1.7799999714
 6690.0000000 6690.0000000 2.0299999714 1.4099999666
 6691.0000000 6691.0000000 1.6699999571 1.0599999428
 6692.0000000 6692.0000000 1.6000000238 1.0000000000
 6693.0000000 6693.0000000 1.6200000048 1.1200000048
 6694.0000000 6694.0000000 1.7400000095 1.2300000191
 6695.0000000 6695.0000000 1.8500000238 1.2799999714
 6696.0000000 6696.0000000 1.8200000525 1.3200000525
 6697.0000000 6697.0000000 1.8200000525 1.3500000238
 6698.0000000 6698.0000000 1.9800000191 1.5000000000
 6699.0000000 6699.0000000 2.4100000858 1.7300000191
 6700.0000000 6700.0000000 2.9300000668 2.0000000000
 6701.0000000 6701.0000000 3.2000000477 2.1500000954
 6702.0000000 6702.0000000 2.8199999332 2.1900000572
 6703.0000000 6703.0000000 2.6600000858 2.1400001049
 6704.0000000 6704.0000000 2.8599998951 2.1300001144
 6705.0000000 6705.0000000 3.2000000477 2.3800001144
 6706.0000000 6706.0000000 3.4200000763 2.5599999428
 6707.0000000 6707.0000000 3.4000000954 2.5099999905
 6708.0000000 6708.0000000 3.2300000191 2.4100000858
 6709.0000000 6709.0000000 3.0599999428 2.5499999523
 6710.0000000 6710.0000000 3.0099999905 2.6400001049
 6711.0000000 6711.0000000 2.9700000286 1.7100000381
 6712.0000000 6712.0000000 2.1600000858 1.2599999905
 6713.0000000 6713.0000000 1.4500000477 0.9800000191
 6714.0000000 6714.0000000 1.1599999666 0.7699999809
 6715.0000000 6715.0000000 1.0299999714 0.6399999857
 6716.0000000 6716.0000000 0.8700000048 0.6399999857
 6717.0000000 6717.0000000 0.9800000191 0.6399999857
 6718.0000000 6718.0000000 0.9599999785 0.5899999738
 6719.0000000 6719.0000000 0.8999999762 0.5299999714
 6720.0000000 6720.0000000 0.8700000048 0.5400000215
 6721.0000000 6721.0000000 0.8600000143 0.6000000238
 6722.0000000 6722.0000000 0.8999999762 0.6399999857
 6723.0000000 6723.0000000 1.0099999905 0.7500000000
 6724.0000000 6724.0000000 1.1499999762 1.0000000000
 6725.0000000 6725.0000000 1.2699999809 1.1200000048
 6726.0000000 6726.0000000 1.3899999857 1.1900000572
 6727.0000000 6727.0000000 1.4400000572 1.2400000095
 6728.0000000 6728.0000000 1.4500000477 1.2699999809
 6729.0000000 6729.0000000 1.4600000381 1.2899999619
 6730.0000000 6730.0000000 1.4800000191 1.3200000525
 6731.0000000 6731.0000000 1.5000000000 1.3200000525
 6732.0000000 6732.0000000 1.5000000000 1.3200000525
 6733.0000000 6733.0000000 1.4900000095 1.2999999523
 6734.0000000 6734.0000000 1.4099999666 1.2500000000
 6735.0000000 6735.0000000 1.3600000143 1.2000000477
 6736.0000000 6736.0000000 1.3500000238 1.1799999475
 6737.0000000 6737.0000000 1.3899999857 1.2300000191
 6738.0000000 6738.0000000 1.4500000477 1.2899999619
 6739.0000000 6739.0000000 1.4800000191 1.3500000238
 6740.0000000 6740.0000000 1.4800000191 1.3899999857
 6741.0000000 6741.0000000 1.4500000477 1.3799999952
 6742.0000000 6742.0000000 1.3799999952 1.2400000095
 6743.0000000 6743.0000000 1.3099999428 1.0299999714
 6744.0000000 6744.0000000 1.1699999571 0.8799999952
 6745.0000000 6745.0000000 1.0299999714 0.7699999809
 6746.0000000 6746.0000000 0.9700000286 0.6999999881
 6747.0000000 6747.0000000 0.9700000286 0.7200000286
 6748.0000000 6748.0000000 1.0299999714 0.8100000024
 6749.0000000 6749.0000000 1.1200000048 0.9700000286
 6750.0000000 6750.0000000 1.2500000000 1.0900000334
 6751.0000000 6751.0000000 1.3899999857 1.2699999809
 6752.0000000 6752.0000000 1.4900000095 1.3999999762
 6753.0000000 6753.0000000 1.6000000238 1.4600000381
 6754.0000000 6754.0000000 1.7300000191 1.5000000000
 6755.0000000 6755.0000000 1.8600000143 1.5599999428
 6756.0000000 6756.0000000 1.9400000572 1.6399999857
 6757.0000000 6757.0000000 2.1099998951 1.7500000000
 6758.0000000 6758.0000000 2.4200000763 1.9199999571
 6759.0000000 6759.0000000 2.8800001144 2.0999999046
 6760.0000000 6760.0000000 3.2200000286 2.2300000191
 6761.0000000 6761.0000000 3.4800000191 2.3800001144
 6762.0000000 6762.0000000 3.6300001144 2.5499999523
 6763.0000000 6763.0000000 3.8900001049 2.6199998856
 6764.0000000 6764.0000000 4.1199998856 2.6400001049
 6765.0000000 6765.0000000 4.1599998474 2.6199998856
 6766.0000000 6766.0000000 4.0599999428 2.5799999237
 6767.0000000 6767.0000000 4.1399998665 2.5499999523
 6768.0000000 6768.0000000 4.1799998283 2.5599999428
 6769.0000000 6769.0000000 4.1999998093 2.6199998856
 6770.0000000 6770.0000000 4.3400001526 2.7200000286
 6771.0000000 6771.0000000 4.4499998093 2.7799999714
 6772.0000000 6772.0000000 4.2800002098 2.7200000286
 6773.0000000 6773.0000000 4.0000000000 2.6700000763
 6774.0000000 6774.0000000 3.8499999046 2.5999999046
 6775.0000000 6775.0000000 4.0000000000 2.5599999428
 6776.0000000 6776.0000000 4.3299999237 2.5499999523
 6777.0000000 6777.0000000 4.6100001335 2.5999999046
 6778.0000000 6778.0000000 4.9000000954 2.7500000000
 6779.0000000 6779.0000000 5.2199997902 2.9500000477
 6780.0000000 6780.0000000 5.4299998283 3.1400001049
 6781.0000000 6781.0000000 5.1500000954 3.0699999332
 6782.0000000 6782.0000000 4.6199998856 3.0399999619
 6783.0000000 6783.0000000 4.0799999237 3.1700000763
 6784.0000000 6784.0000000 4.2600002289 3.3699998856
 6785.0000000 6785.0000000 5.0500001907 3.6800000668
 6786.0000000 6786.0000000 5.7699999809 4.0399999619
 6787.0000000 6787.0000000 5.8499999046 4.1900000572
 6788.0000000 6788.0000000 5.0900001526 3.4100000858
 6789.0000000 6789.0000000 4.1500000954 2.7500000000
 6790.0000000 6790.0000000 3.2000000477 2.3800001144
 6791.0000000 6791.0000000 2.9300000668 2.2500000000
 6792.0000000 6792.0000000 2.9700000286 2.1900000572
 6793.0000000 6793.0000000 3.0499999523 2.0799999237
 6794.0000000 6794.0000000 2.5899999142 1.7999999523
 6795.0000000 6795.0000000 1.9299999475 1.5099999905
 6796.0000000 6796.0000000 1.6599999666 1.3099999428
 6797.0000000 6797.0000000 1.5399999619 1.1900000572
 6798.0000000 6798.0000000 1.4900000095 1.1599999666
 6799.0000000 6799.0000000 1.4800000191 1.2000000477
 6800.0000000 6800.0000000 1.5099999905 1.2300000191
 6801.0000000 6801.0000000 1.5299999714 1.2699999809
 6802.0000000 6802.0000000 1.5199999809 1.2799999714
 6803.0000000 6803.0000000 1.4600000381 1.1799999475
 6804.0000000 6804.0000000 1.3700000048 1.0900000334
 6805.0000000 6805.0000000 1.3300000429 1.0499999523
 6806.0000000 6806.0000000 1.3799999952 1.0599999428
 6807.0000000 6807.0000000 1.5000000000 1.2200000286
 6808.0000000 6808.0000000 1.7000000477 1.5099999905
 6809.0000000 6809.0000000 1.9299999475 1.7400000095
 6810.0000000 6810.0000000 2.0699999332 1.8200000525
 6811.0000000 6811.0000000 1.9600000381 1.7200000286
 6812.0000000 6812.0000000 1.8300000429 1.6200000048
 6813.0000000 6813.0000000 1.8200000525 1.5700000525
 6814.0000000 6814.0000000 1.8700000048 1.5800000429
 6815.0000000 6815.0000000 1.9199999571 1.6000000238
 6816.0000000 6816.0000000 1.8899999857 1.6100000143
 6817.0000000 6817.0000000 1.8799999952 1.5599999428
 6818.0000000 6818.0000000 1.8400000334 1.4500000477
 6819.0000000 6819.0000000 1.7899999619 1.3700000048
 6820.0000000 6820.0000000 1.8500000238 1.5000000000
 6821.0000000 6821.0000000 2.1099998951 1.7200000286
 6822.0000000 6822.0000000 2.4800000191 2.0899999142
 6823.0000000 6823.0000000 3.0000000000 2.6099998951
 6824.0000000 6824.0000000 3.5899999142 3.3099999428
 6825.0000000 6825.0000000 4.2199997902 3.9500000477
