# LAS format log file from PETREL
# Project units are specified as depth units
#==================================================================
~Version information
VERS.   2.0:
WRAP.   NO:
#==================================================================
~Well
STRT .m      4650.0000000 :
STOP .m      7050.0000000 :
STEP .m     1.00000000 :
NULL .        -999.250000 :
COMP.           : COMPANY
WELL.  WELL_3   : WELL
FLD.            : FIELD
LOC.            : LOCATION
SRVC.           : SERVICE COMPANY
DATE.  2023-03-20 17:52:46   : Log Export Date {yyyy-MM-dd HH:mm:ss}
PROV.           : PROVINCE
UWI.   WELL_3   : UNIQUE WELL ID
API.            : API NUMBER
#==================================================================
~Curve
DEPT .m                   : DEPTH
Depth .m                  : Depth
SP .mV                    : SP
SN .ohm.m                 : SN
LN .ohm.m                 : LN
LAT .ohm.m                : LAT
~Parameter
#==================================================================
~Ascii
# ...
 6996.0000000 6996.0000000 -6.340000153 0.8899999857 0.8799999952 0.6700000167
 6997.0000000 6997.0000000 -6.480000019 0.9800000191 0.9800000191 0.5799999833
 6998.0000000 6998.0000000 -6.550000191 1.0700000525 1.1599999666 0.4499999881
 6999.0000000 6999.0000000 -6.190000057 1.0800000429 1.3099999428 0.4199999869
 7000.0000000 7000.0000000 -5.869999886 1.0700000525 1.4099999666 0.4000000060
 7001.0000000 7001.0000000 -6.170000076 1.1200000048 1.4600000381 0.3700000048
 7002.0000000 7002.0000000 -6.760000229 1.1900000572 1.4700000286 0.3700000048
 7003.0000000 7003.0000000 -7.210000038 1.2500000000 1.4600000381 0.3899999857
 7004.0000000 7004.0000000 -7.340000153 1.3099999428 1.4600000381 0.4600000083
 7005.0000000 7005.0000000 -7.510000229 1.5199999809 1.5099999905 0.6800000072
 7006.0000000 7006.0000000 -9.239999771 2.0799999237 1.5599999428 1.1000000238
 7007.0000000 7007.0000000 -12.02999973 2.9100000858 1.6000000238 1.6499999762
 7008.0000000 7008.0000000 -16.63999939 3.9300000668 1.6599999666 2.0599999428
 7009.0000000 7009.0000000 -20.30999947 4.0700001717 1.9700000286 2.2699999809
 7010.0000000 7010.0000000 -22.64999962 3.5199999809 2.2799999714 2.2799999714
 7011.0000000 7011.0000000 -22.18000031 2.9200000763 2.2000000477 2.1800000668
 7012.0000000 7012.0000000 -18.63999939 2.2599999905 1.4800000191 2.2200000286
 7013.0000000 7013.0000000 -12.96000004 1.5599999428 1.0800000429 2.7599999905
 7014.0000000 7014.0000000 -9.010000229 1.1299999952 0.9200000167 3.5599999428
 7015.0000000 7015.0000000 -7.510000229 1.0199999809 0.8899999857 3.4900000095
 7016.0000000 7016.0000000 -7.139999866 1.0199999809 0.9300000072 2.5199999809
 7017.0000000 7017.0000000 -7.099999905 1.0499999523 1.0900000334 1.4700000286
 7018.0000000 7018.0000000 -7.050000191 1.0900000334 1.2200000286 1.0199999809
 7019.0000000 7019.0000000 -6.909999847 1.1299999952 1.2799999714 0.8700000048
 7020.0000000 7020.0000000 -6.820000172 1.1599999666 1.2899999619 0.7900000215
 7021.0000000 7021.0000000 -6.860000134 1.1599999666 1.2699999809 0.7300000191
 7022.0000000 7022.0000000 -6.880000114 1.1399999857 1.2699999809 0.6999999881
 7023.0000000 7023.0000000 -6.860000134 1.1299999952 1.2699999809 0.7200000286
 7024.0000000 7024.0000000 -6.739999771 1.1499999762 1.2699999809 0.7699999809
 7025.0000000 7025.0000000 -6.480000019 1.1799999475 1.2599999905 0.8299999833
 7026.0000000 7026.0000000 -6.239999771 1.2000000477 1.2400000095 0.9300000072
 7027.0000000 7027.0000000 -5.460000038 1.2000000477 1.1900000572 1.0800000429
 7028.0000000 7028.0000000 -4.840000153 1.1399999857 1.1499999762 1.2400000095
 7029.0000000 7029.0000000 -4.340000153 1.0399999619 1.1799999475 1.2599999905
 7030.0000000 7030.0000000 -3.730000019 0.9900000095 1.1900000572 1.1599999666
 7031.0000000 7031.0000000 -3.289999962 0.9900000095 1.1399999857 1.1100000143
 7032.0000000 7032.0000000 -3.809999943 1.0299999714 1.0700000525 1.2000000477
 7033.0000000 7033.0000000 -4.369999886 0.9399999976 1.0399999619 1.4700000286
 7034.0000000 7034.0000000 -4.389999866 0.8399999738 1.0299999714 1.6799999475
 7035.0000000 7035.0000000 -4.710000038 1.0800000429 1.0800000429 1.6499999762
 7036.0000000 7036.0000000 -5.539999962 1.4800000191 1.1299999952 1.5599999428
 7037.0000000 7037.0000000 -5.980000019 1.7400000095 1.1699999571 1.5399999619
 7038.0000000 7038.0000000 -5.579999924 1.8300000429 1.3300000429 1.6200000048
 7039.0000000 7039.0000000 -5.079999924 1.7400000095 1.4400000572 1.6100000143
 7040.0000000 7040.0000000 -4.690000057 1.6599999666 1.4700000286 1.5499999523
 7041.0000000 7041.0000000 -4.440000057 1.5299999714 1.4299999475 1.5299999714
 7042.0000000 7042.0000000 -4.360000134 1.3600000143 1.3799999952 1.5499999523
 7043.0000000 7043.0000000 -4.199999809 1.2200000286 1.3500000238 1.4900000095
 7044.0000000 7044.0000000 -4.239999771 1.1100000143 1.3500000238 1.3899999857
 7045.0000000 7045.0000000 -4.420000076 1.0800000429 1.3799999952 1.2899999619
 7046.0000000 7046.0000000 -4.539999962 1.1200000048 1.3799999952 1.2100000381
 7047.0000000 7047.0000000 -4.639999866 1.2000000477 1.3600000143 1.1900000572
 7048.0000000 7048.0000000 -4.730000019 1.2599999905 1.2400000095 1.1900000572
 7049.0000000 7049.0000000 -4.860000134 1.2999999523 1.1399999857 1.2799999714
 7050.0000000 7050.0000000 -5.019999981 1.3300000429 1.1000000238 1.5700000525
