# LAS format log file from PETREL
# Project units are specified as depth units
#==================================================================
~Version information
VERS.   2.0:
WRAP.   NO:
#==================================================================
~Well
STRT .m      4561.0000000 :
STOP .m      7034.0000000 :
STEP .m     1.00000000 :
NULL .        -999.250000 :
COMP.           : COMPANY
WELL.  WELL_5   : WELL
FLD.            : FIELD
LOC.            : LOCATION
SRVC.           : SERVICE COMPANY
DATE.  2023-03-20 17:52:46   : Log Export Date {yyyy-MM-dd HH:mm:ss}
PROV.           : PROVINCE
UWI.   WELL_5   : UNIQUE WELL ID
API.            : API NUMBER
#==================================================================
~Curve
DEPT .m                   : DEPTH
Depth .m                  : Depth
SN .ohm.m                 : SN
ILD .ohm.m                : ILD
~Parameter
#==================================================================
~Ascii
# ...
 5467.0000000 5467.0000000 8.0500001907 5.2699999809
 5468.0000000 5468.0000000 8.1700000763 5.1799998283
 5469.0000000 5469.0000000 8.0600004196 5.1199998856
 5470.0000000 5470.0000000 8.0500001907 5.0700001717
 5471.0000000 5471.0000000 8.1000003815 5.0700001717
 5472.0000000 5472.0000000 7.9200000763 5.0999999046
 5473.0000000 5473.0000000 7.7899999619 5.1900000572
 5474.0000000 5474.0000000 7.6500000954 5.4099998474
 5475.0000000 5475.0000000 7.3699998856 5.4200000763
 5476.0000000 5476.0000000 6.8299999237 4.0999999046
 5477.0000000 5477.0000000 5.4899997711 2.8099999428
 5478.0000000 5478.0000000 3.5000000000 2.0799999237
 5479.0000000 5479.0000000 2.4800000191 1.6900000572
 5480.0000000 5480.0000000 2.1700000763 1.5499999523
 5481.0000000 5481.0000000 2.1500000954 1.5599999428
 5482.0000000 5482.0000000 2.1900000572 1.6100000143
 5483.0000000 5483.0000000 2.1900000572 1.6499999762
 5484.0000000 5484.0000000 2.1199998856 1.6100000143
 5485.0000000 5485.0000000 2.0399999619 1.5900000334
 5486.0000000 5486.0000000 1.9900000095 1.6000000238
 5487.0000000 5487.0000000 1.9900000095 1.6299999952
 5488.0000000 5488.0000000 2.0299999714 1.6599999666
 5489.0000000 5489.0000000 2.1099998951 1.7000000477
 5490.0000000 5490.0000000 2.1800000668 1.7200000286
 5491.0000000 5491.0000000 2.2000000477 1.7400000095
 5492.0000000 5492.0000000 2.2100000381 1.7599999905
 5493.0000000 5493.0000000 2.2400000095 1.7999999523
 5494.0000000 5494.0000000 2.3099999428 1.8700000048
 5495.0000000 5495.0000000 2.3900001049 1.9299999475
 5496.0000000 5496.0000000 2.4400000572 1.9199999571
 5497.0000000 5497.0000000 2.4100000858 1.8999999762
 5498.0000000 5498.0000000 2.2899999619 1.8500000238
 5499.0000000 5499.0000000 2.2400000095 1.7200000286
 5500.0000000 5500.0000000 2.1400001049 1.5800000429
 5501.0000000 5501.0000000 1.9199999571 1.4700000286
 5502.0000000 5502.0000000 1.7599999905 1.3700000048
 5503.0000000 5503.0000000 1.7200000286 1.3099999428
 5504.0000000 5504.0000000 1.7400000095 1.3400000334
 5505.0000000 5505.0000000 1.7799999714 1.4099999666
 5506.0000000 5506.0000000 1.8500000238 1.5199999809
 5507.0000000 5507.0000000 2.0000000000 1.6499999762
 5508.0000000 5508.0000000 2.2100000381 1.8200000525
 5509.0000000 5509.0000000 2.4000000954 1.9099999666
 5510.0000000 5510.0000000 2.4900000095 1.9600000381
 5511.0000000 5511.0000000 2.4900000095 2.0299999714
 5512.0000000 5512.0000000 2.5399999619 2.1099998951
 5513.0000000 5513.0000000 2.7400000095 2.2500000000
 5514.0000000 5514.0000000 3.0499999523 2.4400000572
 5515.0000000 5515.0000000 3.4300000668 2.7799999714
 5516.0000000 5516.0000000 3.7699999809 2.8800001144
 5517.0000000 5517.0000000 3.9600000381 2.7899999619
 5518.0000000 5518.0000000 3.8499999046 2.7699999809
 5519.0000000 5519.0000000 3.6500000954 2.8199999332
 5520.0000000 5520.0000000 3.7999999523 2.9400000572
 5521.0000000 5521.0000000 4.3200001717 3.2400000095
 5522.0000000 5522.0000000 4.7199997902 3.7599999905
 5523.0000000 5523.0000000 4.5999999046 3.4100000858
 5524.0000000 5524.0000000 4.0199999809 2.9500000477
 5525.0000000 5525.0000000 3.5299999714 2.6400001049
 5526.0000000 5526.0000000 3.2999999523 2.4600000381
 5527.0000000 5527.0000000 3.3099999428 2.4800000191
 5528.0000000 5528.0000000 3.4600000381 2.5199999809
 5529.0000000 5529.0000000 3.5599999428 2.4800000191
 5530.0000000 5530.0000000 3.4300000668 2.5199999809
 5531.0000000 5531.0000000 3.3299999237 2.7100000381
 5532.0000000 5532.0000000 3.4700000286 2.7999999523
 5533.0000000 5533.0000000 3.5799999237 2.4500000477
 5534.0000000 5534.0000000 2.9600000381 2.0199999809
 5535.0000000 5535.0000000 2.3199999332 1.6000000238
 5536.0000000 5536.0000000 1.9400000572 1.3999999762
 5537.0000000 5537.0000000 1.8600000143 1.3600000143
 5538.0000000 5538.0000000 1.8099999428 1.3500000238
 5539.0000000 5539.0000000 1.7899999619 1.3899999857
 5540.0000000 5540.0000000 1.8099999428 1.4900000095
 5541.0000000 5541.0000000 1.9299999475 1.6100000143
 5542.0000000 5542.0000000 2.1900000572 1.7799999714
 5543.0000000 5543.0000000 2.5000000000 2.0099999905
 5544.0000000 5544.0000000 2.6199998856 2.1800000668
 5545.0000000 5545.0000000 2.4300000668 2.0599999428
 5546.0000000 5546.0000000 2.2500000000 1.9099999666
 5547.0000000 5547.0000000 2.1400001049 1.8300000429
 5548.0000000 5548.0000000 2.0999999046 1.8099999428
 5549.0000000 5549.0000000 2.1199998856 1.7599999905
 5550.0000000 5550.0000000 2.0899999142 1.6000000238
 5551.0000000 5551.0000000 1.9099999666 1.4500000477
 5552.0000000 5552.0000000 1.7100000381 1.3200000525
 5553.0000000 5553.0000000 1.6499999762 1.2999999523
 5554.0000000 5554.0000000 1.6599999666 1.3200000525
 5555.0000000 5555.0000000 1.6699999571 1.3500000238
 5556.0000000 5556.0000000 1.6799999475 1.3899999857
 5557.0000000 5557.0000000 1.6900000572 1.4299999475
 5558.0000000 5558.0000000 1.7400000095 1.4800000191
 5559.0000000 5559.0000000 1.8300000429 1.5399999619
 5560.0000000 5560.0000000 1.8999999762 1.5900000334
 5561.0000000 5561.0000000 1.9600000381 1.6200000048
 5562.0000000 5562.0000000 2.0199999809 1.6699999571
 5563.0000000 5563.0000000 2.1099998951 1.7999999523
 5564.0000000 5564.0000000 2.3099999428 1.9700000286
 5565.0000000 5565.0000000 2.4400000572 2.0799999237
 5566.0000000 5566.0000000 2.5199999809 2.0699999332
 5567.0000000 5567.0000000 2.4400000572 2.0899999142
 5568.0000000 5568.0000000 2.3699998856 2.0699999332
 5569.0000000 5569.0000000 2.4100000858 1.9500000477
 5570.0000000 5570.0000000 2.4300000668 1.8700000048
 5571.0000000 5571.0000000 2.2400000095 1.8200000525
 5572.0000000 5572.0000000 2.0099999905 1.7400000095
 5573.0000000 5573.0000000 1.9700000286 1.6599999666
 5574.0000000 5574.0000000 1.9700000286 1.6100000143
 5575.0000000 5575.0000000 1.9600000381 1.5499999523
 5576.0000000 5576.0000000 1.8600000143 1.4700000286
 5577.0000000 5577.0000000 1.7400000095 1.3999999762
 5578.0000000 5578.0000000 1.6699999571 1.3500000238
 5579.0000000 5579.0000000 1.6799999475 1.3600000143
 5580.0000000 5580.0000000 1.7300000191 1.4099999666
 5581.0000000 5581.0000000 1.7599999905 1.4600000381
 5582.0000000 5582.0000000 1.7999999523 1.5199999809
 5583.0000000 5583.0000000 1.8700000048 1.5800000429
 5584.0000000 5584.0000000 1.9700000286 1.6599999666
 5585.0000000 5585.0000000 2.0999999046 1.7699999809
 5586.0000000 5586.0000000 2.2500000000 1.9400000572
 5587.0000000 5587.0000000 2.4400000572 2.1099998951
 5588.0000000 5588.0000000 2.6800000668 2.2599999905
 5589.0000000 5589.0000000 2.9100000858 2.3599998951
 5590.0000000 5590.0000000 3.0799999237 2.4700000286
 5591.0000000 5591.0000000 3.3299999237 2.6600000858
 5592.0000000 5592.0000000 3.9100000858 2.9200000763
 5593.0000000 5593.0000000 4.4499998093 3.1500000954
 5594.0000000 5594.0000000 4.8099999428 3.4800000191
 5595.0000000 5595.0000000 4.3499999046 3.4300000668
 5596.0000000 5596.0000000 3.7500000000 2.8199999332
 5597.0000000 5597.0000000 3.0000000000 2.1800000668
 5598.0000000 5598.0000000 2.2500000000 1.7899999619
 5599.0000000 5599.0000000 2.0099999905 1.5700000525
 5600.0000000 5600.0000000 1.9099999666 1.4400000572
 5601.0000000 5601.0000000 1.8500000238 1.3899999857
 5602.0000000 5602.0000000 1.7999999523 1.3799999952
 5603.0000000 5603.0000000 1.7599999905 1.4500000477
 5604.0000000 5604.0000000 1.8200000525 1.5700000525
 5605.0000000 5605.0000000 2.0099999905 1.7799999714
 5606.0000000 5606.0000000 2.2300000191 2.0099999905
 5607.0000000 5607.0000000 2.3900001049 2.0099999905
 5608.0000000 5608.0000000 2.4100000858 1.7799999714
 5609.0000000 5609.0000000 2.0899999142 1.5900000334
 5610.0000000 5610.0000000 1.8600000143 1.4900000095
 5611.0000000 5611.0000000 1.7699999809 1.4099999666
 5612.0000000 5612.0000000 1.7500000000 1.4099999666
 5613.0000000 5613.0000000 1.7999999523 1.4600000381
 5614.0000000 5614.0000000 1.8300000429 1.5199999809
 5615.0000000 5615.0000000 1.8600000143 1.5299999714
 5616.0000000 5616.0000000 1.8799999952 1.5399999619
 5617.0000000 5617.0000000 1.8799999952 1.5399999619
