# LAS format log file from PETREL
# Project units are specified as depth units
#==================================================================
~Version information
VERS.   2.0:
WRAP.   NO:
#==================================================================
~Well
STRT .m      4650.0000000 :
STOP .m      7300.0000000 :
STEP .m     1.00000000 :
NULL .        -999.250000 :
COMP.           : COMPANY
WELL.  WELL_6   : WELL
FLD.            : FIELD
LOC.            : LOCATION
SRVC.           : SERVICE COMPANY
DATE.  2023-03-20 17:52:46   : Log Export Date {yyyy-MM-dd HH:mm:ss}
PROV.           : PROVINCE
UWI.   WELL_6   : UNIQUE WELL ID
API.            : API NUMBER
#==================================================================
~Curve
DEPT .m                   : DEPTH
Depth .m                  : Depth
GR .gAPI                  : GR
SP .mV                    : SP
RT .ohm.m                 : RT
~Parameter
#==================================================================
~Ascii
# ...
 5138.0000000 5138.0000000 96.470001221 -1.509999990 1.3500000238
 5139.0000000 5139.0000000 101.43000031 -1.159999967 1.3400000334
 5140.0000000 5140.0000000 104.75000000 -1.250000000 1.2400000095
 5141.0000000 5141.0000000 102.26000214 -2.190000057 1.1900000572
 5142.0000000 5142.0000000 102.69000244 -1.720000029 1.2200000286
 5143.0000000 5143.0000000 96.339996338 -2.470000029 1.3400000334
 5144.0000000 5144.0000000 98.989997864 -2.579999924 1.4199999571
 5145.0000000 5145.0000000 103.58999634 -1.889999986 1.3999999762
 5146.0000000 5146.0000000 108.09999847 -1.370000005 1.2999999523
 5147.0000000 5147.0000000 112.80000305 -1.200000048 1.2200000286
 5148.0000000 5148.0000000 116.54000092 -1.830000043 1.1599999666
 5149.0000000 5149.0000000 113.72000122 -2.650000095 1.1299999952
 5150.0000000 5150.0000000 107.84999847 -3.109999895 1.1499999762
 5151.0000000 5151.0000000 104.88999939 -3.190000057 1.1699999571
 5152.0000000 5152.0000000 97.620002747 -3.319999933 1.1900000572
 5153.0000000 5153.0000000 99.319999695 -3.529999971 1.2000000477
 5154.0000000 5154.0000000 106.08999634 -3.680000067 1.2100000381
 5155.0000000 5155.0000000 103.05000305 -3.670000076 1.2400000095
 5156.0000000 5156.0000000 100.41000366 -3.490000010 1.2999999523
 5157.0000000 5157.0000000 104.23000336 -3.170000076 1.3400000334
 5158.0000000 5158.0000000 106.02999878 -2.619999886 1.3799999952
 5159.0000000 5159.0000000 107.84999847 -2.190000057 1.3999999762
 5160.0000000 5160.0000000 123.70999908 -2.559999943 1.4099999666
 5161.0000000 5161.0000000 138.27000427 -2.829999924 1.4199999571
 5162.0000000 5162.0000000 135.22000122 -2.690000057 1.4600000381
 5163.0000000 5163.0000000 128.72999573 -2.740000010 1.5199999809
 5164.0000000 5164.0000000 120.12999725 -3.630000114 1.5700000525
 5165.0000000 5165.0000000 107.86000061 -4.260000229 1.6200000048
 5166.0000000 5166.0000000 102.43000031 -4.139999866 1.6599999666
 5167.0000000 5167.0000000 104.75000000 -3.339999914 1.6699999571
 5168.0000000 5168.0000000 107.91000366 -1.970000029 1.6399999857
 5169.0000000 5169.0000000 110.18000031 -1.129999995 1.6200000048
 5170.0000000 5170.0000000 105.76000214 -1.509999990 1.6499999762
 5171.0000000 5171.0000000 103.90000153 -1.110000014 1.6799999475
 5172.0000000 5172.0000000 111.77999878 -0.850000024 1.6699999571
 5173.0000000 5173.0000000 102.90000153 -0.709999979 1.6599999666
 5174.0000000 5174.0000000 101.30000305 -1.149999976 1.3300000429
 5175.0000000 5175.0000000 102.55999756 -2.400000095 1.2400000095
 5176.0000000 5176.0000000 112.23999786 -3.000000000 1.2400000095
 5177.0000000 5177.0000000 117.88999939 -2.609999895 1.2699999809
 5178.0000000 5178.0000000 113.41999817 -2.529999971 1.3600000143
 5179.0000000 5179.0000000 107.36000061 -2.789999962 1.5000000000
 5180.0000000 5180.0000000 105.33000183 -2.799999952 1.5199999809
 5181.0000000 5181.0000000 109.27999878 -2.200000048 1.4600000381
 5182.0000000 5182.0000000 116.95999908 -1.759999990 1.4199999571
 5183.0000000 5183.0000000 115.36000061 -2.089999914 1.4299999475
 5184.0000000 5184.0000000 112.80999756 -2.619999886 1.4900000095
 5185.0000000 5185.0000000 118.02999878 -2.940000057 1.5299999714
 5186.0000000 5186.0000000 106.88999939 -3.359999895 1.5700000525
 5187.0000000 5187.0000000 104.55000305 -3.500000000 1.5900000334
 5188.0000000 5188.0000000 106.15000153 -3.519999981 1.6000000238
 5189.0000000 5189.0000000 111.02999878 -3.190000057 1.6100000143
 5190.0000000 5190.0000000 115.95999908 -2.430000067 1.5900000334
 5191.0000000 5191.0000000 112.50000000 -2.200000048 1.5599999428
 5192.0000000 5192.0000000 116.19999695 -2.369999886 1.5199999809
 5193.0000000 5193.0000000 113.83000183 -1.049999952 1.4900000095
 5194.0000000 5194.0000000 109.08999634 -0.109999999 1.4700000286
 5195.0000000 5195.0000000 111.55000305 -0.740000010 1.4500000477
 5196.0000000 5196.0000000 111.66999817 -1.629999995 1.4600000381
 5197.0000000 5197.0000000 114.41999817 -2.460000038 1.5000000000
 5198.0000000 5198.0000000 115.66999817 -3.230000019 1.5900000334
 5199.0000000 5199.0000000 115.29000092 -3.400000095 1.6900000572
 5200.0000000 5200.0000000 109.95999908 -3.069999933 1.8200000525
 5201.0000000 5201.0000000 111.83999634 -3.670000076 2.0299999714
 5202.0000000 5202.0000000 110.23999786 -4.420000076 2.2400000095
 5203.0000000 5203.0000000 104.83000183 -4.440000057 2.4000000954
 5204.0000000 5204.0000000 101.63999939 -4.139999866 2.5299999714
 5205.0000000 5205.0000000 103.62999725 -3.650000095 2.6600000858
 5206.0000000 5206.0000000 106.98999786 -2.700000048 2.5899999142
 5207.0000000 5207.0000000 119.88999939 -2.049999952 2.0699999332
 5208.0000000 5208.0000000 121.16000366 -1.870000005 1.6499999762
 5209.0000000 5209.0000000 116.30999756 -1.860000014 1.5599999428
 5210.0000000 5210.0000000 112.48000336 -2.160000086 1.5599999428
 5211.0000000 5211.0000000 107.58000183 -2.670000076 1.6399999857
 5212.0000000 5212.0000000 107.19000244 -3.309999943 1.7400000095
 5213.0000000 5213.0000000 112.19000244 -3.319999933 1.8600000143
 5214.0000000 5214.0000000 115.43000031 -2.920000076 1.9700000286
 5215.0000000 5215.0000000 110.00000000 -2.140000105 1.9400000572
 5216.0000000 5216.0000000 107.20999908 -1.110000014 1.8500000238
 5217.0000000 5217.0000000 115.16999817 -0.340000004 1.7400000095
 5218.0000000 5218.0000000 113.27999878 -0.519999981 1.7200000286
 5219.0000000 5219.0000000 111.18000031 -1.210000038 1.5800000429
 5220.0000000 5220.0000000 109.23999786 -1.769999981 1.5299999714
 5221.0000000 5221.0000000 109.41999817 -2.400000095 1.5299999714
 5222.0000000 5222.0000000 109.47000122 -2.789999962 1.6100000143
 5223.0000000 5223.0000000 105.72000122 -2.789999962 1.7300000191
 5224.0000000 5224.0000000 109.37999725 -3.450000048 1.8899999857
 5225.0000000 5225.0000000 113.91000366 -3.809999943 2.0499999523
 5226.0000000 5226.0000000 105.56999969 -2.599999905 2.0499999523
 5227.0000000 5227.0000000 109.87000275 -1.379999995 2.0099999905
 5228.0000000 5228.0000000 115.79000092 -1.059999943 2.0699999332
 5229.0000000 5229.0000000 113.61000061 -2.220000029 2.1300001144
 5230.0000000 5230.0000000 107.58000183 -3.000000000 2.1800000668
 5231.0000000 5231.0000000 106.66000366 -3.170000076 2.3699998856
 5232.0000000 5232.0000000 104.61000061 -3.009999990 1.8400000334
 5233.0000000 5233.0000000 107.97000122 -2.980000019 1.7699999809
 5234.0000000 5234.0000000 114.41999817 -3.660000086 1.6699999571
 5235.0000000 5235.0000000 114.83000183 -3.950000048 1.6599999666
 5236.0000000 5236.0000000 103.70999908 -3.599999905 1.7100000381
 5237.0000000 5237.0000000 107.25000000 -2.849999905 1.7599999905
 5238.0000000 5238.0000000 113.83999634 -1.889999986 1.8200000525
 5239.0000000 5239.0000000 114.52999878 -1.210000038 1.8799999952
 5240.0000000 5240.0000000 108.93000031 -0.889999986 1.9500000477
 5241.0000000 5241.0000000 109.98999786 -1.019999981 1.9700000286
 5242.0000000 5242.0000000 118.58999634 -1.399999976 1.9900000095
 5243.0000000 5243.0000000 122.19000244 -1.870000005 1.9500000477
 5244.0000000 5244.0000000 115.62999725 -3.109999895 1.9400000572
 5245.0000000 5245.0000000 111.19000244 -3.539999962 1.9800000191
 5246.0000000 5246.0000000 113.61000061 -2.980000019 2.0499999523
 5247.0000000 5247.0000000 108.66999817 -3.819999933 2.0899999142
 5248.0000000 5248.0000000 109.38999939 -3.099999905 2.1500000954
 5249.0000000 5249.0000000 118.56999969 -1.950000048 1.9199999571
 5250.0000000 5250.0000000 114.38999939 -1.070000052 1.6200000048
 5251.0000000 5251.0000000 108.70999908 -0.600000024 1.5299999714
 5252.0000000 5252.0000000 106.84999847 -0.509999990 1.5000000000
 5253.0000000 5253.0000000 112.33999634 -0.689999998 1.5700000525
 5254.0000000 5254.0000000 118.87000275 -0.759999990 1.6100000143
 5255.0000000 5255.0000000 114.98000336 -1.470000029 1.4700000286
 5256.0000000 5256.0000000 126.45999908 -2.220000029 1.4600000381
 5257.0000000 5257.0000000 124.80000305 -2.059999943 1.4800000191
 5258.0000000 5258.0000000 103.95999908 -2.009999990 1.5399999619
 5259.0000000 5259.0000000 100.77999878 -2.349999905 1.6100000143
