# LAS format log file from PETREL
# Project units are specified as depth units
#==================================================================
~Version information
VERS.   2.0:
WRAP.   NO:
#==================================================================
~Well
STRT .m      4650.0000000 :
STOP .m      7050.0000000 :
STEP .m     1.00000000 :
NULL .        -999.250000 :
COMP.           : COMPANY
WELL.  WELL_3   : WELL
FLD.            : FIELD
LOC.            : LOCATION
SRVC.           : SERVICE COMPANY
DATE.  2023-03-20 17:52:46   : Log Export Date {yyyy-MM-dd HH:mm:ss}
PROV.           : PROVINCE
UWI.   WELL_3   : UNIQUE WELL ID
API.            : API NUMBER
#==================================================================
~Curve
DEPT .m                   : DEPTH
Depth .m                  : Depth
SP .mV                    : SP
SN .ohm.m                 : SN
LN .ohm.m                 : LN
LAT .ohm.m                : LAT
~Parameter
#==================================================================
~Ascii
# ...
 5772.0000000 5772.0000000 -6.159999847 1.6399999857 1.7300000191 2.5499999523
 5773.0000000 5773.0000000 -5.199999809 1.5499999523 1.8099999428 2.4300000668
 5774.0000000 5774.0000000 -4.949999809 1.4400000572 1.8899999857 2.1099998951
 5775.0000000 5775.0000000 -5.000000000 1.4199999571 1.9400000572 1.9700000286
 5776.0000000 5776.0000000 -5.070000172 1.4099999666 1.9099999666 1.9700000286
 5777.0000000 5777.0000000 -5.239999771 1.4299999475 1.8300000429 1.9900000095
 5778.0000000 5778.0000000 -6.219999790 1.4900000095 1.7500000000 1.9900000095
 5779.0000000 5779.0000000 -7.010000229 1.5599999428 1.7200000286 2.0099999905
 5780.0000000 5780.0000000 -7.539999962 1.6399999857 1.6900000572 2.1099998951
 5781.0000000 5781.0000000 -7.869999886 1.6799999475 1.6599999666 2.1800000668
 5782.0000000 5782.0000000 -8.149999619 1.6599999666 1.7100000381 2.1800000668
 5783.0000000 5783.0000000 -7.469999790 1.6200000048 1.7799999714 2.0599999428
 5784.0000000 5784.0000000 -6.880000114 1.6000000238 1.8300000429 1.8600000143
 5785.0000000 5785.0000000 -7.260000229 1.6399999857 1.8700000048 1.7000000477
 5786.0000000 5786.0000000 -7.969999790 1.6900000572 1.8899999857 1.6799999475
 5787.0000000 5787.0000000 -8.550000191 1.7100000381 1.8700000048 1.7599999905
 5788.0000000 5788.0000000 -8.949999809 1.7699999809 1.8400000334 1.8500000238
 5789.0000000 5789.0000000 -9.119999886 1.8099999428 1.8300000429 1.8700000048
 5790.0000000 5790.0000000 -9.300000191 1.8300000429 1.8799999952 1.8600000143
 5791.0000000 5791.0000000 -9.479999542 1.8500000238 1.9900000095 1.9099999666
 5792.0000000 5792.0000000 -9.449999809 1.8700000048 2.0899999142 1.8799999952
 5793.0000000 5793.0000000 -9.210000038 1.9299999475 2.1400001049 1.7899999619
 5794.0000000 5794.0000000 -9.140000343 2.0899999142 2.1700000763 1.7699999809
 5795.0000000 5795.0000000 -10.07999992 2.2799999714 2.2300000191 1.9099999666
 5796.0000000 5796.0000000 -11.14999962 2.5000000000 2.2400000095 2.0899999142
 5797.0000000 5797.0000000 -11.98999977 2.6500000954 2.2000000477 2.2400000095
 5798.0000000 5798.0000000 -12.60000038 2.7400000095 2.2699999809 2.3599998951
 5799.0000000 5799.0000000 -12.30000019 2.6600000858 2.3299999237 2.5299999714
 5800.0000000 5800.0000000 -11.47000027 2.5099999905 2.2400000095 2.6500000954
 5801.0000000 5801.0000000 -10.52000046 2.4000000954 2.0299999714 2.7100000381
 5802.0000000 5802.0000000 -9.569999695 2.2500000000 1.9400000572 2.8800001144
 5803.0000000 5803.0000000 -8.420000076 1.9900000095 1.8899999857 2.9100000858
 5804.0000000 5804.0000000 -7.690000057 1.7699999809 1.8600000143 2.5999999046
 5805.0000000 5805.0000000 -8.000000000 1.6000000238 1.9099999666 2.0499999523
 5806.0000000 5806.0000000 -8.329999924 1.5000000000 1.9400000572 1.7999999523
 5807.0000000 5807.0000000 -8.500000000 1.4700000286 1.9099999666 1.6799999475
 5808.0000000 5808.0000000 -8.289999962 1.4600000381 1.8300000429 1.5499999523
 5809.0000000 5809.0000000 -7.539999962 1.4299999475 1.8200000525 1.5199999809
 5810.0000000 5810.0000000 -6.480000019 1.3999999762 1.8400000334 1.5800000429
 5811.0000000 5811.0000000 -5.289999962 1.3999999762 1.8500000238 1.5399999619
 5812.0000000 5812.0000000 -4.489999771 1.3899999857 1.8899999857 1.4700000286
 5813.0000000 5813.0000000 -4.280000210 1.3799999952 1.9299999475 1.4600000381
 5814.0000000 5814.0000000 -4.369999886 1.4199999571 1.8700000048 1.5199999809
 5815.0000000 5815.0000000 -4.909999847 1.5099999905 1.8700000048 1.5800000429
 5816.0000000 5816.0000000 -6.420000076 1.6499999762 1.9400000572 1.6699999571
 5817.0000000 5817.0000000 -7.829999924 1.7999999523 2.0299999714 1.8300000429
 5818.0000000 5818.0000000 -8.859999657 1.9299999475 2.2200000286 1.8999999762
 5819.0000000 5819.0000000 -10.92000008 2.1600000858 2.4200000763 1.8899999857
 5820.0000000 5820.0000000 -12.85999966 2.5099999905 2.6199998856 2.0299999714
 5821.0000000 5821.0000000 -13.23999977 2.9200000763 2.6900000572 2.3800001144
 5822.0000000 5822.0000000 -13.05000019 3.0999999046 2.7000000477 2.7400000095
 5823.0000000 5823.0000000 -12.55000019 3.0599999428 2.7400000095 3.0699999332
 5824.0000000 5824.0000000 -11.38000011 2.7500000000 2.7500000000 3.2599999905
 5825.0000000 5825.0000000 -10.06000042 2.4900000095 2.6400001049 3.2000000477
 5826.0000000 5826.0000000 -9.010000229 2.2599999905 2.5099999905 3.0399999619
 5827.0000000 5827.0000000 -8.510000229 1.9900000095 2.4200000763 2.9300000668
 5828.0000000 5828.0000000 -7.570000172 1.8300000429 2.3099999428 2.7999999523
 5829.0000000 5829.0000000 -6.699999809 1.6699999571 2.2699999809 2.4200000763
 5830.0000000 5830.0000000 -6.079999924 1.5700000525 2.2699999809 2.1300001144
 5831.0000000 5831.0000000 -5.760000229 1.6000000238 2.1400001049 1.9500000477
 5832.0000000 5832.0000000 -6.449999809 1.6599999666 1.9299999475 1.8500000238
 5833.0000000 5833.0000000 -7.099999905 1.7000000477 1.8300000429 1.9099999666
 5834.0000000 5834.0000000 -6.719999790 1.6699999571 1.8099999428 1.9800000191
 5835.0000000 5835.0000000 -5.780000210 1.5900000334 1.8300000429 2.0299999714
 5836.0000000 5836.0000000 -5.219999790 1.5199999809 1.8500000238 1.9299999475
 5837.0000000 5837.0000000 -5.429999828 1.4600000381 1.8600000143 1.8500000238
 5838.0000000 5838.0000000 -6.059999943 1.4500000477 1.8099999428 1.8600000143
 5839.0000000 5839.0000000 -6.599999905 1.4800000191 1.7999999523 1.9400000572
 5840.0000000 5840.0000000 -7.000000000 1.4900000095 1.8400000334 1.9600000381
 5841.0000000 5841.0000000 -6.619999886 1.5199999809 1.9199999571 1.9099999666
 5842.0000000 5842.0000000 -6.409999847 1.5900000334 2.0000000000 1.8700000048
 5843.0000000 5843.0000000 -7.190000057 1.6900000572 2.0699999332 1.8899999857
 5844.0000000 5844.0000000 -8.180000305 1.8300000429 2.1400001049 2.0199999809
 5845.0000000 5845.0000000 -9.560000420 2.0299999714 2.1800000668 2.0799999237
 5846.0000000 5846.0000000 -10.46000004 2.2799999714 2.2400000095 2.1099998951
 5847.0000000 5847.0000000 -11.18999958 2.4700000286 2.3399999142 2.3199999332
 5848.0000000 5848.0000000 -11.68000031 2.6500000954 2.4400000572 2.4800000191
 5849.0000000 5849.0000000 -11.97000027 2.8199999332 2.4900000095 2.5599999428
 5850.0000000 5850.0000000 -12.31999969 2.9500000477 2.5199999809 2.5899999142
 5851.0000000 5851.0000000 -12.35000038 2.9300000668 2.4500000477 2.7500000000
 5852.0000000 5852.0000000 -12.02999973 2.7899999619 2.3299999237 2.9800000191
 5853.0000000 5853.0000000 -11.39999962 2.4300000668 2.1400001049 2.9500000477
 5854.0000000 5854.0000000 -10.27999973 2.1099998951 2.0599999428 2.8599998951
 5855.0000000 5855.0000000 -8.710000038 1.8500000238 2.0499999523 2.5299999714
 5856.0000000 5856.0000000 -7.469999790 1.6399999857 2.1099998951 2.2100000381
 5857.0000000 5857.0000000 -6.650000095 1.5700000525 2.1500000954 1.9099999666
 5858.0000000 5858.0000000 -6.500000000 1.5800000429 2.1600000858 1.7100000381
 5859.0000000 5859.0000000 -7.010000229 1.5800000429 2.1500000954 1.6399999857
 5860.0000000 5860.0000000 -7.440000057 1.6000000238 2.1300001144 1.6100000143
 5861.0000000 5861.0000000 -8.149999619 1.7000000477 2.1300001144 1.5700000525
 5862.0000000 5862.0000000 -9.210000038 1.8099999428 2.2000000477 1.5800000429
 5863.0000000 5863.0000000 -10.21000004 2.0199999809 2.2400000095 1.6699999571
 5864.0000000 5864.0000000 -11.52999973 2.2599999905 2.2100000381 1.8700000048
 5865.0000000 5865.0000000 -12.85999966 2.4600000381 2.1600000858 2.2100000381
 5866.0000000 5866.0000000 -12.86999989 2.5599999428 2.0999999046 2.4800000191
 5867.0000000 5867.0000000 -11.67000008 2.4100000858 2.1400001049 2.6500000954
 5868.0000000 5868.0000000 -10.60999966 2.2400000095 2.2599999905 2.6099998951
 5869.0000000 5869.0000000 -9.989999771 2.0799999237 2.3699998856 2.3800001144
 5870.0000000 5870.0000000 -9.689999580 2.0299999714 2.4400000572 2.2500000000
 5871.0000000 5871.0000000 -10.17000008 2.0499999523 2.4600000381 2.1400001049
 5872.0000000 5872.0000000 -10.89000034 2.0999999046 2.4900000095 2.1099998951
 5873.0000000 5873.0000000 -11.31000042 2.2100000381 2.5999999046 2.1400001049
