# LAS format log file from PETREL
# Project units are specified as depth units
#==================================================================
~Version information
VERS.   2.0:
WRAP.   NO:
#==================================================================
~Well
STRT .m      4650.0000000 :
STOP .m      7300.0000000 :
STEP .m     1.00000000 :
NULL .        -999.250000 :
COMP.           : COMPANY
WELL.  WELL_6   : WELL
FLD.            : FIELD
LOC.            : LOCATION
SRVC.           : SERVICE COMPANY
DATE.  2023-03-20 17:52:46   : Log Export Date {yyyy-MM-dd HH:mm:ss}
PROV.           : PROVINCE
UWI.   WELL_6   : UNIQUE WELL ID
API.            : API NUMBER
#==================================================================
~Curve
DEPT .m                   : DEPTH
Depth .m                  : Depth
GR .gAPI                  : GR
SP .mV                    : SP
RT .ohm.m                 : RT
~Parameter
#==================================================================
~Ascii
# ...
 5626.0000000 5626.0000000 121.51000214 -9.279999733 3.8699998856
 5627.0000000 5627.0000000 121.29000092 -6.610000134 2.5899999142
 5628.0000000 5628.0000000 126.68000031 -4.239999771 1.8799999952
 5629.0000000 5629.0000000 130.13999939 -3.480000019 1.5900000334
 5630.0000000 5630.0000000 123.13999939 -3.440000057 1.4199999571
 5631.0000000 5631.0000000 117.66999817 -4.139999866 1.4099999666
 5632.0000000 5632.0000000 126.58000183 -3.059999943 1.3799999952
 5633.0000000 5633.0000000 130.07000732 -2.049999952 1.3700000048
 5634.0000000 5634.0000000 136.10000610 -1.259999990 1.5000000000
 5635.0000000 5635.0000000 138.86999512 -1.970000029 1.7300000191
 5636.0000000 5636.0000000 122.56999969 -3.900000095 2.1700000763
 5637.0000000 5637.0000000 116.98999786 -4.650000095 2.7300000191
 5638.0000000 5638.0000000 116.48999786 -4.690000057 2.5799999237
 5639.0000000 5639.0000000 117.33999634 -4.250000000 2.5099999905
 5640.0000000 5640.0000000 123.13999939 -3.700000048 2.3599998951
 5641.0000000 5641.0000000 124.76999664 -3.599999905 2.1700000763
 5642.0000000 5642.0000000 121.56999969 -4.389999866 1.9600000381
 5643.0000000 5643.0000000 119.19000244 -4.769999981 1.8300000429
 5644.0000000 5644.0000000 123.69000244 -4.119999886 1.7599999905
 5645.0000000 5645.0000000 126.13999939 -2.869999886 1.7599999905
 5646.0000000 5646.0000000 123.19999695 -1.000000000 1.7699999809
 5647.0000000 5647.0000000 120.90000153 -1.389999986 1.7799999714
 5648.0000000 5648.0000000 120.69999695 -2.869999886 1.7899999619
 5649.0000000 5649.0000000 124.12999725 -3.549999952 1.8200000525
 5650.0000000 5650.0000000 128.91000366 -4.010000229 1.8799999952
 5651.0000000 5651.0000000 127.77999878 -5.630000114 2.0799999237
 5652.0000000 5652.0000000 121.73000336 -9.819999695 2.3699998856
 5653.0000000 5653.0000000 117.73000336 -13.14000034 2.6400001049
 5654.0000000 5654.0000000 114.16000366 -15.18000031 2.8699998856
 5655.0000000 5655.0000000 110.66000366 -13.76000023 2.8800001144
 5656.0000000 5656.0000000 110.94999695 -7.320000172 2.5499999523
 5657.0000000 5657.0000000 120.68000031 -3.190000057 2.0299999714
 5658.0000000 5658.0000000 132.07000732 -2.230000019 1.7699999809
 5659.0000000 5659.0000000 143.72000122 -3.829999924 1.7200000286
 5660.0000000 5660.0000000 144.49000549 -5.380000114 1.8500000238
 5661.0000000 5661.0000000 130.14999390 -6.630000114 2.0799999237
 5662.0000000 5662.0000000 122.63999939 -8.430000305 2.3499999046
 5663.0000000 5663.0000000 118.58000183 -11.61999989 2.5899999142
 5664.0000000 5664.0000000 116.29000092 -15.85000038 2.8099999428
 5665.0000000 5665.0000000 124.12999725 -17.64999962 3.0099999905
 5666.0000000 5666.0000000 118.38999939 -14.85000038 3.0199999809
 5667.0000000 5667.0000000 117.86000061 -9.250000000 2.6900000572
 5668.0000000 5668.0000000 121.95999908 -5.480000019 2.0699999332
 5669.0000000 5669.0000000 118.62000275 -2.319999933 1.7599999905
 5670.0000000 5670.0000000 118.95999908 -2.190000057 1.6000000238
 5671.0000000 5671.0000000 117.63999939 -2.789999962 1.5499999523
 5672.0000000 5672.0000000 117.29000092 -2.579999924 1.6200000048
 5673.0000000 5673.0000000 106.65000153 -3.930000067 1.7000000477
 5674.0000000 5674.0000000 104.00000000 -4.860000134 1.7799999714
 5675.0000000 5675.0000000 108.22000122 -3.930000067 1.7899999619
 5676.0000000 5676.0000000 121.66999817 -3.579999924 1.8700000048
 5677.0000000 5677.0000000 121.58000183 -4.320000172 2.0099999905
 5678.0000000 5678.0000000 107.73999786 -5.949999809 2.2999999523
 5679.0000000 5679.0000000 110.83000183 -7.139999866 2.5299999714
 5680.0000000 5680.0000000 122.62000275 -7.869999886 2.5799999237
 5681.0000000 5681.0000000 134.85000610 -7.690000057 2.4300000668
 5682.0000000 5682.0000000 135.74000549 -7.159999847 2.1600000858
 5683.0000000 5683.0000000 130.32000732 -6.119999886 1.9199999571
 5684.0000000 5684.0000000 134.13000488 -5.349999905 1.9099999666
 5685.0000000 5685.0000000 142.92999268 -8.239999771 2.0199999809
 5686.0000000 5686.0000000 137.08000183 -11.97000027 2.1900000572
 5687.0000000 5687.0000000 141.36000061 -14.39000034 2.4100000858
 5688.0000000 5688.0000000 143.88999939 -13.31999969 2.5399999619
 5689.0000000 5689.0000000 132.05000305 -9.939999580 2.4500000477
 5690.0000000 5690.0000000 117.72000122 -5.460000038 2.0699999332
 5691.0000000 5691.0000000 119.05999756 -3.269999981 1.7999999523
 5692.0000000 5692.0000000 125.41000366 -2.339999914 1.5900000334
 5693.0000000 5693.0000000 129.27000427 -2.819999933 1.5099999905
 5694.0000000 5694.0000000 124.36000061 -2.549999952 1.5700000525
 5695.0000000 5695.0000000 113.33999634 -2.250000000 1.6900000572
 5696.0000000 5696.0000000 104.47000122 -3.140000105 1.8500000238
 5697.0000000 5697.0000000 109.86000061 -3.740000010 2.1700000763
 5698.0000000 5698.0000000 121.90000153 -3.930000067 1.7799999714
 5699.0000000 5699.0000000 130.00000000 -3.329999924 1.6200000048
 5700.0000000 5700.0000000 127.22000122 -2.089999914 1.5800000429
 5701.0000000 5701.0000000 126.29000092 -2.460000038 1.7300000191
 5702.0000000 5702.0000000 133.69000244 -2.809999943 2.0499999523
 5703.0000000 5703.0000000 138.11000061 -2.700000048 2.2599999905
 5704.0000000 5704.0000000 143.50999451 -4.170000076 2.2400000095
 5705.0000000 5705.0000000 151.46000671 -4.659999847 2.2899999619
 5706.0000000 5706.0000000 156.46000671 -4.250000000 2.2699999809
 5707.0000000 5707.0000000 147.25000000 -4.849999905 2.0499999523
 5708.0000000 5708.0000000 130.27000427 -5.139999866 1.8099999428
 5709.0000000 5709.0000000 133.00000000 -4.260000229 1.7000000477
 5710.0000000 5710.0000000 153.16999817 -3.009999990 1.6799999475
 5711.0000000 5711.0000000 154.60000610 -3.609999895 1.7500000000
 5712.0000000 5712.0000000 151.46000671 -4.210000038 1.9400000572
 5713.0000000 5713.0000000 154.38000488 -4.039999962 2.1600000858
 5714.0000000 5714.0000000 140.78999329 -5.289999962 2.3900001049
 5715.0000000 5715.0000000 132.14999390 -5.630000114 2.6700000763
 5716.0000000 5716.0000000 135.94000244 -7.000000000 2.9100000858
 5717.0000000 5717.0000000 143.75000000 -9.079999924 3.0000000000
 5718.0000000 5718.0000000 146.19999695 -9.229999542 3.0299999714
 5719.0000000 5719.0000000 144.38999939 -9.819999695 3.0499999523
 5720.0000000 5720.0000000 140.88999939 -12.01000023 3.0799999237
 5721.0000000 5721.0000000 128.00999451 -15.34000015 3.2000000477
 5722.0000000 5722.0000000 116.54000092 -17.69000053 3.3900001049
 5723.0000000 5723.0000000 111.12999725 -18.47999954 3.5000000000
 5724.0000000 5724.0000000 110.48999786 -18.26000023 3.5699999332
 5725.0000000 5725.0000000 109.59999847 -17.02000046 3.5699999332
 5726.0000000 5726.0000000 116.56999969 -15.86999989 3.5399999619
 5727.0000000 5727.0000000 134.86000061 -15.69999981 3.5699999332
 5728.0000000 5728.0000000 133.49000549 -15.05000019 3.6600000858
 5729.0000000 5729.0000000 124.05999756 -13.71000004 3.8199999332
 5730.0000000 5730.0000000 137.75000000 -12.50000000 4.0100002289
 5731.0000000 5731.0000000 145.08999634 -10.78999996 3.6099998951
 5732.0000000 5732.0000000 134.10000610 -8.949999809 3.3599998951
 5733.0000000 5733.0000000 129.57000732 -7.840000153 3.0699999332
 5734.0000000 5734.0000000 129.13999939 -6.480000019 2.7100000381
 5735.0000000 5735.0000000 140.66000366 -4.070000172 2.9100000858
 5736.0000000 5736.0000000 148.61999512 -1.549999952 1.9800000191
 5737.0000000 5737.0000000 139.94000244 -0.159999996 1.7300000191
 5738.0000000 5738.0000000 133.08999634 -1.240000010 1.6299999952
 5739.0000000 5739.0000000 134.86000061 -1.940000057 1.6799999475
 5740.0000000 5740.0000000 140.10000610 -1.830000043 1.6399999857
 5741.0000000 5741.0000000 135.63999939 -1.700000048 1.7599999905
 5742.0000000 5742.0000000 118.66000366 -1.899999976 2.1099998951
 5743.0000000 5743.0000000 111.63999939 -2.660000086 1.9600000381
 5744.0000000 5744.0000000 116.50000000 -3.430000067 1.5800000429
 5745.0000000 5745.0000000 121.40000153 -2.809999943 1.5099999905
 5746.0000000 5746.0000000 126.47000122 -1.480000019 1.5199999809
 5747.0000000 5747.0000000 131.89999390 -0.230000004 1.5800000429
