# LAS format log file from PETREL
# Project units are specified as depth units
#==================================================================
~Version information
VERS.   2.0:
WRAP.   NO:
#==================================================================
~Well
STRT .m      3000.0000000 :
STOP .m      7750.0000000 :
STEP .m     1.00000000 :
NULL .        -999.250000 :
COMP.           : COMPANY
WELL.  WELL_2   : WELL
FLD.            : FIELD
LOC.            : LOCATION
SRVC.           : SERVICE COMPANY
DATE.  2023-03-20 17:52:46   : Log Export Date {yyyy-MM-dd HH:mm:ss}
PROV.           : PROVINCE
UWI.   WELL_2   : UNIQUE WELL ID
API.            : API NUMBER
#==================================================================
~Curve
DEPT .m                   : DEPTH
Depth .m                  : Depth
SP .mV                    : SP
SN .ohm.m                 : SN
LN .ohm.m                 : LN
LAT .ohm.m                : LAT
~Parameter
#==================================================================
~Ascii
# ...
 7692.0000000 7692.0000000 -23.10000038 2.2500000000 2.0599999428 2.0599999428
 7693.0000000 7693.0000000 -22.65999985 2.1900000572 2.0299999714 2.0299999714
 7694.0000000 7694.0000000 -22.10000038 2.2000000477 2.0000000000 2.0000000000
 7695.0000000 7695.0000000 -21.20999908 2.2100000381 1.9800000191 1.9800000191
 7696.0000000 7696.0000000 -19.72999954 2.2599999905 1.9700000286 1.9700000286
 7697.0000000 7697.0000000 -17.62999916 2.2799999714 1.9700000286 1.9700000286
 7698.0000000 7698.0000000 -16.22999954 2.2799999714 1.9700000286 1.9700000286
 7699.0000000 7699.0000000 -15.25000000 2.2699999809 1.9600000381 1.9600000381
 7700.0000000 7700.0000000 -14.19999981 2.2899999619 1.9600000381 1.9600000381
 7701.0000000 7701.0000000 -12.92000008 2.2699999809 1.9700000286 1.9700000286
 7702.0000000 7702.0000000 -11.43000031 2.2500000000 1.9700000286 1.9700000286
 7703.0000000 7703.0000000 -10.07999992 2.2200000286 1.9700000286 1.9700000286
 7704.0000000 7704.0000000 -8.680000305 2.1800000668 1.9800000191 1.9800000191
 7705.0000000 7705.0000000 -7.289999962 2.1300001144 1.9700000286 1.9700000286
 7706.0000000 7706.0000000 -6.500000000 2.0499999523 1.9600000381 1.9600000381
 7707.0000000 7707.0000000 -6.039999962 1.9700000286 1.9199999571 1.9199999571
 7708.0000000 7708.0000000 -5.500000000 2.0000000000 1.8700000048 1.8700000048
 7709.0000000 7709.0000000 -5.219999790 2.1800000668 1.8099999428 1.8099999428
 7710.0000000 7710.0000000 -6.210000038 2.3299999237 1.7899999619 1.7899999619
 7711.0000000 7711.0000000 -6.309999943 2.2799999714 1.7899999619 1.7899999619
 7712.0000000 7712.0000000 -5.869999886 2.2000000477 1.7899999619 1.7899999619
 7713.0000000 7713.0000000 -5.409999847 2.0799999237 1.7699999809 1.7699999809
 7714.0000000 7714.0000000 -5.400000095 1.9600000381 1.7300000191 1.7300000191
 7715.0000000 7715.0000000 -6.590000153 1.9700000286 1.6900000572 1.6900000572
 7716.0000000 7716.0000000 -9.100000381 2.5999999046 1.6200000048 1.6200000048
 7717.0000000 7717.0000000 -10.40999985 2.9400000572 1.5299999714 1.5299999714
 7718.0000000 7718.0000000 -13.52999973 3.5099999905 1.4600000381 1.4600000381
 7719.0000000 7719.0000000 -16.94000053 3.7000000477 1.4099999666 1.4099999666
 7720.0000000 7720.0000000 -22.70000076 2.6500000954 1.5099999905 1.5099999905
 7721.0000000 7721.0000000 -24.06999969 2.1600000858 1.6299999952 1.6299999952
 7722.0000000 7722.0000000 -23.97999954 2.0099999905 1.8200000525 1.8200000525
 7723.0000000 7723.0000000 -23.56999969 2.0599999428 1.9600000381 1.9600000381
 7724.0000000 7724.0000000 -23.76000023 2.0399999619 1.9700000286 1.9700000286
 7725.0000000 7725.0000000 -24.26000023 1.9299999475 1.8799999952 1.8799999952
 7726.0000000 7726.0000000 -24.28000069 1.8300000429 1.7400000095 1.7400000095
 7727.0000000 7727.0000000 -23.42000008 2.1199998856 1.5900000334 1.5900000334
 7728.0000000 7728.0000000 -22.30999947 2.7300000191 1.4900000095 1.4900000095
 7729.0000000 7729.0000000 -21.21999931 2.5399999619 1.3999999762 1.3999999762
 7730.0000000 7730.0000000 -23.30999947 2.1099998951 1.4700000286 1.4700000286
 7731.0000000 7731.0000000 -23.29999924 1.8999999762 1.5800000429 1.5800000429
 7732.0000000 7732.0000000 -23.93000031 1.7799999714 1.6699999571 1.6699999571
 7733.0000000 7733.0000000 -23.97999954 1.8500000238 1.7000000477 1.7000000477
 7734.0000000 7734.0000000 -23.23999977 2.0899999142 1.6699999571 1.6699999571
 7735.0000000 7735.0000000 -22.67000008 2.2300000191 1.6299999952 1.6299999952
 7736.0000000 7736.0000000 -22.97999954 2.3099999428 1.5900000334 1.5900000334
 7737.0000000 7737.0000000 -22.27000046 2.5399999619 1.5800000429 1.5800000429
 7738.0000000 7738.0000000 -21.38999939 2.5699999332 1.6299999952 1.6299999952
 7739.0000000 7739.0000000 -20.04000092 2.3599998951 1.7300000191 1.7300000191
 7740.0000000 7740.0000000 -16.82999992 2.4500000477 1.9400000572 1.9400000572
 7741.0000000 7741.0000000 -13.10999966 2.7400000095 1.8899999857 1.8899999857
 7742.0000000 7742.0000000 -10.18000031 3.0000000000 1.8400000334 1.8400000334
 7743.0000000 7743.0000000 -8.520000458 3.2300000191 1.7799999714 1.7799999714
 7744.0000000 7744.0000000 -7.679999828 3.0799999237 1.7699999809 1.7699999809
 7745.0000000 7745.0000000 -7.070000172 2.9500000477 1.7599999905 1.7599999905
 7746.0000000 7746.0000000 -6.159999847 2.7500000000 1.7400000095 1.7400000095
 7747.0000000 7747.0000000 -5.030000210 2.3800001144 1.7100000381 1.7100000381
 7748.0000000 7748.0000000 -4.250000000 2.0799999237 1.7000000477 1.7000000477
 7749.0000000 7749.0000000 -3.509999990 1.8099999428 1.7100000381 1.7100000381
 7750.0000000 7750.0000000 -2.240000010 1.7100000381 1.7100000381 1.7100000381
