# LAS format log file from PETREL
# Project units are specified as depth units
#==================================================================
~Version information
VERS.   2.0:
WRAP.   NO:
#==================================================================
~Well
STRT .m      3000.0000000 :
STOP .m      7750.0000000 :
STEP .m     1.00000000 :
NULL .        -999.250000 :
COMP.           : COMPANY
WELL.  WELL_2   : WELL
FLD.            : FIELD
LOC.            : LOCATION
SRVC.           : SERVICE COMPANY
DATE.  2023-03-20 17:52:46   : Log Export Date {yyyy-MM-dd HH:mm:ss}
PROV.           : PROVINCE
UWI.   WELL_2   : UNIQUE WELL ID
API.            : API NUMBER
#==================================================================
~Curve
DEPT .m                   : DEPTH
Depth .m                  : Depth
SP .mV                    : SP
SN .ohm.m                 : SN
LN .ohm.m                 : LN
LAT .ohm.m                : LAT
~Parameter
#==================================================================
~Ascii
# ...
 4224.0000000 4224.0000000 -1.899999976 1.7500000000 2.0000000000 2.0000000000
 4225.0000000 4225.0000000 -2.460000038 1.6499999762 1.9500000477 1.9500000477
 4226.0000000 4226.0000000 -2.829999924 1.6100000143 1.8999999762 1.8999999762
 4227.0000000 4227.0000000 -2.579999924 1.6100000143 1.8400000334 1.8400000334
 4228.0000000 4228.0000000 -2.180000067 1.6299999952 1.7799999714 1.7799999714
 4229.0000000 4229.0000000 -1.730000019 1.6499999762 1.7300000191 1.7300000191
 4230.0000000 4230.0000000 -2.730000019 1.6900000572 1.6799999475 1.6799999475
 4231.0000000 4231.0000000 -2.769999981 1.6399999857 1.6699999571 1.6699999571
 4232.0000000 4232.0000000 -2.799999952 1.5599999428 1.7000000477 1.7000000477
 4233.0000000 4233.0000000 -2.509999990 1.5199999809 1.7400000095 1.7400000095
 4234.0000000 4234.0000000 -2.009999990 1.5299999714 1.7899999619 1.7899999619
 4235.0000000 4235.0000000 -2.140000105 1.5599999428 1.8200000525 1.8200000525
 4236.0000000 4236.0000000 -2.420000076 1.6299999952 1.8099999428 1.8099999428
 4237.0000000 4237.0000000 -2.210000038 1.6900000572 1.7899999619 1.7899999619
 4238.0000000 4238.0000000 -1.710000038 1.7799999714 1.7599999905 1.7599999905
 4239.0000000 4239.0000000 -0.300000012 1.8899999857 1.8999999762 1.8999999762
 4240.0000000 4240.0000000 0.1700000018 1.9700000286 2.0099999905 2.0099999905
 4241.0000000 4241.0000000 -0.360000014 2.0499999523 2.0899999142 2.0899999142
 4242.0000000 4242.0000000 -1.370000005 2.3199999332 2.1099998951 2.1099998951
 4243.0000000 4243.0000000 -3.109999895 2.5000000000 2.0999999046 2.0999999046
 4244.0000000 4244.0000000 -4.079999924 2.5799999237 2.1400001049 2.1400001049
 4245.0000000 4245.0000000 -5.019999981 2.5999999046 2.2200000286 2.2200000286
 4246.0000000 4246.0000000 -4.829999924 2.5899999142 2.2999999523 2.2999999523
 4247.0000000 4247.0000000 -5.079999924 2.5999999046 2.3299999237 2.3299999237
 4248.0000000 4248.0000000 -5.880000114 2.7200000286 2.1900000572 2.1900000572
 4249.0000000 4249.0000000 -6.480000019 2.7500000000 2.0799999237 2.0799999237
 4250.0000000 4250.0000000 -6.780000210 2.6099998951 1.8799999952 1.8799999952
 4251.0000000 4251.0000000 -1.629999995 2.1400001049 1.6900000572 1.6900000572
 4252.0000000 4252.0000000 0.6700000167 1.9099999666 1.7100000381 1.7100000381
 4253.0000000 4253.0000000 1.7799999714 1.7500000000 1.7200000286 1.7200000286
 4254.0000000 4254.0000000 1.9600000381 1.6100000143 1.6599999666 1.6599999666
 4255.0000000 4255.0000000 1.9600000381 1.5299999714 1.6100000143 1.6100000143
 4256.0000000 4256.0000000 1.6499999762 1.4700000286 1.5599999428 1.5599999428
 4257.0000000 4257.0000000 1.5700000525 1.4600000381 1.5099999905 1.5099999905
 4258.0000000 4258.0000000 1.8099999428 1.4500000477 1.4700000286 1.4700000286
 4259.0000000 4259.0000000 1.8999999762 1.4400000572 1.4700000286 1.4700000286
 4260.0000000 4260.0000000 1.0099999905 1.4299999475 1.4600000381 1.4600000381
 4261.0000000 4261.0000000 0.3700000048 1.4199999571 1.4500000477 1.4500000477
 4262.0000000 4262.0000000 -0.100000001 1.4299999475 1.4600000381 1.4600000381
 4263.0000000 4263.0000000 -0.430000007 1.4500000477 1.5000000000 1.5000000000
 4264.0000000 4264.0000000 -0.460000008 1.4700000286 1.5599999428 1.5599999428
 4265.0000000 4265.0000000 -0.379999995 1.5199999809 1.6599999666 1.6599999666
 4266.0000000 4266.0000000 -0.430000007 1.6000000238 1.7400000095 1.7400000095
 4267.0000000 4267.0000000 -0.490000010 1.7300000191 1.7999999523 1.7999999523
 4268.0000000 4268.0000000 -0.579999983 1.8099999428 1.8300000429 1.8300000429
 4269.0000000 4269.0000000 -0.579999983 1.9299999475 1.8600000143 1.8600000143
 4270.0000000 4270.0000000 -1.149999976 2.2000000477 1.8799999952 1.8799999952
 4271.0000000 4271.0000000 -1.649999976 2.4000000954 1.9099999666 1.9099999666
 4272.0000000 4272.0000000 -1.580000043 2.3599998951 1.9299999475 1.9299999475
 4273.0000000 4273.0000000 -1.360000014 2.2999999523 1.9400000572 1.9400000572
 4274.0000000 4274.0000000 -1.070000052 2.1800000668 1.9299999475 1.9299999475
 4275.0000000 4275.0000000 -0.740000010 2.0199999809 1.8999999762 1.8999999762
 4276.0000000 4276.0000000 -0.430000007 1.8799999952 1.8300000429 1.8300000429
 4277.0000000 4277.0000000 -1.080000043 1.7599999905 1.7200000286 1.7200000286
 4278.0000000 4278.0000000 -2.170000076 1.7300000191 1.7000000477 1.7000000477
 4279.0000000 4279.0000000 -3.569999933 1.7400000095 1.7500000000 1.7500000000
 4280.0000000 4280.0000000 -5.030000210 1.7999999523 1.8200000525 1.8200000525
 4281.0000000 4281.0000000 -5.670000076 1.8600000143 1.8899999857 1.8899999857
 4282.0000000 4282.0000000 -5.750000000 1.9199999571 1.9600000381 1.9600000381
 4283.0000000 4283.0000000 -5.409999847 1.9800000191 2.0099999905 2.0099999905
 4284.0000000 4284.0000000 -5.110000134 2.0399999619 2.0299999714 2.0299999714
 4285.0000000 4285.0000000 -4.829999924 2.0899999142 2.0399999619 2.0399999619
 4286.0000000 4286.0000000 -4.670000076 2.1199998856 2.0899999142 2.0899999142
 4287.0000000 4287.0000000 -4.719999790 2.1500000954 2.1300001144 2.1300001144
 4288.0000000 4288.0000000 -4.880000114 2.1700000763 2.1700000763 2.1700000763
 4289.0000000 4289.0000000 -4.969999790 2.1900000572 2.1900000572 2.1900000572
 4290.0000000 4290.0000000 -4.989999771 2.2100000381 2.2200000286 2.2200000286
 4291.0000000 4291.0000000 -4.369999886 2.2699999809 2.2599999905 2.2599999905
 4292.0000000 4292.0000000 -3.640000105 2.2999999523 2.2899999619 2.2899999619
 4293.0000000 4293.0000000 -3.099999905 2.3199999332 2.3299999237 2.3299999237
 4294.0000000 4294.0000000 -3.529999971 2.3599998951 2.3699998856 2.3699998856
 4295.0000000 4295.0000000 -5.340000153 2.4900000095 2.3699998856 2.3699998856
 4296.0000000 4296.0000000 -14.75000000 2.6099998951 2.3299999237 2.3299999237
 4297.0000000 4297.0000000 -21.04999924 2.6400001049 2.2699999809 2.2699999809
 4298.0000000 4298.0000000 -26.29999924 2.6800000668 2.2300000191 2.2300000191
 4299.0000000 4299.0000000 -31.63999939 2.6900000572 2.2500000000 2.2500000000
 4300.0000000 4300.0000000 -32.15000153 2.6700000763 2.2699999809 2.2699999809
 4301.0000000 4301.0000000 -32.20000076 2.6800000668 2.2500000000 2.2500000000
 4302.0000000 4302.0000000 -32.25000000 2.7200000286 2.2000000477 2.2000000477
 4303.0000000 4303.0000000 -32.29999924 2.9400000572 2.1400001049 2.1400001049
 4304.0000000 4304.0000000 -32.34999847 2.9500000477 2.0899999142 2.0899999142
 4305.0000000 4305.0000000 -32.24000168 2.9600000381 2.0699999332 2.0699999332
 4306.0000000 4306.0000000 -32.11999893 2.9800000191 2.0599999428 2.0599999428
 4307.0000000 4307.0000000 -32.04999924 2.9800000191 2.0399999619 2.0399999619
 4308.0000000 4308.0000000 -32.02999878 2.9500000477 2.0299999714 2.0299999714
 4309.0000000 4309.0000000 -32.11000061 2.9100000858 2.0099999905 2.0099999905
 4310.0000000 4310.0000000 -24.70999908 2.7799999714 1.8899999857 1.8899999857
 4311.0000000 4311.0000000 -22.00000000 2.7200000286 1.8400000334 1.8400000334
 4312.0000000 4312.0000000 -19.36000061 2.6400001049 1.7999999523 1.7999999523
 4313.0000000 4313.0000000 -16.57999992 2.5599999428 1.7400000095 1.7400000095
 4314.0000000 4314.0000000 -11.90999985 2.4700000286 1.7100000381 1.7100000381
 4315.0000000 4315.0000000 -8.489999771 2.3800001144 1.7200000286 1.7200000286
 4316.0000000 4316.0000000 -6.010000229 2.2599999905 1.7100000381 1.7100000381
 4317.0000000 4317.0000000 -3.789999962 2.1199998856 1.7000000477 1.7000000477
 4318.0000000 4318.0000000 -1.000000000 2.0099999905 1.6900000572 1.6900000572
 4319.0000000 4319.0000000 -0.209999993 1.8700000048 1.6799999475 1.6799999475
 4320.0000000 4320.0000000 -0.079999998 1.7500000000 1.6699999571 1.6699999571
 4321.0000000 4321.0000000 -0.090000004 1.6200000048 1.6200000048 1.6200000048
 4322.0000000 4322.0000000 -0.070000000 1.5499999523 1.5800000429 1.5800000429
 4323.0000000 4323.0000000 -0.200000003 1.5099999905 1.5499999523 1.5499999523
 4324.0000000 4324.0000000 -0.490000010 1.5000000000 1.5399999619 1.5399999619
 4325.0000000 4325.0000000 -0.910000026 1.4900000095 1.5399999619 1.5399999619
