# LAS format log file from PETREL
# Project units are specified as depth units
#==================================================================
~Version information
VERS.   2.0:
WRAP.   NO:
#==================================================================
~Well
STRT .m      3000.0000000 :
STOP .m      7750.0000000 :
STEP .m     1.00000000 :
NULL .        -999.250000 :
COMP.           : COMPANY
WELL.  WELL_2   : WELL
FLD.            : FIELD
LOC.            : LOCATION
SRVC.           : SERVICE COMPANY
DATE.  2023-03-20 17:52:46   : Log Export Date {yyyy-MM-dd HH:mm:ss}
PROV.           : PROVINCE
UWI.   WELL_2   : UNIQUE WELL ID
API.            : API NUMBER
#==================================================================
~Curve
DEPT .m                   : DEPTH
Depth .m                  : Depth
SP .mV                    : SP
SN .ohm.m                 : SN
LN .ohm.m                 : LN
LAT .ohm.m                : LAT
~Parameter
#==================================================================
~Ascii
# ...
 7080.0000000 7080.0000000 -15.01000023 1.6200000048 1.4099999666 1.4099999666
 7081.0000000 7081.0000000 -17.79999924 2.0699999332 1.4700000286 1.4700000286
 7082.0000000 7082.0000000 -19.17000008 2.6700000763 1.5800000429 1.5800000429
 7083.0000000 7083.0000000 -20.67000008 3.4400000572 1.7200000286 1.7200000286
 7084.0000000 7084.0000000 -22.20000076 4.1599998474 1.8600000143 1.8600000143
 7085.0000000 7085.0000000 -22.71999931 4.5399999619 2.0099999905 2.0099999905
 7086.0000000 7086.0000000 -23.12000084 4.2600002289 2.1700000763 2.1700000763
 7087.0000000 7087.0000000 -23.43000031 3.3599998951 2.2799999714 2.2799999714
 7088.0000000 7088.0000000 -23.47999954 2.9400000572 2.4200000763 2.4200000763
 7089.0000000 7089.0000000 -23.30999947 2.7999999523 2.5699999332 2.5699999332
 7090.0000000 7090.0000000 -22.87000084 3.0599999428 2.5799999237 2.5799999237
 7091.0000000 7091.0000000 -22.56999969 3.2200000286 2.3699998856 2.3699998856
 7092.0000000 7092.0000000 -22.36000061 3.2999999523 2.2100000381 2.2100000381
 7093.0000000 7093.0000000 -22.13999939 3.3399999142 2.0799999237 2.0799999237
 7094.0000000 7094.0000000 -21.90999985 3.2300000191 2.0299999714 2.0299999714
 7095.0000000 7095.0000000 -21.62999916 3.0699999332 2.0599999428 2.0599999428
 7096.0000000 7096.0000000 -21.20000076 2.8299999237 2.1099998951 2.1099998951
 7097.0000000 7097.0000000 -20.79000092 2.6800000668 2.1400001049 2.1400001049
 7098.0000000 7098.0000000 -20.53000069 2.5999999046 2.0399999619 2.0399999619
 7099.0000000 7099.0000000 -20.20000076 2.5599999428 1.9199999571 1.9199999571
 7100.0000000 7100.0000000 -19.82999992 2.4000000954 1.7799999714 1.7799999714
 7101.0000000 7101.0000000 -19.44000053 2.2999999523 1.7000000477 1.7000000477
 7102.0000000 7102.0000000 -18.40999985 2.3099999428 1.5599999428 1.5599999428
 7103.0000000 7103.0000000 -16.39999962 2.2799999714 1.4700000286 1.4700000286
 7104.0000000 7104.0000000 -13.89999962 2.2200000286 1.4500000477 1.4500000477
 7105.0000000 7105.0000000 -10.05000019 2.1400001049 1.4700000286 1.4700000286
 7106.0000000 7106.0000000 -9.409999847 2.0399999619 1.5399999619 1.5399999619
 7107.0000000 7107.0000000 -10.36999989 2.1500000954 1.6100000143 1.6100000143
 7108.0000000 7108.0000000 -11.97000027 2.4100000858 1.6799999475 1.6799999475
 7109.0000000 7109.0000000 -14.31000042 2.8099999428 1.7599999905 1.7599999905
 7110.0000000 7110.0000000 -16.67000008 3.1099998951 1.8799999952 1.8799999952
 7111.0000000 7111.0000000 -19.84000015 3.0899999142 2.0099999905 2.0099999905
 7112.0000000 7112.0000000 -19.54999924 2.9000000954 2.1199998856 2.1199998856
 7113.0000000 7113.0000000 -18.40999985 2.8099999428 2.2100000381 2.2100000381
 7114.0000000 7114.0000000 -17.38999939 2.7300000191 2.2799999714 2.2799999714
 7115.0000000 7115.0000000 -16.53000069 2.6700000763 2.2699999809 2.2699999809
 7116.0000000 7116.0000000 -16.71999931 2.6300001144 2.1500000954 2.1500000954
 7117.0000000 7117.0000000 -17.03000069 2.6600000858 1.9199999571 1.9199999571
 7118.0000000 7118.0000000 -16.23999977 2.7200000286 1.7100000381 1.7100000381
 7119.0000000 7119.0000000 -13.43999958 2.7000000477 1.5499999523 1.5499999523
 7120.0000000 7120.0000000 -10.40999985 2.1199998856 1.5800000429 1.5800000429
 7121.0000000 7121.0000000 -7.869999886 1.6599999666 1.6399999857 1.6399999857
 7122.0000000 7122.0000000 -7.320000172 1.6900000572 1.6499999762 1.6499999762
 7123.0000000 7123.0000000 -7.500000000 1.7699999809 1.6200000048 1.6200000048
 7124.0000000 7124.0000000 -7.679999828 1.9099999666 1.5700000525 1.5700000525
 7125.0000000 7125.0000000 -7.929999828 1.8799999952 1.5099999905 1.5099999905
 7126.0000000 7126.0000000 -8.060000420 1.8400000334 1.4600000381 1.4600000381
 7127.0000000 7127.0000000 -8.220000267 1.7799999714 1.4299999475 1.4299999475
 7128.0000000 7128.0000000 -8.500000000 1.7500000000 1.4600000381 1.4600000381
 7129.0000000 7129.0000000 -8.960000038 1.7699999809 1.4700000286 1.4700000286
 7130.0000000 7130.0000000 -9.170000076 1.7899999619 1.4800000191 1.4800000191
 7131.0000000 7131.0000000 -9.039999962 1.7999999523 1.4800000191 1.4800000191
 7132.0000000 7132.0000000 -8.770000458 1.7699999809 1.4900000095 1.4900000095
 7133.0000000 7133.0000000 -8.529999733 1.7400000095 1.4900000095 1.4900000095
 7134.0000000 7134.0000000 -8.220000267 1.7100000381 1.4800000191 1.4800000191
 7135.0000000 7135.0000000 -7.980000019 1.6699999571 1.4800000191 1.4800000191
 7136.0000000 7136.0000000 -7.769999981 1.5900000334 1.4700000286 1.4700000286
 7137.0000000 7137.0000000 -7.530000210 1.5199999809 1.4500000477 1.4500000477
 7138.0000000 7138.0000000 -7.139999866 1.4900000095 1.4400000572 1.4400000572
 7139.0000000 7139.0000000 -6.809999943 1.5199999809 1.4400000572 1.4400000572
 7140.0000000 7140.0000000 -7.940000057 1.6100000143 1.4900000095 1.4900000095
 7141.0000000 7141.0000000 -8.760000229 1.7200000286 1.5399999619 1.5399999619
 7142.0000000 7142.0000000 -10.25000000 1.8700000048 1.6299999952 1.6299999952
 7143.0000000 7143.0000000 -12.14000034 2.0299999714 1.7300000191 1.7300000191
 7144.0000000 7144.0000000 -16.51000023 2.1800000668 1.8500000238 1.8500000238
 7145.0000000 7145.0000000 -18.20999908 2.3399999142 2.0199999809 2.0199999809
 7146.0000000 7146.0000000 -20.14999962 2.4700000286 2.1500000954 2.1500000954
 7147.0000000 7147.0000000 -21.67000008 2.5699999332 2.2200000286 2.2200000286
 7148.0000000 7148.0000000 -22.45999908 2.6400001049 2.2799999714 2.2799999714
 7149.0000000 7149.0000000 -23.04999924 2.7200000286 2.3399999142 2.3399999142
 7150.0000000 7150.0000000 -23.39999962 2.8499999046 2.4100000858 2.4100000858
 7151.0000000 7151.0000000 -23.55999947 2.9800000191 2.5199999809 2.5199999809
 7152.0000000 7152.0000000 -23.57999992 3.0699999332 2.6300001144 2.6300001144
 7153.0000000 7153.0000000 -23.53000069 3.1199998856 2.7200000286 2.7200000286
 7154.0000000 7154.0000000 -23.31999969 3.2300000191 2.8499999046 2.8499999046
 7155.0000000 7155.0000000 -23.06999969 3.3499999046 2.8499999046 2.8499999046
 7156.0000000 7156.0000000 -22.62000084 3.6199998856 2.7000000477 2.7000000477
 7157.0000000 7157.0000000 -22.06999969 3.8099999428 2.5399999619 2.5399999619
 7158.0000000 7158.0000000 -21.09000015 3.8099999428 2.3900001049 2.3900001049
 7159.0000000 7159.0000000 -19.46999931 3.6700000763 2.2500000000 2.2500000000
 7160.0000000 7160.0000000 -17.00000000 2.6800000668 2.1400001049 2.1400001049
 7161.0000000 7161.0000000 -14.36999989 2.3800001144 2.0699999332 2.0699999332
 7162.0000000 7162.0000000 -12.56000042 2.3800001144 2.0599999428 2.0599999428
 7163.0000000 7163.0000000 -13.86999989 2.4400000572 2.0499999523 2.0499999523
 7164.0000000 7164.0000000 -16.68000031 2.6700000763 2.0299999714 2.0299999714
 7165.0000000 7165.0000000 -19.40999985 2.9200000763 2.0000000000 2.0000000000
 7166.0000000 7166.0000000 -21.19000053 3.0599999428 1.9099999666 1.9099999666
 7167.0000000 7167.0000000 -21.92000008 3.0799999237 1.8500000238 1.8500000238
 7168.0000000 7168.0000000 -22.89999962 2.9300000668 1.8899999857 1.8899999857
 7169.0000000 7169.0000000 -23.51000023 2.6199998856 1.8999999762 1.8999999762
 7170.0000000 7170.0000000 -22.73999977 2.2500000000 1.8600000143 1.8600000143
 7171.0000000 7171.0000000 -21.57999992 1.8799999952 1.8099999428 1.8099999428
 7172.0000000 7172.0000000 -21.37000084 1.7200000286 1.7000000477 1.7000000477
 7173.0000000 7173.0000000 -20.89999962 1.6000000238 1.5599999428 1.5599999428
 7174.0000000 7174.0000000 -19.52000046 1.4700000286 1.4199999571 1.4199999571
 7175.0000000 7175.0000000 -13.89999962 1.3600000143 1.2699999809 1.2699999809
 7176.0000000 7176.0000000 -9.850000381 1.2899999619 1.1699999571 1.1699999571
 7177.0000000 7177.0000000 -8.039999962 1.2500000000 1.2300000191 1.2300000191
 7178.0000000 7178.0000000 -12.31000042 1.3099999428 1.3200000525 1.3200000525
 7179.0000000 7179.0000000 -14.97000027 1.5099999905 1.3999999762 1.3999999762
 7180.0000000 7180.0000000 -17.55999947 1.9500000477 1.5199999809 1.5199999809
 7181.0000000 7181.0000000 -20.45000076 2.1900000572 1.5900000334 1.5900000334
