# LAS format log file from PETREL
# Project units are specified as depth units
#==================================================================
~Version information
VERS.   2.0:
WRAP.   NO:
#==================================================================
~Well
STRT .m      3000.0000000 :
STOP .m      6457.0000000 :
STEP .m     1.00000000 :
NULL .        -999.250000 :
COMP.           : COMPANY
WELL.  WELL_1   : WELL
FLD.            : FIELD
LOC.            : LOCATION
SRVC.           : SERVICE COMPANY
DATE.  2023-03-20 17:52:46   : Log Export Date {yyyy-MM-dd HH:mm:ss}
PROV.           : PROVINCE
UWI.   WELL_1   : UNIQUE WELL ID
API.            : API NUMBER
#==================================================================
~Curve
DEPT .m                   : DEPTH
Depth .m                  : Depth
SP .mV                    : SP
SN .ohm.m                 : SN
LN .ohm.m                 : LN
~Parameter
#==================================================================
~Ascii
# ...
 4586.0000000 4586.0000000 9.5100002289 1.8899999857 1.4400000572
 4587.0000000 4587.0000000 8.8400001526 2.0000000000 1.6900000572
 4588.0000000 4588.0000000 8.1599998474 2.3499999046 1.8899999857
 4589.0000000 4589.0000000 7.4899997711 2.9600000381 2.0599999428
 4590.0000000 4590.0000000 6.4800000191 3.3099999428 2.0599999428
 4591.0000000 4591.0000000 5.9299998283 2.9400000572 2.0299999714
 4592.0000000 4592.0000000 5.8699998856 2.5699999332 1.8899999857
 4593.0000000 4593.0000000 5.6999998093 2.2100000381 1.7300000191
 4594.0000000 4594.0000000 4.8699998856 1.8999999762 1.5700000525
 4595.0000000 4595.0000000 5.5399999619 1.5900000334 1.3899999857
 4596.0000000 4596.0000000 6.2600002289 1.4299999475 1.2100000381
 4597.0000000 4597.0000000 6.7399997711 1.3099999428 1.1299999952
 4598.0000000 4598.0000000 7.0500001907 1.2100000381 1.0900000334
 4599.0000000 4599.0000000 6.5700001717 1.2300000191 1.0499999523
 4600.0000000 4600.0000000 6.0799999237 1.2400000095 1.0599999428
 4601.0000000 4601.0000000 6.0399999619 1.2699999809 1.1200000048
 4602.0000000 4602.0000000 6.4000000954 1.3799999952 1.1699999571
 4603.0000000 4603.0000000 6.7699999809 1.4800000191 1.2899999619
 4604.0000000 4604.0000000 7.1199998856 1.6499999762 1.5000000000
 4605.0000000 4605.0000000 7.3600001335 1.8700000048 1.7000000477
 4606.0000000 4606.0000000 7.6100001335 2.0799999237 1.9099999666
 4607.0000000 4607.0000000 7.5799999237 2.2300000191 2.1099998951
 4608.0000000 4608.0000000 6.9400000572 2.2100000381 2.1500000954
 4609.0000000 4609.0000000 6.3099999428 1.9600000381 1.9700000286
 4610.0000000 4610.0000000 5.8200001717 1.7100000381 1.6599999666
 4611.0000000 4611.0000000 5.9699997902 1.4500000477 1.3899999857
 4612.0000000 4612.0000000 6.1100001335 1.2300000191 1.1799999475
 4613.0000000 4613.0000000 6.3099999428 1.2000000477 1.0700000525
 4614.0000000 4614.0000000 6.6399998665 1.1699999571 1.0700000525
 4615.0000000 4615.0000000 6.9600000381 1.2500000000 1.0700000525
 4616.0000000 4616.0000000 7.2800002098 1.3600000143 1.0700000525
 4617.0000000 4617.0000000 7.6799998283 1.4800000191 1.0599999428
 4618.0000000 4618.0000000 8.2500000000 1.5399999619 1.0599999428
 4619.0000000 4619.0000000 8.8100004196 1.6000000238 1.0599999428
 4620.0000000 4620.0000000 9.2299995422 1.5499999523 1.0499999523
 4621.0000000 4621.0000000 9.3299999237 1.4700000286 1.1000000238
 4622.0000000 4622.0000000 9.4200000763 1.3500000238 1.1900000572
 4623.0000000 4623.0000000 9.5200004578 1.2000000477 1.2799999714
 4624.0000000 4624.0000000 9.2899999619 1.2799999714 1.3700000048
 4625.0000000 4625.0000000 9.0200004578 1.3899999857 1.4700000286
 4626.0000000 4626.0000000 8.7600002289 1.5399999619 1.6200000048
 4627.0000000 4627.0000000 8.4799995422 1.7000000477 1.8799999952
 4628.0000000 4628.0000000 8.0100002289 1.9900000095 2.2100000381
 4629.0000000 4629.0000000 7.5500001907 2.3699998856 2.3499999046
 4630.0000000 4630.0000000 7.6599998474 2.3699998856 2.1500000954
 4631.0000000 4631.0000000 7.9499998093 2.0799999237 1.9400000572
 4632.0000000 4632.0000000 8.0900001526 1.7899999619 1.7400000095
 4633.0000000 4633.0000000 8.1000003815 1.5800000429 1.5399999619
 4634.0000000 4634.0000000 7.6999998093 1.4700000286 1.3300000429
 4635.0000000 4635.0000000 7.2899999619 1.3500000238 1.1799999475
 4636.0000000 4636.0000000 7.1300001144 1.2300000191 1.1000000238
 4637.0000000 4637.0000000 7.4099998474 1.1900000572 1.0099999905
 4638.0000000 4638.0000000 7.6799998283 1.1699999571 0.9399999976
 4639.0000000 4639.0000000 8.1700000763 1.1399999857 0.9300000072
 4640.0000000 4640.0000000 8.7700004578 1.2000000477 0.9300000072
 4641.0000000 4641.0000000 9.3699998856 1.3300000429 1.0399999619
 4642.0000000 4642.0000000 9.6400003433 1.4500000477 1.1699999571
 4643.0000000 4643.0000000 9.8000001907 1.5800000429 1.2999999523
 4644.0000000 4644.0000000 9.9499998093 1.6699999571 1.4299999475
 4645.0000000 4645.0000000 9.9300003052 1.7100000381 1.5499999523
 4646.0000000 4646.0000000 9.3599996567 1.6900000572 1.6000000238
 4647.0000000 4647.0000000 8.8000001907 1.6000000238 1.6499999762
 4648.0000000 4648.0000000 8.2299995422 1.5099999905 1.6200000048
 4649.0000000 4649.0000000 7.6799998283 1.6399999857 1.5700000525
 4650.0000000 4650.0000000 7.1199998856 1.7699999809 1.5199999809
 4651.0000000 4651.0000000 6.8600001335 1.7899999619 1.5399999619
 4652.0000000 4652.0000000 6.7899999619 1.6599999666 1.5499999523
 4653.0000000 4653.0000000 6.7100000381 1.5399999619 1.4900000095
 4654.0000000 4654.0000000 7.0199999809 1.4099999666 1.3700000048
 4655.0000000 4655.0000000 7.4699997902 1.2999999523 1.2400000095
 4656.0000000 4656.0000000 7.8899998665 1.2000000477 1.1399999857
 4657.0000000 4657.0000000 7.9200000763 1.0900000334 1.0599999428
 4658.0000000 4658.0000000 7.9499998093 1.0099999905 0.9900000095
 4659.0000000 4659.0000000 7.8699998856 1.0000000000 0.9100000262
 4660.0000000 4660.0000000 7.5000000000 0.9900000095 0.8299999833
 4661.0000000 4661.0000000 7.1300001144 0.9800000191 0.8199999928
 4662.0000000 4662.0000000 6.7699999809 1.0299999714 0.8199999928
 4663.0000000 4663.0000000 6.3600001335 1.1100000143 0.8100000024
 4664.0000000 4664.0000000 6.4499998093 1.1900000572 0.8399999738
 4665.0000000 4665.0000000 6.8699998856 1.2400000095 0.8799999952
 4666.0000000 4666.0000000 7.2899999619 1.2599999905 0.9100000262
 4667.0000000 4667.0000000 7.7199997902 1.2799999714 0.9499999881
 4668.0000000 4668.0000000 8.1700000763 1.2799999714 1.0000000000
 4669.0000000 4669.0000000 8.6199998856 1.2699999809 1.0599999428
 4670.0000000 4670.0000000 9.0600004196 1.2699999809 1.1100000143
 4671.0000000 4671.0000000 9.4700002670 1.2899999619 1.1900000572
 4672.0000000 4672.0000000 9.8800001144 1.3600000143 1.2599999905
 4673.0000000 4673.0000000 10.239999771 1.4199999571 1.3300000429
 4674.0000000 4674.0000000 10.460000038 1.5299999714 1.3799999952
 4675.0000000 4675.0000000 10.189999580 1.6599999666 1.4199999571
 4676.0000000 4676.0000000 9.6599998474 1.7899999619 1.4700000286
 4677.0000000 4677.0000000 9.0100002289 1.8400000334 1.4700000286
 4678.0000000 4678.0000000 8.3599996567 1.8500000238 1.4500000477
 4679.0000000 4679.0000000 7.7100000381 1.7500000000 1.4400000572
 4680.0000000 4680.0000000 7.2899999619 1.6000000238 1.4199999571
 4681.0000000 4681.0000000 7.7399997711 1.4600000381 1.3999999762
 4682.0000000 4682.0000000 8.1800003052 1.4299999475 1.3700000048
 4683.0000000 4683.0000000 8.5299997330 1.4099999666 1.3400000334
 4684.0000000 4684.0000000 8.5200004578 1.3799999952 1.3099999428
 4685.0000000 4685.0000000 8.5100002289 1.3600000143 1.2699999809
 4686.0000000 4686.0000000 8.4899997711 1.3500000238 1.2400000095
 4687.0000000 4687.0000000 8.4600000381 1.3400000334 1.2100000381
 4688.0000000 4688.0000000 8.6499996185 1.3300000429 1.1799999475
 4689.0000000 4689.0000000 9.0799999237 1.3200000525 1.1599999666
 4690.0000000 4690.0000000 9.5200004578 1.3300000429 1.1299999952
 4691.0000000 4691.0000000 9.9600000381 1.3400000334 1.1200000048
 4692.0000000 4692.0000000 10.340000153 1.3400000334 1.1100000143
 4693.0000000 4693.0000000 10.619999886 1.3500000238 1.1000000238
 4694.0000000 4694.0000000 10.899999619 1.3500000238 1.0900000334
 4695.0000000 4695.0000000 11.180000305 1.3500000238 1.0800000429
 4696.0000000 4696.0000000 11.340000153 1.3400000334 1.0900000334
 4697.0000000 4697.0000000 11.430000305 1.3300000429 1.1000000238
 4698.0000000 4698.0000000 11.520000458 1.3099999428 1.1100000143
 4699.0000000 4699.0000000 11.619999886 1.2799999714 1.1299999952
 4700.0000000 4700.0000000 11.710000038 1.2500000000 1.1399999857
 4701.0000000 4701.0000000 11.720000267 1.2200000286 1.1399999857
 4702.0000000 4702.0000000 11.670000076 1.1900000572 1.1399999857
 4703.0000000 4703.0000000 11.619999886 1.1699999571 1.1399999857
 4704.0000000 4704.0000000 11.569999695 1.1599999666 1.1399999857
 4705.0000000 4705.0000000 11.520000458 1.1499999762 1.1399999857
 4706.0000000 4706.0000000 11.369999886 1.1299999952 1.1399999857
 4707.0000000 4707.0000000 10.909999847 1.1200000048 1.1299999952
